,$GPGGA,000800.00,3653.7847,S,17454.4485,E,1,12,0.8,24.2,M,28.3,M,,*4E
,$GNGLL,3653.7847,S,17454.4485,E,000800.00,A,A*63
,$GNGSA,A,3,01,03,04,10,21,22,25,26,31,32,,,1.3,0.8,1.1,1*3F
,$GNGSA,A,3,76,83,,,,,,,,,,,1.3,0.8,1.1,2*32
,$GPGSV,3,1,12,01,28,268,40,03,30,224,37,04,07,256,39,10,14,036,23,0*6F
,$GPGSV,3,2,12,12,00,151,,16,08,002,29,21,23,297,35,22,55,240,24,0*6F
,$GPGSV,3,3,12,25,24,128,39,26,31,017,32,31,85,205,38,32,38,103,43,0*6B
,$GLGSV,2,1,08,65,21,069,29,66,64,146,38,67,29,217,40,75,19,149,,0*70
,$GLGSV,2,2,08,76,71,110,39,77,44,348,,82,09,257,38,83,07,214,29,0*7B
,$GQGSV,1,1,04,01,58,248,,02,07,331,,03,08,324,,07,24,298,33,0*6A
,$GNRMC,000800.00,A,3653.7847,S,17454.4485,E,0.0,351.6,160621,,,A,V*2D
,$GNVTG,351.6,T,,M,0.0,N,0.0,K,A*12
,$GNZDA,000800.00,16,06,2021,,*70
,$PSGSA,4,01,03,04,10,21,22,25,26,31,32,,,1.3,0.8,1.1,2405,00080000,00,,7,40,,2,B,4,0,0,2,11,0,0,0,5,0,-0.84,16,1*30
,$PSGSA,4,76,83,,,,,,,,,,,1.3,0.8,1.1,2405,00080000,00,,7,40,,2,B,4,0,0,2,11,0,0,0,5,0,-0.84,16,2*3D
,$GPGGA,000801.00,3653.7847,S,17454.4484,E,1,12,0.8,24.6,M,28.3,M,,*4A
,$GNGLL,3653.7847,S,17454.4484,E,000801.00,A,A*63
,$GNGSA,A,3,01,03,04,10,21,22,25,26,31,32,,,1.3,0.8,1.1,1*3F
,$GNGSA,A,3,66,83,,,,,,,,,,,1.3,0.8,1.1,2*33
,$GPGSV,3,1,12,01,28,268,39,03,31,224,38,04,07,256,39,10,14,036,26,0*6A
,$GPGSV,3,2,12,12,00,151,,16,08,002,29,21,23,297,34,22,55,240,28,0*62
,$GPGSV,3,3,12,25,24,128,38,26,31,017,32,31,85,205,37,32,38,103,44,0*62
,$GLGSV,2,1,08,65,21,069,30,66,64,146,38,67,29,217,39,75,19,149,,0*76
,$GLGSV,2,2,08,76,71,110,38,77,44,348,,82,09,257,37,83,07,214,30,0*7D
,$GQGSV,1,1,04,01,58,248,,02,07,331,,03,08,324,,07,24,298,32,0*6B
,$GNRMC,000801.00,A,3653.7847,S,17454.4484,E,0.1,351.6,160621,,,A,V*2C
,$GNVTG,351.6,T,,M,0.1,N,0.3,K,A*10
,$GNZDA,000801.00,16,06,2021,,*71
,$PSGSA,4,01,03,04,10,21,22,25,26,31,32,,,1.3,0.8,1.1,2405,00080100,00,,7,40,,2,B,4,0,0,2,11,0,0,0,5,0,-0.84,16,1*31
,$PSGSA,4,66,83,,,,,,,,,,,1.3,0.8,1.1,2405,00080100,00,,7,40,,2,B,4,0,0,2,11,0,0,0,5,0,-0.84,16,2*3D
,$GPGGA,000802.00,3653.7847,S,17454.4482,E,1,12,0.8,24.9,M,28.3,M,,*40
,$GNGLL,3653.7847,S,17454.4482,E,000802.00,A,A*66
,$GNGSA,A,3,01,03,04,10,21,22,25,26,31,32,,,1.3,0.8,1.1,1*3F
,$GNGSA,A,3,76,83,,,,,,,,,,,1.3,0.8,1.1,2*32
,$GPGSV,3,1,12,01,28,268,40,03,31,224,37,04,07,256,40,10,14,036,28,0*6B
,$GPGSV,3,2,12,12,00,151,,16,08,002,29,21,23,297,37,22,55,240,29,0*60
,$GPGSV,3,3,12,25,24,128,38,26,31,017,34,31,85,205,38,32,38,103,45,0*6A
,$GLGSV,2,1,08,65,21,069,30,66,64,146,38,67,29,217,39,75,19,149,,0*76
,$GLGSV,2,2,08,76,71,110,39,77,44,348,,82,09,257,38,83,07,214,29,0*7B
,$GQGSV,1,1,04,01,58,248,,02,07,331,,03,08,324,,07,24,298,32,0*6B
,$GNRMC,000802.00,A,3653.7847,S,17454.4482,E,0.1,351.6,160621,,,A,V*29
,$GNVTG,351.6,T,,M,0.1,N,0.3,K,A*10
,$GNZDA,000802.00,16,06,2021,,*72
,$PSGSA,4,01,03,04,10,21,22,25,26,31,32,,,1.3,0.8,1.1,2405,00080200,00,,7,41,,2,B,4,0,0,2,11,0,0,0,5,0,-0.84,16,1*33
,$PSGSA,4,76,83,,,,,,,,,,,1.3,0.8,1.1,2405,00080200,00,,7,41,,2,B,4,0,0,2,11,0,0,0,5,0,-0.84,16,2*3E
,$GPGGA,000803.00,3653.7846,S,17454.4481,E,1,12,0.8,25.0,M,28.3,M,,*4B
,$GNGLL,3653.7846,S,17454.4481,E,000803.00,A,A*65
,$GNGSA,A,3,01,03,04,10,21,22,25,26,31,32,,,1.3,0.8,1.1,1*3F
,$GNGSA,A,3,76,83,,,,,,,,,,,1.3,0.8,1.1,2*32
,$GPGSV,3,1,12,01,28,268,40,03,31,224,38,04,07,256,40,10,14,036,26,0*6A
,$GPGSV,3,2,12,12,00,151,,16,08,002,29,21,23,297,37,22,55,240,22,0*6B
,$GPGSV,3,3,12,25,24,128,37,26,31,017,31,31,85,205,38,32,38,103,45,0*60
,$GLGSV,2,1,08,65,21,069,30,66,64,146,38,67,29,217,39,75,19,149,,0*76
,$GLGSV,2,2,08,76,71,110,39,77,44,348,00,82,09,257,37,83,07,214,29,0*74
,$GQGSV,1,1,04,01,58,248,,02,07,331,,03,08,324,,07,24,298,30,0*69
,$GNRMC,000803.00,A,3653.7846,S,17454.4481,E,0.3,351.6,160621,,,A,V*28
,$GNVTG,351.6,T,,M,0.3,N,0.5,K,A*14
,$GNZDA,000803.00,16,06,2021,,*73
,$PSGSA,4,01,03,04,10,21,22,25,26,31,32,,,1.3,0.8,1.1,2405,00080300,00,,7,41,,2,B,4,0,0,2,14,0,0,0,3,0,-0.84,16,1*31
,$PSGSA,4,76,83,,,,,,,,,,,1.3,0.8,1.1,2405,00080300,00,,7,41,,2,B,4,0,0,2,14,0,0,0,3,0,-0.84,16,2*3C
,$GPGGA,000804.00,3653.7847,S,17454.4481,E,1,12,0.8,24.7,M,28.3,M,,*4B
,$GNGLL,3653.7847,S,17454.4481,E,000804.00,A,A*63
,$GNGSA,A,3,01,03,04,10,21,22,25,26,31,32,,,1.3,0.8,1.1,1*3F
,$GNGSA,A,3,76,83,,,,,,,,,,,1.3,0.8,1.1,2*32
,$GPGSV,3,1,12,01,28,268,38,03,31,224,39,04,07,256,41,10,14,036,29,0*6A
,$GPGSV,3,2,12,12,00,151,,16,08,002,29,21,23,297,36,22,55,240,24,0*6C
,$GPGSV,3,3,12,25,24,128,38,26,31,017,30,31,85,205,38,32,38,103,43,0*68
,$GLGSV,2,1,08,65,21,069,32,66,64,146,38,67,29,217,40,75,19,149,,0*7A
,$GLGSV,2,2,08,76,71,110,40,77,44,348,00,82,09,257,37,83,07,214,28,0*7B
,$GQGSV,1,1,04,01,58,248,,02,07,331,,03,08,324,,07,24,298,33,0*6A
,$GNRMC,000804.00,A,3653.7847,S,17454.4481,E,0.4,351.6,160621,,,A,V*29
,$GNVTG,351.6,T,,M,0.4,N,0.7,K,A*11
,$GNZDA,000804.00,16,06,2021,,*74
,$PSGSA,4,01,03,04,10,21,22,25,26,31,32,,,1.3,0.8,1.1,2405,00080400,00,,7,41,,2,B,4,0,0,2,14,0,0,0,3,0,-0.84,16,1*36
,$PSGSA,4,76,83,,,,,,,,,,,1.3,0.8,1.1,2405,00080400,00,,7,41,,2,B,4,0,0,2,14,0,0,0,3,0,-0.84,16,2*3B
,$GPGGA,000805.00,3653.7846,S,17454.4479,E,1,12,0.8,24.8,M,28.3,M,,*43
,$GNGLL,3653.7846,S,17454.4479,E,000805.00,A,A*64
,$GNGSA,A,3,01,03,04,10,21,22,25,26,31,32,,,1.3,0.8,1.1,1*3F
,$GNGSA,A,3,76,83,,,,,,,,,,,1.3,0.8,1.1,2*32
,$GPGSV,3,1,12,01,28,268,36,03,31,224,39,04,07,256,41,10,14,036,27,0*6A
,$GPGSV,3,2,12,12,00,151,,16,08,002,32,21,23,297,36,22,55,240,24,0*66
,$GPGSV,3,3,12,25,24,128,36,26,31,017,31,31,85,205,38,32,38,103,43,0*67
,$GLGSV,2,1,08,65,21,069,32,66,64,145,38,67,29,217,38,75,19,149,,0*76
,$GLGSV,2,2,08,76,71,110,39,77,44,348,15,82,09,257,37,83,07,214,27,0*7E
,$GQGSV,1,1,04,01,58,248,,02,07,331,,03,08,324,,07,24,298,33,0*6A
,$GNRMC,000805.00,A,3653.7846,S,17454.4479,E,0.4,351.6,160621,,,A,V*2E
,$GNVTG,351.6,T,,M,0.4,N,0.7,K,A*11
,$GNZDA,000805.00,16,06,2021,,*75
,$PSGSA,4,01,03,04,10,21,22,25,26,31,32,,,1.3,0.8,1.1,2405,00080500,00,,7,40,,2,B,4,0,0,2,14,0,0,0,3,0,-0.84,16,1*36
,$PSGSA,4,76,83,,,,,,,,,,,1.3,0.8,1.1,2405,00080500,00,,7,40,,2,B,4,0,0,2,14,0,0,0,3,0,-0.84,16,2*3B
,$GPGGA,000806.00,3653.7846,S,17454.4478,E,1,12,0.8,24.6,M,28.3,M,,*4F
,$GNGLL,3653.7846,S,17454.4478,E,000806.00,A,A*66
,$GNGSA,A,3,01,03,04,10,21,22,25,26,31,32,,,1.3,0.8,1.1,1*3F
,$GNGSA,A,3,76,83,,,,,,,,,,,1.3,0.8,1.1,2*32
,$GPGSV,3,1,12,01,28,268,37,03,31,224,39,04,07,256,41,10,14,036,23,0*6F
,$GPGSV,3,2,12,12,00,151,,16,08,002,32,21,23,297,34,22,55,240,22,0*62
,$GPGSV,3,3,12,25,24,128,37,26,31,017,32,31,85,205,38,32,38,103,43,0*65
,$GLGSV,2,1,08,65,21,069,32,66,64,145,39,67,29,217,37,75,19,149,,0*78
,$GLGSV,2,2,08,76,71,110,39,77,44,348,16,82,09,257,37,83,07,214,27,0*7D
,$GQGSV,1,1,04,01,58,248,,02,07,331,,03,08,324,,07,24,298,33,0*6A
,$GNRMC,000806.00,A,3653.7846,S,17454.4478,E,0.4,214.1,160621,,,A,V*2B
,$GNVTG,214.1,T,,M,0.4,N,0.7,K,A*16
,$GNZDA,000806.00,16,06,2021,,*76
,$PSGSA,4,01,03,04,10,21,22,25,26,31,32,,,1.3,0.8,1.1,2404,00080600,00,,7,40,,2,B,4,0,0,2,14,0,0,0,3,0,-0.84,16,1*34
,$PSGSA,4,76,83,,,,,,,,,,,1.3,0.8,1.1,2404,00080600,00,,7,40,,2,B,4,0,0,2,14,0,0,0,3,0,-0.84,16,2*39
,$GPGGA,000807.00,3653.7847,S,17454.4477,E,1,12,0.8,24.4,M,28.3,M,,*42
,$GNGLL,3653.7847,S,17454.4477,E,000807.00,A,A*69
,$GNGSA,A,3,01,03,04,10,21,22,25,26,31,32,,,1.3,0.8,1.1,1*3F
,$GNGSA,A,3,76,83,,,,,,,,,,,1.3,0.8,1.1,2*32
,$GPGSV,3,1,12,01,28,268,37,03,31,224,40,04,07,256,40,10,14,036,26,0*65
,$GPGSV,3,2,12,12,00,151,,16,08,002,32,21,23,297,34,22,55,240,26,0*66
,$GPGSV,3,3,12,25,24,128,34,26,31,017,35,31,85,204,38,32,38,103,43,0*60
,$GLGSV,2,1,08,65,21,069,31,66,64,145,37,67,29,217,38,75,19,149,,0*7A
,$GLGSV,2,2,08,76,71,110,39,77,44,348,15,82,09,257,37,83,07,214,28,0*71
,$GQGSV,1,1,04,01,58,248,,02,07,331,,03,08,324,,07,24,298,33,0*6A
,$GNRMC,000807.00,A,3653.7847,S,17454.4477,E,0.4,200.6,160621,,,A,V*26
,$GNVTG,200.6,T,,M,0.4,N,0.7,K,A*14
,$GNZDA,000807.00,16,06,2021,,*77
,$PSGSA,4,01,03,04,10,21,22,25,26,31,32,,,1.3,0.8,1.1,2404,00080700,00,,7,40,,2,B,4,0,0,2,14,0,0,0,3,0,-0.84,16,1*35
,$PSGSA,4,76,83,,,,,,,,,,,1.3,0.8,1.1,2404,00080700,00,,7,40,,2,B,4,0,0,2,14,0,0,0,3,0,-0.84,16,2*38
,$GPGGA,000808.00,3653.7848,S,17454.4478,E,1,12,0.8,23.9,M,28.3,M,,*47
,$GNGLL,3653.7848,S,17454.4478,E,000808.00,A,A*66
,$GNGSA,A,3,01,03,04,10,21,22,25,26,31,32,,,1.3,0.8,1.1,1*3F
,$GNGSA,A,3,76,83,,,,,,,,,,,1.3,0.8,1.1,2*32
,$GPGSV,3,1,12,01,28,268,37,03,31,224,39,04,07,256,38,10,14,036,24,0*66
,$GPGSV,3,2,12,12,00,151,,16,08,002,31,21,23,297,35,22,55,240,27,0*65
,$GPGSV,3,3,12,25,24,128,34,26,31,017,33,31,85,204,39,32,38,103,43,0*67
,$GLGSV,2,1,08,65,21,069,32,66,64,145,38,67,29,217,39,75,19,149,,0*77
,$GLGSV,2,2,08,76,71,110,39,77,44,348,09,82,09,257,37,83,07,214,29,0*7D
,$GQGSV,1,1,04,01,58,248,,02,07,331,,03,08,324,,07,24,298,32,0*6B
,$GNRMC,000808.00,A,3653.7848,S,17454.4478,E,0.4,199.1,160621,,,A,V*2D
,$GNVTG,199.1,T,,M,0.4,N,0.7,K,A*10
,$GNZDA,000808.00,16,06,2021,,*78
,$PSGSA,4,01,03,04,10,21,22,25,26,31,32,,,1.3,0.8,1.1,2404,00080800,00,,7,40,,2,B,4,0,0,2,14,0,0,0,3,0,-0.84,16,1*3A
,$PSGSA,4,76,83,,,,,,,,,,,1.3,0.8,1.1,2404,00080800,00,,7,40,,2,B,4,0,0,2,14,0,0,0,3,0,-0.84,16,2*37
,$GPGGA,000809.00,3653.7849,S,17454.4478,E,1,12,0.8,23.6,M,28.3,M,,*48
,$GNGLL,3653.7849,S,17454.4478,E,000809.00,A,A*66
,$GNGSA,A,3,01,03,04,10,22,25,26,31,32,,,,1.3,0.8,1.1,1*3C
,$GNGSA,A,3,76,83,,,,,,,,,,,1.3,0.8,1.1,2*32
,$GNGSA,A,3,07,,,,,,,,,,,,1.3,0.8,1.1,5*38
,$GPGSV,3,1,12,01,28,268,38,03,31,224,39,04,07,256,39,10,14,036,24,0*68
,$GPGSV,3,2,12,12,00,151,,16,08,002,32,21,23,297,34,22,55,240,28,0*68
,$GPGSV,3,3,12,25,24,128,34,26,31,017,32,31,85,204,39,32,38,103,42,0*67
,$GLGSV,2,1,08,65,21,069,32,66,64,145,37,67,29,217,41,75,19,149,,0*77
,$GLGSV,2,2,08,76,71,110,39,77,44,348,11,82,09,257,38,83,07,214,28,0*7A
,$GQGSV,1,1,04,01,58,248,,02,07,331,,03,08,324,,07,24,298,34,0*6D
,$GNRMC,000809.00,A,3653.7849,S,17454.4478,E,0.4,202.7,160621,,,A,V*2A
,$GNVTG,202.7,T,,M,0.4,N,0.7,K,A*17
,$GNZDA,000809.00,16,06,2021,,*79
,$PSGSA,4,01,03,04,10,22,25,26,31,32,,,,1.3,0.8,1.1,2404,00080900,00,,7,40,,2,B,4,0,0,2,14,0,0,0,3,0,-0.84,16,1*38
,$PSGSA,4,76,83,,,,,,,,,,,1.3,0.8,1.1,2404,00080900,00,,7,40,,2,B,4,0,0,2,14,0,0,0,3,0,-0.84,16,2*36
,$PSGSA,4,07,,,,,,,,,,,,1.3,0.8,1.1,2404,00080900,00,,7,40,,2,B,4,0,0,2,14,0,0,0,3,0,-0.84,16,5*3C
,$GPGGA,000810.00,3653.7851,S,17454.4478,E,1,12,0.8,23.2,M,28.3,M,,*4D
,$GNGLL,3653.7851,S,17454.4478,E,000810.00,A,A*67
,$GNGSA,A,3,01,03,04,10,22,25,26,31,32,,,,1.3,0.8,1.1,1*3C
,$GNGSA,A,3,76,83,,,,,,,,,,,1.3,0.8,1.1,2*32
,$GNGSA,A,3,07,,,,,,,,,,,,1.3,0.8,1.1,5*38
,$GPGSV,3,1,12,01,28,268,37,03,31,224,38,04,07,256,38,10,14,036,23,0*60
,$GPGSV,3,2,12,12,00,151,,16,08,002,32,21,23,297,33,22,55,240,30,0*66
,$GPGSV,3,3,12,25,24,128,34,26,31,017,33,31,85,204,39,32,38,103,41,0*65
,$GLGSV,2,1,08,65,21,069,32,66,64,145,38,67,29,217,40,75,19,149,,0*79
,$GLGSV,2,2,08,76,71,110,39,77,44,348,15,82,09,257,38,83,07,214,28,0*7E
,$GQGSV,1,1,04,01,58,248,,02,07,331,,03,08,324,,07,24,298,35,0*6C
,$GNRMC,000810.00,A,3653.7851,S,17454.4478,E,0.4,213.4,160621,,,A,V*28
,$GNVTG,213.4,T,,M,0.4,N,0.7,K,A*14
,$GNZDA,000810.00,16,06,2021,,*71
,$PSGSA,4,01,03,04,10,22,25,26,31,32,,,,1.3,0.8,1.1,2405,00081000,00,,7,39,,2,B,4,0,0,2,14,0,0,0,3,0,-0.84,16,1*3F
,$PSGSA,4,76,83,,,,,,,,,,,1.3,0.8,1.1,2405,00081000,00,,7,39,,2,B,4,0,0,2,14,0,0,0,3,0,-0.84,16,2*31
,$PSGSA,4,07,,,,,,,,,,,,1.3,0.8,1.1,2405,00081000,00,,7,39,,2,B,4,0,0,2,14,0,0,0,3,0,-0.84,16,5*3B
,$GPGGA,000811.00,3653.7852,S,17454.4476,E,1,12,0.8,23.1,M,28.3,M,,*42
,$GNGLL,3653.7852,S,17454.4476,E,000811.00,A,A*6B
,$GNGSA,A,3,01,03,04,10,21,22,25,26,31,32,,,1.3,0.8,1.1,1*3F
,$GNGSA,A,3,66,83,,,,,,,,,,,1.3,0.8,1.1,2*33
,$GPGSV,3,1,11,01,28,268,36,03,31,224,39,04,07,256,40,10,14,036,20,0*6F
,$GPGSV,3,2,11,16,08,002,31,21,23,297,35,22,55,240,30,25,24,128,36,0*69
,$GPGSV,3,3,11,26,31,017,35,31,85,204,39,32,38,103,42,,,,,0*5E
,$GLGSV,2,1,08,65,21,069,32,66,64,145,38,67,29,217,40,75,19,149,,0*79
,$GLGSV,2,2,08,76,71,110,38,77,44,348,16,82,09,258,37,83,07,214,29,0*7D
,$GQGSV,1,1,04,01,58,248,,02,07,331,,03,08,324,,07,24,298,34,0*6D
,$GNRMC,000811.00,A,3653.7852,S,17454.4476,E,0.4,201.7,160621,,,A,V*24
,$GNVTG,201.7,T,,M,0.4,N,0.8,K,A*1B
,$GNZDA,000811.00,16,06,2021,,*70
,$PSGSA,4,01,03,04,21,22,25,26,31,32,,,,1.3,0.8,1.1,2405,00081100,00,,7,40,,2,B,4,0,0,2,14,0,0,0,3,0,-0.84,16,1*32
,$PSGSA,4,66,83,,,,,,,,,,,1.3,0.8,1.1,2405,00081100,00,,7,40,,2,B,4,0,0,2,14,0,0,0,3,0,-0.84,16,2*3F
,$GPGGA,000812.00,3653.7853,S,17454.4475,E,1,12,0.8,23.1,M,28.3,M,,*43
,$GNGLL,3653.7853,S,17454.4475,E,000812.00,A,A*6A
,$GNGSA,A,3,01,03,04,10,21,22,25,26,31,32,,,1.3,0.8,1.1,1*3F
,$GNGSA,A,3,66,83,,,,,,,,,,,1.3,0.8,1.1,2*33
,$GPGSV,3,1,11,01,28,268,35,03,31,224,38,04,07,256,39,10,14,036,21,0*62
,$GPGSV,3,2,11,16,08,002,30,21,23,297,35,22,55,240,31,25,24,128,39,0*66
,$GPGSV,3,3,11,26,31,017,35,31,85,204,39,32,38,103,40,,,,,0*5C
,$GLGSV,2,1,08,65,21,069,33,66,64,145,38,67,29,217,40,75,19,149,,0*78
,$GLGSV,2,2,08,76,71,110,38,77,44,348,14,82,09,258,36,83,07,214,29,0*7E
,$GQGSV,1,1,04,01,58,248,,02,07,331,,03,08,324,,07,24,298,34,0*6D
,$GNRMC,000812.00,A,3653.7853,S,17454.4475,E,0.5,200.6,160621,,,A,V*24
,$GNVTG,200.6,T,,M,0.5,N,0.9,K,A*1B
,$GNZDA,000812.00,16,06,2021,,*73
,$PSGSA,4,01,03,04,10,21,22,25,26,31,32,,,1.3,0.8,1.1,2405,00081200,00,,7,39,,2,B,4,0,0,2,14,0,0,0,3,0,-0.84,16,1*3E
,$PSGSA,4,66,83,,,,,,,,,,,1.3,0.8,1.1,2405,00081200,00,,7,39,,2,B,4,0,0,2,14,0,0,0,3,0,-0.84,16,2*32
,$GPGGA,000813.00,3653.7854,S,17454.4474,E,1,12,0.8,23.1,M,28.3,M,,*44
,$GNGLL,3653.7854,S,17454.4474,E,000813.00,A,A*6D
,$GNGSA,A,3,01,03,04,10,21,22,25,26,31,32,,,1.3,0.8,1.1,1*3F
,$GNGSA,A,3,66,83,,,,,,,,,,,1.3,0.8,1.1,2*33
,$GPGSV,3,1,11,01,28,268,37,03,31,224,37,04,07,256,37,10,14,036,21,0*61
,$GPGSV,3,2,11,16,08,002,30,21,23,297,37,22,55,240,28,25,24,128,38,0*6D
,$GPGSV,3,3,11,26,31,017,35,31,85,204,38,32,38,103,41,,,,,0*5C
,$GLGSV,2,1,08,65,21,069,34,66,64,145,39,67,29,217,39,75,19,149,,0*70
,$GLGSV,2,2,08,76,71,110,39,77,44,348,14,82,09,258,35,83,07,214,29,0*7C
,$GQGSV,1,1,04,01,58,248,,02,07,331,,03,08,324,,07,24,298,33,0*6A
,$GNRMC,000813.00,A,3653.7854,S,17454.4474,E,0.5,204.4,160621,,,A,V*25
,$GNVTG,204.4,T,,M,0.5,N,1.0,K,A*15
,$GNZDA,000813.00,16,06,2021,,*72
,$PSGSA,4,01,03,04,21,22,25,26,31,32,,,,1.3,0.8,1.1,2406,00081300,00,,7,39,,2,B,4,0,0,2,14,0,0,0,3,0,-0.84,16,1*3D
,$PSGSA,4,66,83,,,,,,,,,,,1.3,0.8,1.1,2406,00081300,00,,7,39,,2,B,4,0,0,2,14,0,0,0,3,0,-0.84,16,2*30
,$GPGGA,000814.00,3653.7854,S,17454.4473,E,1,12,0.8,23.0,M,28.3,M,,*45
,$GNGLL,3653.7854,S,17454.4473,E,000814.00,A,A*6D
,$GNGSA,A,3,01,03,04,10,21,22,25,26,31,32,,,1.3,0.8,1.1,1*3F
,$GNGSA,A,3,76,83,,,,,,,,,,,1.3,0.8,1.1,2*32
,$GPGSV,3,1,11,01,28,268,37,03,31,224,37,04,07,256,39,10,14,036,23,0*6D
,$GPGSV,3,2,11,16,08,002,30,21,23,297,36,22,55,240,22,25,24,128,37,0*69
,$GPGSV,3,3,11,26,31,017,32,31,85,204,37,32,38,103,42,,,,,0*57
,$GLGSV,2,1,08,65,21,068,34,66,64,145,39,67,29,217,38,75,19,149,,0*70
,$GLGSV,2,2,08,76,71,110,39,77,44,348,13,82,09,258,35,83,07,214,30,0*73
,$GQGSV,1,1,04,01,58,248,,02,07,331,,03,08,324,,07,24,298,33,0*6A
,$GNRMC,000814.00,A,3653.7854,S,17454.4473,E,0.5,209.5,160621,,,A,V*29
,$GNVTG,209.5,T,,M,0.5,N,1.0,K,A*19
,$GNZDA,000814.00,16,06,2021,,*75
,$PSGSA,4,01,03,04,10,21,22,25,26,31,32,,,1.3,0.8,1.1,2406,00081400,00,,7,39,,2,B,4,0,0,2,14,0,0,0,3,0,-0.56,16,1*34
,$PSGSA,4,76,83,,,,,,,,,,,1.3,0.8,1.1,2406,00081400,00,,7,39,,2,B,4,0,0,2,14,0,0,0,3,0,-0.56,16,2*39
,$GPGGA,000815.00,3653.7854,S,17454.4471,E,1,12,0.8,23.0,M,28.3,M,,*46
,$GNGLL,3653.7854,S,17454.4471,E,000815.00,A,A*6E
,$GNGSA,A,3,01,03,04,10,21,22,25,26,31,32,,,1.3,0.8,1.1,1*3F
,$GNGSA,A,3,76,83,,,,,,,,,,,1.3,0.8,1.1,2*32
,$GPGSV,3,1,11,01,28,268,37,03,31,224,37,04,07,256,38,10,14,036,23,0*6C
,$GPGSV,3,2,11,16,08,002,28,21,23,297,36,22,55,240,21,25,24,128,35,0*61
,$GPGSV,3,3,11,26,31,017,33,31,85,204,36,32,38,103,43,,,,,0*56
,$GLGSV,2,1,08,65,21,068,33,66,64,145,39,67,29,217,36,75,19,149,,0*79
,$GLGSV,2,2,08,76,71,110,40,77,44,348,09,82,09,258,35,83,07,214,29,0*7E
,$GQGSV,1,1,04,01,58,248,,02,07,331,,03,08,324,,07,24,298,33,0*6A
,$GNRMC,000815.00,A,3653.7854,S,17454.4471,E,0.6,205.8,160621,,,A,V*28
,$GNVTG,205.8,T,,M,0.6,N,1.1,K,A*1A
,$GNZDA,000815.00,16,06,2021,,*74
,$PSGSA,4,01,03,04,10,21,22,25,26,31,32,,,1.3,0.8,1.1,2405,00081500,00,,7,40,,2,B,4,0,0,2,14,0,0,0,3,0,-0.56,16,1*38
,$PSGSA,4,76,83,,,,,,,,,,,1.3,0.8,1.1,2405,00081500,00,,7,40,,2,B,4,0,0,2,14,0,0,0,3,0,-0.56,16,2*35
,$GPGGA,000816.00,3653.7856,S,17454.4470,E,1,12,0.8,23.0,M,28.3,M,,*46
,$GNGLL,3653.7856,S,17454.4470,E,000816.00,A,A*6E
,$GNGSA,A,3,01,03,04,10,21,22,25,26,31,32,,,1.3,0.8,1.1,1*3F
,$GNGSA,A,3,66,83,,,,,,,,,,,1.3,0.8,1.1,2*33
,$GPGSV,3,1,11,01,28,268,36,03,31,224,37,04,07,256,37,10,14,036,22,0*63
,$GPGSV,3,2,11,16,08,002,29,21,23,297,36,22,55,240,24,25,24,128,32,0*62
,$GPGSV,3,3,11,26,31,017,35,31,85,203,37,32,38,103,43,,,,,0*56
,$GLGSV,2,1,08,65,21,068,33,66,64,145,40,67,29,217,37,75,19,149,,0*76
,$GLGSV,2,2,08,76,71,110,40,77,44,348,14,82,09,258,35,83,07,214,29,0*72
,$GQGSV,1,1,04,01,58,248,,02,07,331,,03,08,324,,07,24,298,32,0*6B
,$GNRMC,000816.00,A,3653.7856,S,17454.4470,E,0.6,197.6,160621,,,A,V*2E
,$GNVTG,197.6,T,,M,0.6,N,1.1,K,A*1C
,$GNZDA,000816.00,16,06,2021,,*77
,$PSGSA,4,01,03,04,10,21,22,25,26,31,32,,,1.3,0.8,1.1,2405,00081600,00,,7,40,,2,B,4,0,0,2,14,0,0,0,3,0,-0.56,16,1*3B
,$PSGSA,4,66,83,,,,,,,,,,,1.3,0.8,1.1,2405,00081600,00,,7,40,,2,B,4,0,0,2,14,0,0,0,3,0,-0.56,16,2*37
,$GPGGA,000817.00,3653.7858,S,17454.4471,E,1,12,0.8,22.8,M,28.3,M,,*41
,$GNGLL,3653.7858,S,17454.4471,E,000817.00,A,A*60
,$GNGSA,A,3,01,03,04,10,21,22,25,26,31,32,,,1.3,0.8,1.1,1*3F
,$GNGSA,A,3,66,83,,,,,,,,,,,1.3,0.8,1.1,2*33
,$GPGSV,3,1,11,01,28,268,35,03,31,224,37,04,07,256,36,10,14,036,22,0*61
,$GPGSV,3,2,11,16,08,002,31,21,23,297,35,22,55,240,28,25,24,128,33,0*65
,$GPGSV,3,3,11,26,31,017,33,31,85,203,38,32,38,103,42,,,,,0*5E
,$GLGSV,2,1,08,65,21,068,32,66,64,145,40,67,29,217,39,75,19,149,,0*79
,$GLGSV,2,2,08,76,71,111,39,77,44,348,15,82,09,258,36,83,07,214,30,0*77
,$GQGSV,1,1,04,01,58,248,,02,07,331,,03,08,324,,07,24,298,33,0*6A
,$GNRMC,000817.00,A,3653.7858,S,17454.4471,E,0.6,197.0,160621,,,A,V*26
,$GNVTG,197.0,T,,M,0.6,N,1.1,K,A*1A
,$GNZDA,000817.00,16,06,2021,,*76
,$PSGSA,4,01,03,04,10,21,22,25,26,31,32,,,1.3,0.8,1.1,2405,00081700,00,,7,40,,2,B,4,0,0,2,14,0,0,0,3,0,-0.56,16,1*3A
,$PSGSA,4,66,83,,,,,,,,,,,1.3,0.8,1.1,2405,00081700,00,,7,40,,2,B,4,0,0,2,14,0,0,0,3,0,-0.56,16,2*36
,$GPGGA,000818.00,3653.7861,S,17454.4471,E,1,12,0.8,22.6,M,28.3,M,,*4A
,$GNGLL,3653.7861,S,17454.4471,E,000818.00,A,A*65
,$GNGSA,A,3,01,03,04,10,22,25,26,31,32,,,,1.3,0.8,1.1,1*3C
,$GNGSA,A,3,76,83,,,,,,,,,,,1.3,0.8,1.1,2*32
,$GNGSA,A,3,07,,,,,,,,,,,,1.3,0.8,1.1,5*38
,$GPGSV,3,1,11,01,28,268,37,03,31,224,38,04,07,256,34,10,14,036,26,0*6A
,$GPGSV,3,2,11,16,08,002,31,21,23,297,34,22,55,240,32,25,24,128,31,0*6D
,$GPGSV,3,3,11,26,31,017,34,31,85,203,38,32,38,103,41,,,,,0*5A
,$GLGSV,2,1,08,65,21,068,33,66,64,145,39,67,29,217,40,75,19,149,,0*78
,$GLGSV,2,2,08,76,71,111,41,77,44,348,15,82,09,258,37,83,07,214,30,0*79
,$GQGSV,1,1,04,01,58,248,,02,07,331,,03,08,324,,07,24,298,34,0*6D
,$GNRMC,000818.00,A,3653.7861,S,17454.4471,E,0.6,202.1,160621,,,A,V*2D
,$GNVTG,202.1,T,,M,0.6,N,1.1,K,A*14
,$GNZDA,000818.00,16,06,2021,,*79
,$PSGSA,4,01,03,04,10,22,25,26,31,32,,,,1.3,0.8,1.1,2405,00081800,00,,7,40,,2,B,4,0,0,2,14,0,0,0,3,0,-0.56,16,1*36
,$PSGSA,4,76,83,,,,,,,,,,,1.3,0.8,1.1,2405,00081800,00,,7,40,,2,B,4,0,0,2,14,0,0,0,3,0,-0.56,16,2*38
,$PSGSA,4,07,,,,,,,,,,,,1.3,0.8,1.1,2405,00081800,00,,7,40,,2,B,4,0,0,2,14,0,0,0,3,0,-0.56,16,5*32
,$GPGGA,000819.00,3653.7863,S,17454.4469,E,1,12,0.8,22.7,M,28.3,M,,*41
,$GNGLL,3653.7863,S,17454.4469,E,000819.00,A,A*6F
,$GNGSA,A,3,01,03,04,10,21,22,25,26,31,32,,,1.3,0.8,1.1,1*3F
,$GNGSA,A,3,76,83,,,,,,,,,,,1.3,0.8,1.1,2*32
,$GPGSV,3,1,11,01,28,268,39,03,31,224,37,04,07,256,36,10,14,036,27,0*68
,$GPGSV,3,2,11,16,08,002,32,21,23,297,33,22,55,240,25,25,24,128,35,0*6B
,$GPGSV,3,3,11,26,32,017,34,31,85,203,37,32,38,103,43,,,,,0*54
,$GLGSV,2,1,08,65,21,068,32,66,64,145,39,67,29,217,37,75,19,149,,0*79
,$GLGSV,2,2,08,76,71,111,41,77,44,348,15,82,09,258,37,83,07,214,29,0*71
,$GQGSV,1,1,04,01,58,248,,02,07,331,,03,08,324,,07,24,298,32,0*6B
,$GNRMC,000819.00,A,3653.7863,S,17454.4469,E,0.6,219.8,160621,,,A,V*24
,$GNVTG,219.8,T,,M,0.6,N,1.1,K,A*17
,$GNZDA,000819.00,16,06,2021,,*78
,$PSGSA,4,01,03,04,10,21,22,25,26,31,32,,,1.3,0.8,1.1,2405,00081900,00,,7,40,,2,B,4,0,0,2,14,0,0,0,3,0,-0.56,16,1*34
,$PSGSA,4,76,83,,,,,,,,,,,1.3,0.8,1.1,2405,00081900,00,,7,40,,2,B,4,0,0,2,14,0,0,0,3,0,-0.56,16,2*39
,$GPGGA,000820.00,3653.7864,S,17454.4468,E,1,12,0.8,22.7,M,28.3,M,,*4D
,$GNGLL,3653.7864,S,17454.4468,E,000820.00,A,A*63
,$GNGSA,A,3,01,03,04,10,21,22,25,26,31,32,,,1.3,0.8,1.1,1*3F
,$GNGSA,A,3,76,83,,,,,,,,,,,1.3,0.8,1.1,2*32
,$GPGSV,3,1,11,01,28,268,39,03,31,224,36,04,07,256,39,10,14,036,27,0*66
,$GPGSV,3,2,11,16,08,002,32,21,23,297,35,22,55,240,20,25,24,128,35,0*68
,$GPGSV,3,3,11,26,32,017,33,31,85,203,38,32,38,103,44,,,,,0*5B
,$GLGSV,2,1,08,65,21,068,33,66,64,145,40,67,29,217,36,75,19,149,,0*77
,$GLGSV,2,2,08,76,71,111,41,77,44,348,16,82,09,258,35,83,07,214,29,0*70
,$GQGSV,1,1,04,01,58,248,,02,07,331,,03,08,324,,07,24,298,32,0*6B
,$GNRMC,000820.00,A,3653.7864,S,17454.4468,E,0.6,201.1,160621,,,A,V*28
,$GNVTG,201.1,T,,M,0.6,N,1.1,K,A*17
,$GNZDA,000820.00,16,06,2021,,*72
,$PSGSA,4,01,03,04,10,21,22,25,26,31,32,,,1.3,0.8,1.1,2405,00082000,00,,7,41,,2,B,4,0,0,2,14,0,0,0,3,0,-0.56,16,1*3F
,$PSGSA,4,76,83,,,,,,,,,,,1.3,0.8,1.1,2405,00082000,00,,7,41,,2,B,4,0,0,2,14,0,0,0,3,0,-0.56,16,2*32
,$GPGGA,000821.00,3653.7865,S,17454.4468,E,1,12,0.8,22.4,M,28.3,M,,*4E
,$GNGLL,3653.7865,S,17454.4468,E,000821.00,A,A*63
,$GNGSA,A,3,01,03,04,10,21,22,25,26,31,32,,,1.3,0.8,1.1,1*3F
,$GNGSA,A,3,76,83,,,,,,,,,,,1.3,0.8,1.1,2*32
,$GPGSV,3,1,11,01,28,268,38,03,31,224,35,04,07,256,40,10,14,036,25,0*68
,$GPGSV,3,2,11,16,08,002,31,21,23,297,35,22,55,240,25,25,24,128,34,0*6F
,$GPGSV,3,3,11,26,32,017,35,31,85,203,39,32,38,103,44,,,,,0*5C
,$GLGSV,2,1,08,65,21,068,33,66,64,145,39,67,29,217,38,75,19,149,,0*77
,$GLGSV,2,2,08,76,71,111,41,77,44,348,08,82,09,258,36,83,07,214,29,0*7C
,$GQGSV,1,1,04,01,58,248,,02,07,331,,03,08,324,,07,24,298,33,0*6A
,$GNRMC,000821.00,A,3653.7865,S,17454.4468,E,0.0,201.1,160621,,,A,V*2E
,$GNVTG,201.1,T,,M,0.0,N,0.0,K,A*11
,$GNZDA,000821.00,16,06,2021,,*73
,$PSGSA,4,01,03,04,10,21,22,25,26,31,32,,,1.3,0.8,1.1,2406,00082100,00,,7,41,,2,B,4,0,0,2,14,0,0,0,3,0,-0.56,16,1*3D
,$PSGSA,4,76,83,,,,,,,,,,,1.3,0.8,1.1,2406,00082100,00,,7,41,,2,B,4,0,0,2,14,0,0,0,3,0,-0.56,16,2*30
,$GPGGA,000822.00,3653.7864,S,17454.4469,E,1,12,0.8,22.4,M,28.3,M,,*4D
,$GNGLL,3653.7864,S,17454.4469,E,000822.00,A,A*60
,$GNGSA,A,3,01,03,04,10,21,22,25,26,31,32,,,1.3,0.8,1.1,1*3F
,$GNGSA,A,3,76,83,,,,,,,,,,,1.3,0.8,1.1,2*32
,$GPGSV,3,1,11,01,28,268,38,03,31,224,36,04,07,256,37,10,14,036,26,0*68
,$GPGSV,3,2,11,16,08,002,31,21,23,297,35,22,56,240,29,25,24,128,34,0*60
,$GPGSV,3,3,11,26,32,017,35,31,85,203,39,32,37,103,42,,,,,0*55
,$GLGSV,2,1,08,65,21,068,32,66,64,145,39,67,29,217,38,75,19,149,,0*76
,$GLGSV,2,2,08,76,71,111,41,77,44,348,10,82,09,258,38,83,07,214,31,0*72
,$GQGSV,1,1,04,01,58,248,,02,07,331,,03,08,324,,07,24,298,33,0*6A
,$GNRMC,000822.00,A,3653.7864,S,17454.4469,E,0.6,201.1,160621,,,A,V*2B
,$GNVTG,201.1,T,,M,0.6,N,1.1,K,A*17
,$GNZDA,000822.00,16,06,2021,,*70
,$PSGSA,4,01,03,04,10,21,22,25,26,31,32,,,1.3,0.8,1.1,2406,00082200,00,,7,40,,2,B,4,0,0,2,14,0,0,0,3,0,-0.56,16,1*3F
,$PSGSA,4,76,83,,,,,,,,,,,1.3,0.8,1.1,2406,00082200,00,,7,40,,2,B,4,0,0,2,14,0,0,0,3,0,-0.56,16,2*32
,$GPGGA,000823.00,3653.7865,S,17454.4470,E,1,12,0.8,22.3,M,28.3,M,,*42
,$GNGLL,3653.7865,S,17454.4470,E,000823.00,A,A*68
,$GNGSA,A,3,01,03,04,10,21,22,25,26,31,32,,,1.3,0.8,1.1,1*3F
,$GNGSA,A,3,66,83,,,,,,,,,,,1.3,0.8,1.1,2*33
,$GPGSV,3,1,11,01,28,268,37,03,31,224,34,04,07,256,38,10,14,036,27,0*6B
,$GPGSV,3,2,11,16,08,002,31,21,23,297,35,22,56,240,33,25,24,128,31,0*6E
,$GPGSV,3,3,11,26,32,017,36,31,85,203,39,32,37,103,42,,,,,0*56
,$GLGSV,2,1,08,65,21,068,33,66,64,145,39,67,29,217,39,75,19,149,,0*76
,$GLGSV,2,2,08,76,71,111,40,77,44,348,00,82,09,258,36,83,07,214,31,0*7C
,$GQGSV,1,1,04,01,58,248,,02,07,331,,03,08,324,,07,24,298,34,0*6D
,$GNRMC,000823.00,A,3653.7865,S,17454.4470,E,0.5,201.1,160621,,,A,V*20
,$GNVTG,201.1,T,,M,0.5,N,0.9,K,A*1D
,$GNZDA,000823.00,16,06,2021,,*71
,$PSGSA,4,01,03,04,10,21,22,25,26,31,32,,,1.3,0.8,1.1,2406,00082300,00,,7,40,,2,B,4,0,0,2,14,0,0,0,3,0,-0.56,16,1*3E
,$PSGSA,4,66,83,,,,,,,,,,,1.3,0.8,1.1,2406,00082300,00,,7,40,,2,B,4,0,0,2,14,0,0,0,3,0,-0.56,16,2*32
,$GPGGA,000824.00,3653.7865,S,17454.4471,E,1,12,0.8,22.2,M,28.3,M,,*45
,$GNGLL,3653.7865,S,17454.4471,E,000824.00,A,A*6E
,$GNGSA,A,3,01,03,04,10,21,22,25,26,31,32,,,1.3,0.8,1.1,1*3F
,$GNGSA,A,3,76,83,,,,,,,,,,,1.3,0.8,1.1,2*32
,$GPGSV,3,1,11,01,28,268,38,03,31,224,36,04,07,256,38,10,14,035,26,0*64
,$GPGSV,3,2,11,16,08,002,32,21,23,297,37,22,56,240,34,25,24,128,32,0*6B
,$GPGSV,3,3,11,26,32,017,35,31,85,203,39,32,37,103,41,,,,,0*56
,$GLGSV,2,1,08,65,21,068,32,66,64,145,39,67,29,217,40,75,19,149,,0*79
,$GLGSV,2,2,08,76,71,111,40,77,44,348,00,82,09,258,37,83,07,214,32,0*7E
,$GQGSV,1,1,04,01,58,248,,02,07,331,,03,08,324,,07,24,298,35,0*6C
,$GNRMC,000824.00,A,3653.7865,S,17454.4471,E,0.0,201.1,160621,,,A,V*23
,$GNVTG,201.1,T,,M,0.0,N,0.0,K,A*11
,$GNZDA,000824.00,16,06,2021,,*76
,$PSGSA,4,01,03,04,10,21,22,25,26,31,32,,,1.3,0.8,1.1,2406,00082400,00,,7,40,,2,B,4,0,0,1,14,1,0,0,3,0,-0.56,16,1*3B
,$PSGSA,4,76,83,,,,,,,,,,,1.3,0.8,1.1,2406,00082400,00,,7,40,,2,B,4,0,0,1,14,1,0,0,3,0,-0.56,16,2*36
,$GPGGA,000825.00,3653.7864,S,17454.4472,E,1,12,0.8,22.1,M,28.3,M,,*45
,$GNGLL,3653.7864,S,17454.4472,E,000825.00,A,A*6D
,$GNGSA,A,3,01,03,04,10,21,22,25,26,31,32,,,1.3,0.8,1.1,1*3F
,$GNGSA,A,3,66,83,,,,,,,,,,,1.3,0.8,1.1,2*33
,$GPGSV,3,1,11,01,28,268,38,03,31,224,36,04,07,256,36,10,14,035,22,0*6E
,$GPGSV,3,2,11,16,08,002,33,21,23,297,35,22,56,240,32,25,24,128,34,0*68
,$GPGSV,3,3,11,26,32,017,34,31,85,203,38,32,37,103,40,,,,,0*57
,$GLGSV,2,1,08,65,21,068,33,66,64,145,40,67,29,217,42,75,19,149,,0*74
,$GLGSV,2,2,08,76,71,111,39,77,44,348,00,82,09,258,37,83,07,214,30,0*72
,$GQGSV,1,1,04,01,58,248,,02,07,331,,03,08,324,,07,24,298,33,0*6A
,$GNRMC,000825.00,A,3653.7864,S,17454.4472,E,0.5,22.6,160621,,,A,V*11
,$GNVTG,22.6,T,,M,0.5,N,0.9,K,A*29
,$GNZDA,000825.00,16,06,2021,,*77
,$PSGSA,4,01,03,04,10,21,22,25,26,31,32,,,1.3,0.8,1.1,2406,00082500,00,,7,40,,2,B,4,0,0,1,14,1,0,0,3,0,-0.56,16,1*3A
,$PSGSA,4,66,83,,,,,,,,,,,1.3,0.8,1.1,2406,00082500,00,,7,40,,2,B,4,0,0,1,14,1,0,0,3,0,-0.56,16,2*36
,$GPGGA,000826.00,3653.7862,S,17454.4471,E,1,12,0.8,22.1,M,28.3,M,,*43
,$GNGLL,3653.7862,S,17454.4471,E,000826.00,A,A*6B
,$GNGSA,A,3,01,03,04,10,21,22,25,26,31,32,,,1.3,0.8,1.1,1*3F
,$GNGSA,A,3,76,83,,,,,,,,,,,1.3,0.8,1.1,2*32
,$GPGSV,3,1,11,01,28,268,38,03,31,224,36,04,07,256,38,10,14,035,21,0*63
,$GPGSV,3,2,11,16,08,002,32,21,23,297,36,22,56,240,32,25,24,128,34,0*6A
,$GPGSV,3,3,11,26,32,017,35,31,85,203,39,32,37,103,39,,,,,0*59
,$GLGSV,2,1,08,65,21,068,34,66,64,145,39,67,29,217,42,75,19,149,,0*7D
,$GLGSV,2,2,08,76,71,111,39,77,44,348,16,82,09,258,33,83,07,214,30,0*71
,$GQGSV,1,1,04,01,58,248,,02,07,331,,03,08,324,,07,24,298,33,0*6A
,$GNRMC,000826.00,A,3653.7862,S,17454.4471,E,0.4,20.4,160621,,,A,V*16
,$GNVTG,20.4,T,,M,0.4,N,0.7,K,A*26
,$GNZDA,000826.00,16,06,2021,,*74
,$PSGSA,4,01,03,04,10,21,22,25,26,31,32,,,1.3,0.8,1.1,2406,00082600,00,,7,39,,2,B,4,0,0,2,14,0,0,0,3,0,-0.56,16,1*35
,$PSGSA,4,76,83,,,,,,,,,,,1.3,0.8,1.1,2406,00082600,00,,7,39,,2,B,4,0,0,2,14,0,0,0,3,0,-0.56,16,2*38
,$GPGGA,000827.00,3653.7862,S,17454.4471,E,1,12,0.8,22.1,M,28.3,M,,*42
,$GNGLL,3653.7862,S,17454.4471,E,000827.00,A,A*6A
,$GNGSA,A,3,01,03,04,10,22,25,26,31,32,,,,1.3,0.8,1.1,1*3C
,$GNGSA,A,3,66,83,,,,,,,,,,,1.3,0.8,1.1,2*33
,$GNGSA,A,3,07,,,,,,,,,,,,1.3,0.8,1.1,5*38
,$GPGSV,3,1,11,01,28,268,36,03,31,224,37,04,07,256,39,10,14,035,24,0*68
,$GPGSV,3,2,11,16,08,002,31,21,23,297,35,22,56,240,34,25,24,128,31,0*69
,$GPGSV,3,3,11,26,32,017,35,31,85,203,40,32,37,103,39,,,,,0*57
,$GLGSV,2,1,08,65,21,068,33,66,64,145,39,67,29,217,43,75,19,149,,0*7B
,$GLGSV,2,2,08,76,71,111,39,77,44,348,14,82,09,258,37,83,07,214,31,0*76
,$GQGSV,1,1,04,01,58,248,,02,07,331,,03,08,324,,07,24,298,34,0*6D
,$GNRMC,000827.00,A,3653.7862,S,17454.4471,E,0.0,20.4,160621,,,A,V*13
,$GNVTG,20.4,T,,M,0.0,N,0.0,K,A*25
,$GNZDA,000827.00,16,06,2021,,*75
,$PSGSA,4,01,03,04,10,22,25,26,31,32,,,,1.3,0.8,1.1,2406,00082700,00,,7,40,,2,B,4,0,0,2,14,0,0,0,3,0,-0.56,16,1*39
,$PSGSA,4,66,83,,,,,,,,,,,1.3,0.8,1.1,2406,00082700,00,,7,40,,2,B,4,0,0,2,14,0,0,0,3,0,-0.56,16,2*36
,$PSGSA,4,07,,,,,,,,,,,,1.3,0.8,1.1,2406,00082700,00,,7,40,,2,B,4,0,0,2,14,0,0,0,3,0,-0.56,16,5*3D
,$GPGGA,000828.00,3653.7860,S,17454.4472,E,1,12,0.8,22.2,M,28.3,M,,*4F
,$GNGLL,3653.7860,S,17454.4472,E,000828.00,A,A*64
,$GNGSA,A,3,01,03,04,10,21,22,25,26,31,32,,,1.3,0.8,1.1,1*3F
,$GNGSA,A,3,66,83,,,,,,,,,,,1.3,0.8,1.1,2*33
,$GPGSV,3,1,11,01,28,268,38,03,31,224,37,04,07,256,38,10,14,035,20,0*63
,$GPGSV,3,2,11,16,09,002,31,21,23,297,34,22,56,240,32,25,24,128,34,0*6A
,$GPGSV,3,3,11,26,32,017,33,31,85,203,39,32,37,103,40,,,,,0*51
,$GLGSV,2,1,08,65,21,068,33,66,64,145,39,67,29,217,42,75,19,149,,0*7A
,$GLGSV,2,2,08,76,71,111,39,77,44,348,19,82,09,258,37,83,07,214,31,0*7B
,$GQGSV,1,1,04,01,58,248,,02,07,331,,03,08,324,,07,24,298,34,0*6D
,$GNRMC,000828.00,A,3653.7860,S,17454.4472,E,0.3,20.4,160621,,,A,V*1E
,$GNVTG,20.4,T,,M,0.3,N,0.6,K,A*20
,$GNZDA,000828.00,16,06,2021,,*7A
,$PSGSA,4,01,03,04,21,22,25,26,31,32,,,,1.3,0.8,1.1,2406,00082800,00,,7,40,,2,B,4,0,0,2,14,0,0,0,3,0,-0.56,16,1*34
,$PSGSA,4,66,83,,,,,,,,,,,1.3,0.8,1.1,2406,00082800,00,,7,40,,2,B,4,0,0,2,14,0,0,0,3,0,-0.56,16,2*39
,$GPGGA,000829.00,3653.7860,S,17454.4473,E,1,12,0.8,22.2,M,28.3,M,,*4F
,$GNGLL,3653.7860,S,17454.4473,E,000829.00,A,A*64
,$GNGSA,A,3,01,03,04,10,21,22,25,26,31,32,,,1.3,0.8,1.1,1*3F
,$GNGSA,A,3,66,83,,,,,,,,,,,1.3,0.8,1.1,2*33
,$GPGSV,3,1,11,01,28,268,38,03,31,224,37,04,07,256,37,10,14,035,21,0*6D
,$GPGSV,3,2,11,16,09,002,30,21,23,297,37,22,56,240,34,25,23,128,33,0*6E
,$GPGSV,3,3,11,26,32,017,33,31,85,202,38,32,37,103,40,,,,,0*51
,$GLGSV,2,1,08,65,21,068,34,66,64,145,39,67,29,217,42,75,19,149,,0*7D
,$GLGSV,2,2,08,76,71,111,38,77,44,348,18,82,09,258,38,83,07,214,31,0*74
,$GQGSV,1,1,04,01,58,248,,02,07,331,,03,08,324,,07,24,298,34,0*6D
,$GNRMC,000829.00,A,3653.7860,S,17454.4473,E,0.0,20.4,160621,,,A,V*1D
,$GNVTG,20.4,T,,M,0.0,N,0.0,K,A*25
,$GNZDA,000829.00,16,06,2021,,*7B
,$PSGSA,4,01,03,04,10,21,22,25,26,31,32,,,1.3,0.8,1.1,2406,00082900,00,,7,39,,2,B,4,0,0,2,14,0,0,0,3,0,-0.56,16,1*3A
,$PSGSA,4,66,83,,,,,,,,,,,1.3,0.8,1.1,2406,00082900,00,,7,39,,2,B,4,0,0,2,14,0,0,0,3,0,-0.56,16,2*36
,$GPGGA,000830.00,3653.7859,S,17454.4473,E,1,12,0.8,22.5,M,28.3,M,,*4A
,$GNGLL,3653.7859,S,17454.4473,E,000830.00,A,A*66
,$GNGSA,A,3,01,03,04,10,22,25,26,31,32,,,,1.3,0.8,1.1,1*3C
,$GNGSA,A,3,66,83,,,,,,,,,,,1.3,0.8,1.1,2*33
,$GNGSA,A,3,07,,,,,,,,,,,,1.3,0.8,1.1,5*38
,$GPGSV,3,1,11,01,28,268,38,03,31,224,35,04,07,256,36,10,14,035,24,0*6B
,$GPGSV,3,2,11,16,09,002,32,21,23,297,35,22,56,240,33,25,23,128,34,0*6E
,$GPGSV,3,3,11,26,32,017,34,31,85,202,39,32,37,103,39,,,,,0*59
,$GLGSV,2,1,08,65,21,068,34,66,64,145,39,67,29,217,42,75,19,149,,0*7D
,$GLGSV,2,2,08,76,71,111,38,77,44,348,18,82,09,258,37,83,07,214,30,0*7A
,$GQGSV,1,1,04,01,58,248,,02,07,331,,03,08,324,,07,24,298,35,0*6C
,$GNRMC,000830.00,A,3653.7859,S,17454.4473,E,0.0,20.4,160621,,,A,V*1F
,$GNVTG,20.4,T,,M,0.0,N,0.0,K,A*25
,$GNZDA,000830.00,16,06,2021,,*73
,$PSGSA,4,01,03,04,10,22,25,26,31,32,,,,1.3,0.8,1.1,2407,00083000,00,,7,39,,2,B,4,0,0,2,14,0,0,0,3,0,-0.56,16,1*30
,$PSGSA,4,66,83,,,,,,,,,,,1.3,0.8,1.1,2407,00083000,00,,7,39,,2,B,4,0,0,2,14,0,0,0,3,0,-0.56,16,2*3F
,$PSGSA,4,07,,,,,,,,,,,,1.3,0.8,1.1,2407,00083000,00,,7,39,,2,B,4,0,0,2,14,0,0,0,3,0,-0.56,16,5*34
,$GPGGA,000831.00,3653.7859,S,17454.4473,E,1,12,0.8,23.1,M,28.3,M,,*4E
,$GNGLL,3653.7859,S,17454.4473,E,000831.00,A,A*67
,$GNGSA,A,3,01,03,04,10,21,22,25,26,31,32,,,1.3,0.8,1.1,1*3F
,$GNGSA,A,3,76,83,,,,,,,,,,,1.3,0.8,1.1,2*32
,$GPGSV,3,1,11,01,28,268,38,03,31,224,36,04,07,256,39,10,14,035,24,0*67
,$GPGSV,3,2,11,16,09,002,31,21,23,297,36,22,56,240,35,25,23,128,34,0*68
,$GPGSV,3,3,11,26,32,017,36,31,85,202,38,32,37,103,37,,,,,0*54
,$GLGSV,2,1,08,65,21,068,34,66,64,145,39,67,29,217,43,75,19,149,,0*7C
,$GLGSV,2,2,08,76,71,111,40,77,44,348,18,82,09,258,34,83,07,214,31,0*77
,$GQGSV,1,1,04,01,58,248,,02,07,331,,03,08,324,,07,24,298,34,0*6D
,$GNRMC,000831.00,A,3653.7859,S,17454.4473,E,0.0,20.4,160621,,,A,V*1E
,$GNVTG,20.4,T,,M,0.0,N,0.0,K,A*25
,$GNZDA,000831.00,16,06,2021,,*72
,$PSGSA,4,01,03,04,10,21,22,25,26,31,32,,,1.3,0.8,1.1,2407,00083100,00,,7,40,,2,B,4,0,0,2,14,0,0,0,3,0,-0.56,16,1*3C
,$PSGSA,4,76,83,,,,,,,,,,,1.3,0.8,1.1,2407,00083100,00,,7,40,,2,B,4,0,0,2,14,0,0,0,3,0,-0.56,16,2*31
,$GPGGA,000832.00,3653.7860,S,17454.4473,E,1,12,0.8,23.5,M,28.3,M,,*43
,$GNGLL,3653.7860,S,17454.4473,E,000832.00,A,A*6E
,$GNGSA,A,3,01,03,04,10,21,22,25,26,31,32,,,1.3,0.8,1.1,1*3F
,$GNGSA,A,3,76,83,,,,,,,,,,,1.3,0.8,1.1,2*32
,$GPGSV,3,1,11,01,28,268,40,03,31,224,36,04,07,256,40,10,14,035,24,0*66
,$GPGSV,3,2,11,16,09,002,32,21,23,297,36,22,56,240,35,25,23,128,36,0*69
,$GPGSV,3,3,11,26,32,017,35,31,85,202,38,32,37,103,35,,,,,0*55
,$GLGSV,2,1,08,65,21,068,33,66,64,145,38,67,29,217,43,75,19,149,,0*7A
,$GLGSV,2,2,08,76,71,111,39,77,44,348,16,82,09,258,36,83,07,214,30,0*74
,$GQGSV,1,1,04,01,58,248,,02,07,331,,03,08,324,,07,24,298,34,0*6D
,$GNRMC,000832.00,A,3653.7860,S,17454.4473,E,0.0,20.4,160621,,,A,V*17
,$GNVTG,20.4,T,,M,0.0,N,0.0,K,A*25
,$GNZDA,000832.00,16,06,2021,,*71
,$PSGSA,4,01,03,04,10,21,22,25,26,31,32,,,1.3,0.8,1.1,2406,00083200,00,,7,40,,2,B,4,0,0,2,14,0,0,0,3,0,-0.56,16,1*3E
,$PSGSA,4,76,83,,,,,,,,,,,1.3,0.8,1.1,2406,00083200,00,,7,40,,2,B,4,0,0,2,14,0,0,0,3,0,-0.56,16,2*33
,$GPGGA,000833.00,3653.7859,S,17454.4473,E,1,12,0.7,23.8,M,28.3,M,,*4A
,$GNGLL,3653.7859,S,17454.4473,E,000833.00,A,A*65
,$GNGSA,A,3,01,03,04,10,16,21,22,25,26,31,32,,1.3,0.7,1.1,1*37
,$GNGSA,A,3,83,,,,,,,,,,,,1.3,0.7,1.1,2*3C
,$GPGSV,3,1,11,01,28,268,39,03,31,224,36,04,07,256,39,10,14,035,25,0*67
,$GPGSV,3,2,11,16,09,002,31,21,23,297,38,22,56,240,35,25,23,128,36,0*64
,$GPGSV,3,3,11,26,32,017,33,31,85,202,38,32,37,103,37,,,,,0*51
,$GLGSV,2,1,08,65,21,068,34,66,64,145,38,67,29,217,43,75,19,149,,0*7D
,$GLGSV,2,2,08,76,71,111,39,77,44,348,18,82,09,258,36,83,07,214,31,0*7B
,$GQGSV,1,1,04,01,58,248,,02,07,331,,03,08,324,,07,24,298,33,0*6A
,$GNRMC,000833.00,A,3653.7859,S,17454.4473,E,0.0,20.4,160621,,,A,V*1C
,$GNVTG,20.4,T,,M,0.0,N,0.0,K,A*25
,$GNZDA,000833.00,16,06,2021,,*70
,$PSGSA,4,01,03,04,10,16,21,22,25,26,31,32,,1.3,0.7,1.1,2405,00083300,00,,7,40,,2,B,4,0,0,3,16,0,0,0,0,0,-0.56,16,1*34
,$PSGSA,4,83,,,,,,,,,,,,1.3,0.7,1.1,2405,00083300,00,,7,40,,2,B,4,0,0,3,16,0,0,0,0,0,-0.56,16,2*3F
,$GPGGA,000834.00,3653.7858,S,17454.4474,E,1,12,0.7,23.8,M,28.3,M,,*4B
,$GNGLL,3653.7858,S,17454.4474,E,000834.00,A,A*64
,$GNGSA,A,3,01,03,04,10,16,21,22,25,26,31,32,,1.3,0.7,1.1,1*37
,$GNGSA,A,3,83,,,,,,,,,,,,1.3,0.7,1.1,2*3C
,$GPGSV,3,1,11,01,28,268,37,03,31,224,35,04,07,256,40,10,14,035,22,0*63
,$GPGSV,3,2,11,16,09,002,31,21,23,297,35,22,56,240,35,25,23,128,33,0*6C
,$GPGSV,3,3,11,26,32,017,34,31,85,202,39,32,37,103,38,,,,,0*58
,$GLGSV,2,1,08,65,21,068,33,66,64,145,39,67,29,217,43,75,19,149,,0*7B
,$GLGSV,2,2,08,76,71,111,40,77,44,348,19,82,09,258,37,83,07,214,30,0*74
,$GQGSV,1,1,04,01,58,248,,02,07,331,,03,08,324,,07,24,298,34,0*6D
,$GNRMC,000834.00,A,3653.7858,S,17454.4474,E,0.0,20.4,160621,,,A,V*1D
,$GNVTG,20.4,T,,M,0.0,N,0.0,K,A*25
,$GNZDA,000834.00,16,06,2021,,*77
,$PSGSA,4,01,03,04,10,16,21,22,25,26,31,32,,1.3,0.7,1.1,2405,00083400,00,,7,40,,2,B,4,0,0,3,16,0,0,0,0,0,-0.56,16,1*33
,$PSGSA,4,83,,,,,,,,,,,,1.3,0.7,1.1,2405,00083400,00,,7,40,,2,B,4,0,0,3,16,0,0,0,0,0,-0.56,16,2*38
,$GPGGA,000835.00,3653.7859,S,17454.4474,E,1,12,0.8,23.6,M,28.3,M,,*4A
,$GNGLL,3653.7859,S,17454.4474,E,000835.00,A,A*64
,$GNGSA,A,3,01,03,04,10,16,21,22,25,26,31,32,,1.5,0.8,1.2,1*3D
,$GNGSA,A,3,66,,,,,,,,,,,,1.5,0.8,1.2,2*3D
,$GPGSV,3,1,11,01,28,268,38,03,31,224,36,04,07,256,40,10,14,035,23,0*6E
,$GPGSV,3,2,11,16,09,002,31,21,23,297,35,22,56,240,36,25,23,128,32,0*6E
,$GPGSV,3,3,11,26,32,017,33,31,85,202,39,32,37,103,37,,,,,0*50
,$GLGSV,2,1,08,65,21,068,33,66,64,145,38,67,29,217,44,75,19,149,,0*7D
,$GLGSV,2,2,08,76,71,111,39,77,44,348,17,82,09,258,37,83,07,214,31,0*75
,$GQGSV,1,1,04,01,58,248,,02,07,331,,03,08,324,,07,24,298,33,0*6A
,$GNRMC,000835.00,A,3653.7859,S,17454.4474,E,0.0,20.4,160621,,,A,V*1D
,$GNVTG,20.4,T,,M,0.0,N,0.0,K,A*25
,$GNZDA,000835.00,16,06,2021,,*76
,$PSGSA,4,01,03,04,10,16,21,22,25,26,31,32,,1.5,0.8,1.2,2404,00083500,00,,7,40,,2,B,4,0,0,1,16,0,0,0,2,0,-0.56,16,1*39
,$PSGSA,4,66,,,,,,,,,,,,1.5,0.8,1.2,2404,00083500,00,,7,40,,2,B,4,0,0,1,16,0,0,0,2,0,-0.56,16,2*39
,$GPGGA,000836.00,3653.7859,S,17454.4474,E,1,12,0.7,23.5,M,28.3,M,,*45
,$GNGLL,3653.7859,S,17454.4474,E,000836.00,A,A*67
,$GNGSA,A,3,01,03,04,10,16,21,22,25,26,31,32,,1.3,0.7,1.1,1*37
,$GNGSA,A,3,83,,,,,,,,,,,,1.3,0.7,1.1,2*3C
,$GPGSV,3,1,11,01,28,268,38,03,31,224,36,04,07,256,37,10,14,035,21,0*6C
,$GPGSV,3,2,11,16,09,002,32,21,23,297,36,22,56,240,35,25,23,128,36,0*69
,$GPGSV,3,3,11,26,32,017,35,31,85,202,38,32,37,103,37,,,,,0*57
,$GLGSV,2,1,08,65,21,068,33,66,64,145,38,67,29,217,44,75,19,149,,0*7D
,$GLGSV,2,2,08,76,71,111,39,77,44,348,17,82,09,258,37,83,07,214,30,0*74
,$GQGSV,1,1,04,01,58,248,,02,07,331,,03,08,324,,07,24,298,33,0*6A
,$GNRMC,000836.00,A,3653.7859,S,17454.4474,E,0.0,20.4,160621,,,A,V*1E
,$GNVTG,20.4,T,,M,0.0,N,0.0,K,A*25
,$GNZDA,000836.00,16,06,2021,,*75
,$PSGSA,4,01,03,04,10,16,21,22,25,26,31,32,,1.3,0.7,1.1,2404,00083600,00,,7,39,,2,B,4,0,0,3,16,0,0,0,0,0,-0.56,16,1*3E
,$PSGSA,4,83,,,,,,,,,,,,1.3,0.7,1.1,2404,00083600,00,,7,39,,2,B,4,0,0,3,16,0,0,0,0,0,-0.56,16,2*35
,$GPGGA,000837.00,3653.7858,S,17454.4474,E,1,12,0.7,23.7,M,28.3,M,,*47
,$GNGLL,3653.7858,S,17454.4474,E,000837.00,A,A*67
,$GNGSA,A,3,01,03,04,10,16,21,22,25,26,31,32,,1.3,0.7,1.1,1*37
,$GNGSA,A,3,83,,,,,,,,,,,,1.3,0.7,1.1,2*3C
,$GPGSV,3,1,11,01,28,268,37,03,31,224,37,04,07,256,37,10,14,035,24,0*67
,$GPGSV,3,2,11,16,09,002,30,21,23,297,35,22,56,240,35,25,23,128,37,0*69
,$GPGSV,3,3,11,26,32,017,34,31,85,202,37,32,37,103,39,,,,,0*57
,$GLGSV,2,1,08,65,21,068,30,66,64,145,38,67,29,217,42,75,19,149,,0*78
,$GLGSV,2,2,08,76,71,111,39,77,44,348,18,82,09,258,39,83,07,214,30,0*75
,$GQGSV,1,1,04,01,58,248,,02,07,331,,03,08,324,,07,24,298,34,0*6D
,$GNRMC,000837.00,A,3653.7858,S,17454.4474,E,0.2,20.4,160621,,,A,V*1C
,$GNVTG,20.4,T,,M,0.2,N,0.4,K,A*23
,$GNZDA,000837.00,16,06,2021,,*74
,$PSGSA,4,01,03,04,10,16,21,22,25,26,31,32,,1.3,0.7,1.1,2405,00083700,00,,7,39,,2,B,4,0,0,3,16,0,0,0,0,0,-0.56,16,1*3E
,$PSGSA,4,83,,,,,,,,,,,,1.3,0.7,1.1,2405,00083700,00,,7,39,,2,B,4,0,0,3,16,0,0,0,0,0,-0.56,16,2*35
,$GPGGA,000838.00,3653.7857,S,17454.4474,E,1,12,0.7,24.0,M,28.3,M,,*47
,$GNGLL,3653.7857,S,17454.4474,E,000838.00,A,A*67
,$GNGSA,A,3,01,03,04,10,16,21,22,25,26,31,32,,1.3,0.7,1.1,1*37
,$GNGSA,A,3,83,,,,,,,,,,,,1.3,0.7,1.1,2*3C
,$GPGSV,3,1,11,01,28,268,37,03,31,224,37,04,07,256,36,10,14,035,24,0*66
,$GPGSV,3,2,11,16,09,002,33,21,23,297,37,22,56,240,37,25,23,128,37,0*6A
,$GPGSV,3,3,11,26,32,017,34,31,85,202,38,32,37,103,39,,,,,0*58
,$GLGSV,2,1,08,65,21,068,31,66,64,145,37,67,29,217,43,75,19,149,,0*77
,$GLGSV,2,2,08,76,71,111,39,77,44,348,17,82,09,258,39,83,07,214,31,0*7B
,$GQGSV,1,1,04,01,58,248,,02,07,331,,03,08,324,,07,24,298,36,0*6F
,$GNRMC,000838.00,A,3653.7857,S,17454.4474,E,0.2,20.4,160621,,,A,V*1C
,$GNVTG,20.4,T,,M,0.2,N,0.4,K,A*23
,$GNZDA,000838.00,16,06,2021,,*7B
,$PSGSA,4,01,03,04,10,16,21,22,25,26,31,32,,1.3,0.7,1.1,2406,00083800,00,,7,40,,2,B,4,0,0,3,16,0,0,0,0,0,-0.56,0,1*0B
,$PSGSA,4,83,,,,,,,,,,,,1.3,0.7,1.1,2406,00083800,00,,7,40,,2,B,4,0,0,3,16,0,0,0,0,0,-0.56,0,2*00
,$GPGGA,000839.00,3653.7855,S,17454.4475,E,1,12,0.7,23.8,M,28.3,M,,*4A
,$GNGLL,3653.7855,S,17454.4475,E,000839.00,A,A*65
,$GNGSA,A,3,01,03,04,10,16,21,22,25,26,31,32,,1.3,0.7,1.1,1*37
,$GNGSA,A,3,83,,,,,,,,,,,,1.3,0.7,1.1,2*3C
,$GPGSV,3,1,11,01,28,268,36,03,31,224,36,04,07,256,38,10,14,035,25,0*69
,$GPGSV,3,2,11,16,09,002,33,21,23,297,37,22,56,240,36,25,23,128,35,0*69
,$GPGSV,3,3,11,26,32,017,33,31,85,201,38,32,37,103,38,,,,,0*5D
,$GLGSV,2,1,08,65,21,068,32,66,64,145,38,67,29,217,43,75,19,149,,0*7B
,$GLGSV,2,2,08,76,71,111,38,77,45,348,20,82,09,258,38,83,07,214,30,0*7F
,$GQGSV,1,1,04,01,58,248,,02,07,331,,03,08,324,,07,24,298,36,0*6F
,$GNRMC,000839.00,A,3653.7855,S,17454.4475,E,0.2,20.4,160621,,,A,V*1E
,$GNVTG,20.4,T,,M,0.2,N,0.4,K,A*23
,$GNZDA,000839.00,16,06,2021,,*7A
,$PSGSA,4,01,03,04,10,16,21,22,25,26,31,32,,1.3,0.7,1.1,2406,00083900,00,,7,39,,2,B,4,0,0,3,16,0,0,0,0,0,-0.56,16,1*33
,$PSGSA,4,83,,,,,,,,,,,,1.3,0.7,1.1,2406,00083900,00,,7,39,,2,B,4,0,0,3,16,0,0,0,0,0,-0.56,16,2*38
,$GPGGA,000840.00,3653.7855,S,17454.4476,E,1,12,0.7,24.0,M,28.3,M,,*48
,$GNGLL,3653.7855,S,17454.4476,E,000840.00,A,A*68
,$GNGSA,A,3,01,03,04,10,16,22,25,26,31,32,,,1.3,0.7,1.1,1*34
,$GNGSA,A,3,83,,,,,,,,,,,,1.3,0.7,1.1,2*3C
,$GNGSA,A,3,07,,,,,,,,,,,,1.3,0.7,1.1,5*37
,$GPGSV,3,1,11,01,28,268,39,03,31,224,36,04,07,256,36,10,14,035,24,0*69
,$GPGSV,3,2,11,16,09,002,33,21,23,297,35,22,56,240,34,25,23,128,35,0*69
,$GPGSV,3,3,11,26,32,017,35,31,85,201,39,32,37,103,36,,,,,0*54
,$GLGSV,2,1,08,65,21,068,33,66,64,145,37,67,29,217,44,75,19,149,,0*72
,$GLGSV,2,2,08,76,71,111,38,77,45,348,18,82,09,258,37,83,07,214,30,0*7B
,$GQGSV,1,1,04,01,58,248,,02,07,331,,03,08,324,,07,24,298,35,0*6C
,$GNRMC,000840.00,A,3653.7855,S,17454.4476,E,0.2,20.4,160621,,,A,V*13
,$GNVTG,20.4,T,,M,0.2,N,0.4,K,A*23
,$GNZDA,000840.00,16,06,2021,,*74
,$PSGSA,4,01,03,04,10,16,22,25,26,31,32,,,1.3,0.7,1.1,2405,00084000,00,,7,40,,2,B,4,0,0,3,16,0,0,0,0,0,-0.56,16,1*33
,$PSGSA,4,83,,,,,,,,,,,,1.3,0.7,1.1,2405,00084000,00,,7,40,,2,B,4,0,0,3,16,0,0,0,0,0,-0.56,16,2*3B
,$PSGSA,4,07,,,,,,,,,,,,1.3,0.7,1.1,2405,00084000,00,,7,40,,2,B,4,0,0,3,16,0,0,0,0,0,-0.56,16,5*30
,$GPGGA,000841.00,3653.7854,S,17454.4476,E,1,12,0.7,24.1,M,28.3,M,,*49
,$GNGLL,3653.7854,S,17454.4476,E,000841.00,A,A*68
,$GNGSA,A,3,01,03,04,16,21,22,25,26,31,32,,,1.4,0.7,1.2,1*32
,$GNGSA,A,3,65,83,,,,,,,,,,,1.4,0.7,1.2,2*3B
,$GPGSV,3,1,11,01,28,268,39,03,31,224,36,04,07,256,38,10,14,035,22,0*61
,$GPGSV,3,2,11,16,09,002,30,21,23,297,37,22,56,240,34,25,23,128,36,0*6B
,$GPGSV,3,3,11,26,32,017,34,31,85,201,38,32,37,103,35,,,,,0*57
,$GLGSV,2,1,08,65,21,068,34,66,64,145,37,67,29,217,44,75,19,149,,0*75
,$GLGSV,2,2,08,76,71,111,39,77,45,348,17,82,09,258,38,83,07,214,30,0*7A
,$GQGSV,1,1,04,01,58,248,,02,07,331,,03,08,324,,07,24,298,35,0*6C
,$GNRMC,000841.00,A,3653.7854,S,17454.4476,E,0.2,27.9,160621,,,A,V*19
,$GNVTG,27.9,T,,M,0.2,N,0.4,K,A*29
,$GNZDA,000841.00,16,06,2021,,*75
,$PSGSA,4,01,03,04,16,21,22,25,26,31,32,,,1.4,0.7,1.2,2405,00084100,00,,7,40,,2,B,4,0,0,3,16,0,0,0,0,0,-0.56,0,1*03
,$PSGSA,4,65,83,,,,,,,,,,,1.4,0.7,1.2,2405,00084100,00,,7,40,,2,B,4,0,0,3,16,0,0,0,0,0,-0.56,0,2*0A
,$GPGGA,000842.00,3653.7853,S,17454.4478,E,1,12,0.7,24.0,M,28.3,M,,*42
,$GNGLL,3653.7853,S,17454.4478,E,000842.00,A,A*62
,$GNGSA,A,3,01,03,04,16,21,22,25,26,31,32,,,1.4,0.7,1.2,1*32
,$GNGSA,A,3,65,83,,,,,,,,,,,1.4,0.7,1.2,2*3B
,$GPGSV,3,1,11,01,28,268,38,03,31,224,38,04,07,256,37,10,14,035,24,0*67
,$GPGSV,3,2,11,16,09,002,31,21,23,297,36,22,56,240,34,25,23,128,38,0*65
,$GPGSV,3,3,11,26,32,017,32,31,85,201,39,32,37,103,37,,,,,0*52
,$GLGSV,2,1,08,65,21,068,34,66,64,145,37,67,29,217,44,75,19,149,,0*75
,$GLGSV,2,2,08,76,71,111,39,77,45,348,00,82,09,258,37,83,07,214,29,0*7B
,$GQGSV,1,1,04,01,58,248,,02,07,331,,03,08,324,,07,24,298,34,0*6D
,$GNRMC,000842.00,A,3653.7853,S,17454.4478,E,0.3,21.1,160621,,,A,V*1C
,$GNVTG,21.1,T,,M,0.3,N,0.6,K,A*24
,$GNZDA,000842.00,16,06,2021,,*76
,$PSGSA,4,01,03,04,16,21,22,25,26,31,32,,,1.4,0.7,1.2,2404,00084200,00,,7,40,,2,B,4,0,0,3,16,0,0,0,0,0,-0.56,0,1*01
,$PSGSA,4,65,83,,,,,,,,,,,1.4,0.7,1.2,2404,00084200,00,,7,40,,2,B,4,0,0,3,16,0,0,0,0,0,-0.56,0,2*08
,$GPGGA,000843.00,3653.7852,S,17454.4478,E,1,12,0.7,23.9,M,28.3,M,,*4C
,$GNGLL,3653.7852,S,17454.4478,E,000843.00,A,A*62
,$GNGSA,A,3,01,03,04,10,16,22,25,26,31,32,,,1.3,0.7,1.1,1*34
,$GNGSA,A,3,83,,,,,,,,,,,,1.3,0.7,1.1,2*3C
,$GNGSA,A,3,07,,,,,,,,,,,,1.3,0.7,1.1,5*37
,$GPGSV,3,1,11,01,28,268,37,03,31,224,38,04,07,256,34,10,14,035,24,0*6B
,$GPGSV,3,2,11,16,09,002,32,21,23,297,34,22,56,240,34,25,23,128,39,0*65
,$GPGSV,3,3,11,26,32,017,34,31,85,201,38,32,37,103,38,,,,,0*5A
,$GLGSV,2,1,08,65,21,068,34,66,64,145,37,67,29,217,44,75,19,149,,0*75
,$GLGSV,2,2,08,76,71,111,38,77,45,348,17,82,09,258,37,83,07,214,29,0*7C
,$GQGSV,1,1,04,01,58,248,,02,07,331,,03,08,324,,07,24,298,35,0*6C
,$GNRMC,000843.00,A,3653.7852,S,17454.4478,E,0.0,21.1,160621,,,A,V*1F
,$GNVTG,21.1,T,,M,0.0,N,0.0,K,A*21
,$GNZDA,000843.00,16,06,2021,,*77
,$PSGSA,4,01,03,04,10,16,22,25,26,31,32,,,1.3,0.7,1.1,2404,00084300,00,,7,39,,2,B,4,0,0,3,16,0,0,0,0,0,-0.56,0,1*08
,$PSGSA,4,83,,,,,,,,,,,,1.3,0.7,1.1,2404,00084300,00,,7,39,,2,B,4,0,0,3,16,0,0,0,0,0,-0.56,0,2*00
,$PSGSA,4,07,,,,,,,,,,,,1.3,0.7,1.1,2404,00084300,00,,7,39,,2,B,4,0,0,3,16,0,0,0,0,0,-0.56,0,5*0B
,$GPGGA,000844.00,3653.7852,S,17454.4478,E,1,12,0.7,23.9,M,28.3,M,,*4B
,$GNGLL,3653.7852,S,17454.4478,E,000844.00,A,A*65
,$GNGSA,A,3,01,03,04,10,16,21,22,25,26,31,32,,1.3,0.7,1.1,1*37
,$GNGSA,A,3,83,,,,,,,,,,,,1.3,0.7,1.1,2*3C
,$GPGSV,3,1,11,01,28,268,38,03,31,224,36,04,07,256,36,10,14,035,25,0*69
,$GPGSV,3,2,11,16,09,002,33,21,23,297,36,22,56,240,33,25,23,128,36,0*6E
,$GPGSV,3,3,11,26,32,017,36,31,85,201,39,32,37,103,37,,,,,0*56
,$GLGSV,2,1,08,65,22,067,33,66,64,144,36,67,29,217,43,75,19,149,,0*79
,$GLGSV,2,2,08,76,71,111,38,77,45,348,20,82,09,258,39,83,07,214,30,0*7E
,$GQGSV,1,1,04,01,58,248,,02,07,331,,03,08,324,,07,24,298,36,0*6F
,$GNRMC,000844.00,A,3653.7852,S,17454.4478,E,0.3,21.1,160621,,,A,V*1B
,$GNVTG,21.1,T,,M,0.3,N,0.6,K,A*24
,$GNZDA,000844.00,16,06,2021,,*70
,$PSGSA,4,01,03,04,10,16,21,22,25,26,31,32,,1.3,0.7,1.1,2404,00084400,00,,7,39,,2,B,4,0,0,3,16,0,0,0,0,0,-0.56,0,1*0C
,$PSGSA,4,83,,,,,,,,,,,,1.3,0.7,1.1,2404,00084400,00,,7,39,,2,B,4,0,0,3,16,0,0,0,0,0,-0.56,0,2*07
,$GPGGA,000845.00,3653.7851,S,17454.4478,E,1,12,0.7,23.8,M,28.3,M,,*48
,$GNGLL,3653.7851,S,17454.4478,E,000845.00,A,A*67
,$GNGSA,A,3,01,03,04,16,21,22,25,26,31,32,,,1.4,0.7,1.2,1*32
,$GNGSA,A,3,65,83,,,,,,,,,,,1.4,0.7,1.2,2*3B
,$GPGSV,3,1,11,01,28,268,38,03,31,224,37,04,07,256,38,10,14,035,23,0*60
,$GPGSV,3,2,11,16,09,002,33,21,23,297,36,22,56,240,33,25,23,128,37,0*6F
,$GPGSV,3,3,11,26,32,017,34,31,85,201,37,32,37,102,39,,,,,0*55
,$GLGSV,2,1,08,65,22,067,33,66,64,144,38,67,29,217,43,75,19,149,,0*77
,$GLGSV,2,2,08,76,71,111,38,77,45,348,18,82,09,258,38,83,07,214,29,0*7C
,$GQGSV,1,1,04,01,58,248,,02,07,331,,03,08,324,,07,24,298,35,0*6C
,$GNRMC,000845.00,A,3653.7851,S,17454.4478,E,0.3,21.1,160621,,,A,V*19
,$GNVTG,21.1,T,,M,0.3,N,0.6,K,A*24
,$GNZDA,000845.00,16,06,2021,,*71
,$PSGSA,4,01,03,04,16,21,22,25,26,31,32,,,1.4,0.7,1.2,2405,00084500,00,,7,39,,2,B,4,0,0,3,16,0,0,0,0,0,-0.56,0,1*09
,$PSGSA,4,65,83,,,,,,,,,,,1.4,0.7,1.2,2405,00084500,00,,7,39,,2,B,4,0,0,3,16,0,0,0,0,0,-0.56,0,2*00
,$GPGGA,000846.00,3653.7850,S,17454.4478,E,1,12,0.7,23.9,M,28.3,M,,*4B
,$GNGLL,3653.7850,S,17454.4478,E,000846.00,A,A*65
,$GNGSA,A,3,01,03,04,10,16,21,22,25,26,31,32,,1.3,0.7,1.1,1*37
,$GNGSA,A,3,83,,,,,,,,,,,,1.3,0.7,1.1,2*3C
,$GPGSV,3,1,11,01,28,268,36,03,31,224,35,04,07,256,39,10,14,035,26,0*68
,$GPGSV,3,2,11,16,09,002,34,21,23,297,36,22,56,240,33,25,23,128,37,0*68
,$GPGSV,3,3,11,26,32,017,33,31,85,201,38,32,37,102,40,,,,,0*53
,$GLGSV,2,1,08,65,22,067,33,66,64,144,39,67,29,217,41,75,19,149,,0*74
,$GLGSV,2,2,08,76,71,111,38,77,45,348,17,82,09,258,38,83,07,214,30,0*7B
,$GQGSV,1,1,04,01,58,248,,02,07,331,,03,08,324,,07,24,298,35,0*6C
,$GNRMC,000846.00,A,3653.7850,S,17454.4478,E,0.3,21.1,160621,,,A,V*1B
,$GNVTG,21.1,T,,M,0.3,N,0.6,K,A*24
,$GNZDA,000846.00,16,06,2021,,*72
,$PSGSA,4,01,03,04,10,16,21,22,25,26,31,32,,1.3,0.7,1.1,2405,00084600,00,,7,39,,2,B,4,0,0,3,16,0,0,0,0,0,-0.56,0,1*0F
,$PSGSA,4,83,,,,,,,,,,,,1.3,0.7,1.1,2405,00084600,00,,7,39,,2,B,4,0,0,3,16,0,0,0,0,0,-0.56,0,2*04
,$GPGGA,000847.00,3653.7849,S,17454.4478,E,1,12,0.7,24.1,M,28.3,M,,*4D
,$GNGLL,3653.7849,S,17454.4478,E,000847.00,A,A*6C
,$GNGSA,A,3,01,03,04,10,16,21,22,25,26,31,32,,1.3,0.7,1.1,1*37
,$GNGSA,A,3,83,,,,,,,,,,,,1.3,0.7,1.1,2*3C
,$GPGSV,3,1,11,01,28,268,35,03,31,224,36,04,07,256,36,10,14,035,29,0*68
,$GPGSV,3,2,11,16,09,002,32,21,23,297,38,22,56,240,33,25,23,128,37,0*60
,$GPGSV,3,3,11,26,32,017,32,31,85,201,37,32,37,102,41,,,,,0*5C
,$GLGSV,2,1,08,65,22,067,33,66,64,144,39,67,29,217,42,75,19,149,,0*77
,$GLGSV,2,2,08,76,71,111,38,77,45,348,15,82,09,258,38,83,07,214,31,0*78
,$GQGSV,1,1,04,01,58,248,,02,07,331,,03,08,324,,07,24,298,34,0*6D
,$GNRMC,000847.00,A,3653.7849,S,17454.4478,E,0.3,21.1,160621,,,A,V*12
,$GNVTG,21.1,T,,M,0.3,N,0.6,K,A*24
,$GNZDA,000847.00,16,06,2021,,*73
,$PSGSA,4,01,03,04,10,16,21,22,25,26,31,32,,1.3,0.7,1.1,2406,00084700,00,,7,40,,2,B,4,0,0,3,16,0,0,0,0,0,-0.56,0,1*03
,$PSGSA,4,83,,,,,,,,,,,,1.3,0.7,1.1,2406,00084700,00,,7,40,,2,B,4,0,0,3,16,0,0,0,0,0,-0.56,0,2*08
,$GPGGA,000848.00,3653.7848,S,17454.4479,E,1,12,0.7,24.5,M,28.3,M,,*46
,$GNGLL,3653.7848,S,17454.4479,E,000848.00,A,A*63
,$GNGSA,A,3,01,03,04,10,16,21,22,25,26,31,32,,1.3,0.7,1.1,1*37
,$GNGSA,A,3,83,,,,,,,,,,,,1.3,0.7,1.1,2*3C
,$GPGSV,3,1,11,01,28,268,38,03,31,224,36,04,07,256,35,10,14,035,25,0*6A
,$GPGSV,3,2,11,16,09,002,30,21,23,297,37,22,56,240,33,25,23,128,37,0*6D
,$GPGSV,3,3,11,26,32,017,28,31,85,201,38,32,37,102,39,,,,,0*57
,$GLGSV,2,1,08,65,22,067,33,66,64,144,39,67,29,217,43,75,19,149,,0*76
,$GLGSV,2,2,08,76,71,111,39,77,45,348,16,82,09,258,38,83,07,214,30,0*7B
,$GQGSV,1,1,04,01,58,248,,02,07,331,,03,08,324,,07,24,298,34,0*6D
,$GNRMC,000848.00,A,3653.7848,S,17454.4479,E,0.0,21.1,160621,,,A,V*1E
,$GNVTG,21.1,T,,M,0.0,N,0.0,K,A*21
,$GNZDA,000848.00,16,06,2021,,*7C
,$PSGSA,4,01,03,04,10,16,21,22,25,26,31,32,,1.3,0.7,1.1,2405,00084800,00,,7,40,,2,B,4,0,0,3,16,0,0,0,0,0,-0.56,0,1*0F
,$PSGSA,4,83,,,,,,,,,,,,1.3,0.7,1.1,2405,00084800,00,,7,40,,2,B,4,0,0,3,16,0,0,0,0,0,-0.56,0,2*04
,$GPGGA,000849.00,3653.7846,S,17454.4479,E,1,12,0.7,24.5,M,28.3,M,,*49
,$GNGLL,3653.7846,S,17454.4479,E,000849.00,A,A*6C
,$GNGSA,A,3,01,03,04,10,16,21,22,25,26,31,32,,1.3,0.7,1.1,1*37
,$GNGSA,A,3,83,,,,,,,,,,,,1.3,0.7,1.1,2*3C
,$GPGSV,3,1,11,01,28,268,40,03,31,224,38,04,07,256,38,10,14,035,30,0*62
,$GPGSV,3,2,11,16,09,002,30,21,23,297,35,22,56,240,33,25,23,128,39,0*61
,$GPGSV,3,3,11,26,32,017,29,31,85,201,38,32,37,102,40,,,,,0*58
,$GLGSV,2,1,08,65,22,067,32,66,64,144,39,67,29,217,44,75,19,149,,0*70
,$GLGSV,2,2,08,76,71,111,39,77,45,348,18,82,09,258,37,83,07,214,30,0*7A
,$GQGSV,1,1,04,01,58,248,,02,07,331,,03,08,324,,07,24,298,31,0*68
,$GNRMC,000849.00,A,3653.7846,S,17454.4479,E,0.3,21.1,160621,,,A,V*12
,$GNVTG,21.1,T,,M,0.3,N,0.6,K,A*24
,$GNZDA,000849.00,16,06,2021,,*7D
,$PSGSA,4,01,03,04,10,16,21,22,25,26,31,32,,1.3,0.7,1.1,2405,00084900,00,,7,40,,2,B,4,0,0,3,16,0,0,0,0,0,-0.56,0,1*0E
,$PSGSA,4,83,,,,,,,,,,,,1.3,0.7,1.1,2405,00084900,00,,7,40,,2,B,4,0,0,3,16,0,0,0,0,0,-0.56,0,2*05
,$GPGGA,000850.00,3653.7845,S,17454.4480,E,1,12,0.7,24.3,M,28.3,M,,*42
,$GNGLL,3653.7845,S,17454.4480,E,000850.00,A,A*61
,$GNGSA,A,3,01,03,04,10,16,21,22,25,26,31,32,,1.3,0.7,1.1,1*37
,$GNGSA,A,3,83,,,,,,,,,,,,1.3,0.7,1.1,2*3C
,$GPGSV,3,1,11,01,28,268,40,03,31,224,38,04,07,256,38,10,14,035,28,0*6B
,$GPGSV,3,2,11,16,09,002,31,21,23,297,36,22,56,240,33,25,23,128,37,0*6D
,$GPGSV,3,3,11,26,32,017,31,31,85,201,38,32,37,102,41,,,,,0*50
,$GLGSV,2,1,08,65,22,067,32,66,64,144,38,67,29,217,43,75,19,149,,0*76
,$GLGSV,2,2,08,76,71,111,40,77,45,348,19,82,09,258,36,83,07,214,30,0*74
,$GQGSV,1,1,04,01,58,248,,02,07,331,,03,08,324,,07,24,298,33,0*6A
,$GNRMC,000850.00,A,3653.7845,S,17454.4480,E,0.3,21.1,160621,,,A,V*1F
,$GNVTG,21.1,T,,M,0.3,N,0.6,K,A*24
,$GNZDA,000850.00,16,06,2021,,*75
,$PSGSA,4,01,03,04,10,16,21,22,25,26,31,32,,1.3,0.7,1.1,2404,00085000,00,,7,41,,2,B,4,0,0,3,16,0,0,0,0,0,-0.56,0,1*06
,$PSGSA,4,83,,,,,,,,,,,,1.3,0.7,1.1,2404,00085000,00,,7,41,,2,B,4,0,0,3,16,0,0,0,0,0,-0.56,0,2*0D
,$GPGGA,000851.00,3653.7844,S,17454.4479,E,1,12,0.7,24.3,M,28.3,M,,*44
,$GNGLL,3653.7844,S,17454.4479,E,000851.00,A,A*67
,$GNGSA,A,3,01,03,04,10,16,22,25,26,31,32,,,1.3,0.7,1.1,1*34
,$GNGSA,A,3,83,,,,,,,,,,,,1.3,0.7,1.1,2*3C
,$GNGSA,A,3,07,,,,,,,,,,,,1.3,0.7,1.1,5*37
,$GPGSV,3,1,11,01,28,268,37,03,31,224,37,04,07,256,37,10,14,035,26,0*65
,$GPGSV,3,2,11,16,09,002,32,21,23,297,31,22,56,240,34,25,23,128,36,0*6F
,$GPGSV,3,3,11,26,32,017,30,31,85,200,39,32,37,102,41,,,,,0*51
,$GLGSV,2,1,08,65,22,067,32,66,64,144,38,67,29,217,42,75,19,149,,0*77
,$GLGSV,2,2,08,76,71,111,40,77,45,348,21,82,09,258,38,83,07,214,31,0*70
,$GQGSV,1,1,04,01,58,248,,02,07,331,,03,08,324,,07,24,298,33,0*6A
,$GNRMC,000851.00,A,3653.7844,S,17454.4479,E,0.3,21.1,160621,,,A,V*19
,$GNVTG,21.1,T,,M,0.3,N,0.6,K,A*24
,$GNZDA,000851.00,16,06,2021,,*74
,$PSGSA,4,01,03,04,10,16,22,25,26,31,32,,,1.3,0.7,1.1,2404,00085100,00,,7,40,,2,B,4,0,0,3,16,0,0,0,0,0,-0.56,0,1*05
,$PSGSA,4,83,,,,,,,,,,,,1.3,0.7,1.1,2404,00085100,00,,7,40,,2,B,4,0,0,3,16,0,0,0,0,0,-0.56,0,2*0D
,$PSGSA,4,07,,,,,,,,,,,,1.3,0.7,1.1,2404,00085100,00,,7,40,,2,B,4,0,0,3,16,0,0,0,0,0,-0.56,0,5*06
,$GPGGA,000852.00,3653.7843,S,17454.4480,E,1,12,0.8,23.8,M,28.3,M,,*45
,$GNGLL,3653.7843,S,17454.4480,E,000852.00,A,A*65
,$GNGSA,A,3,01,03,04,10,16,21,22,25,26,31,32,,1.5,0.8,1.2,1*3D
,$GNGSA,A,3,66,,,,,,,,,,,,1.5,0.8,1.2,2*3D
,$GPGSV,3,1,11,01,28,268,37,03,31,224,37,04,07,256,36,10,14,035,27,0*65
,$GPGSV,3,2,11,16,09,002,32,21,23,297,34,22,56,240,33,25,23,128,36,0*6D
,$GPGSV,3,3,11,26,32,017,30,31,85,200,37,32,37,102,41,,,,,0*5F
,$GLGSV,2,1,08,65,22,067,33,66,64,144,39,67,29,217,42,75,19,149,,0*77
,$GLGSV,2,2,08,76,71,111,40,77,45,348,18,82,09,258,37,83,07,214,31,0*75
,$GQGSV,1,1,04,01,58,248,,02,07,331,,03,08,324,,07,24,298,33,0*6A
,$GNRMC,000852.00,A,3653.7843,S,17454.4480,E,0.3,21.1,160621,,,A,V*1B
,$GNVTG,21.1,T,,M,0.3,N,0.6,K,A*24
,$GNZDA,000852.00,16,06,2021,,*77
,$PSGSA,4,01,03,04,10,16,21,22,25,26,31,32,,1.5,0.8,1.2,2404,00085200,00,,7,40,,2,B,4,0,0,1,16,0,0,0,2,0,-0.56,0,1*0F
,$PSGSA,4,66,,,,,,,,,,,,1.5,0.8,1.2,2404,00085200,00,,7,40,,2,B,4,0,0,1,16,0,0,0,2,0,-0.56,0,2*0F
,$GPGGA,000853.00,3653.7843,S,17454.4482,E,1,12,0.7,23.3,M,28.3,M,,*42
,$GNGLL,3653.7843,S,17454.4482,E,000853.00,A,A*66
,$GNGSA,A,3,01,03,04,10,16,21,22,25,26,31,32,,1.3,0.7,1.1,1*37
,$GNGSA,A,3,83,,,,,,,,,,,,1.3,0.7,1.1,2*3C
,$GPGSV,3,1,11,01,28,268,38,03,31,224,37,04,07,256,39,10,14,035,28,0*6A
,$GPGSV,3,2,11,16,09,002,33,21,23,297,35,22,56,240,35,25,23,128,37,0*6A
,$GPGSV,3,3,11,26,32,017,33,31,85,200,38,32,37,102,38,,,,,0*5D
,$GLGSV,2,1,08,65,22,067,33,66,64,144,39,67,29,217,42,75,19,149,,0*77
,$GLGSV,2,2,08,76,71,111,39,77,45,348,19,82,09,258,36,83,07,214,31,0*7B
,$GQGSV,1,1,04,01,58,248,,02,07,331,,03,08,324,,07,24,298,35,0*6C
,$GNRMC,000853.00,A,3653.7843,S,17454.4482,E,0.0,21.1,160621,,,A,V*1B
,$GNVTG,21.1,T,,M,0.0,N,0.0,K,A*21
,$GNZDA,000853.00,16,06,2021,,*76
,$PSGSA,4,01,03,04,10,16,21,22,25,26,31,32,,1.3,0.7,1.1,2405,00085300,00,,7,39,,2,B,4,0,0,3,16,0,0,0,0,0,-0.56,0,1*0B
,$PSGSA,4,83,,,,,,,,,,,,1.3,0.7,1.1,2405,00085300,00,,7,39,,2,B,4,0,0,3,16,0,0,0,0,0,-0.56,0,2*00
,$GPGGA,000854.00,3653.7843,S,17454.4482,E,1,12,0.7,23.2,M,28.3,M,,*44
,$GNGLL,3653.7843,S,17454.4482,E,000854.00,A,A*61
,$GNGSA,A,3,01,03,04,10,16,22,25,26,31,32,,,1.3,0.7,1.1,1*34
,$GNGSA,A,3,83,,,,,,,,,,,,1.3,0.7,1.1,2*3C
,$GNGSA,A,3,07,,,,,,,,,,,,1.3,0.7,1.1,5*37
,$GPGSV,3,1,11,01,28,268,38,03,31,224,37,04,07,256,39,10,14,035,28,0*6A
,$GPGSV,3,2,11,16,09,002,33,21,23,297,32,22,56,240,36,25,23,128,39,0*60
,$GPGSV,3,3,11,26,32,017,32,31,85,200,38,32,37,102,39,,,,,0*5D
,$GLGSV,2,1,08,65,22,067,33,66,64,144,38,67,29,217,43,75,19,149,,0*77
,$GLGSV,2,2,08,76,71,111,39,77,45,348,19,82,09,258,37,83,07,214,31,0*7A
,$GQGSV,1,1,04,01,58,248,,02,07,331,,03,08,324,,07,24,298,35,0*6C
,$GNRMC,000854.00,A,3653.7843,S,17454.4482,E,0.3,21.1,160621,,,A,V*1F
,$GNVTG,21.1,T,,M,0.3,N,0.6,K,A*24
,$GNZDA,000854.00,16,06,2021,,*71
,$PSGSA,4,01,03,04,10,16,22,25,26,31,32,,,1.3,0.7,1.1,2406,00085400,00,,7,40,,2,B,4,0,0,3,16,0,0,0,0,0,-0.56,16,1*35
,$PSGSA,4,83,,,,,,,,,,,,1.3,0.7,1.1,2406,00085400,00,,7,40,,2,B,4,0,0,3,16,0,0,0,0,0,-0.56,16,2*3D
,$PSGSA,4,07,,,,,,,,,,,,1.3,0.7,1.1,2406,00085400,00,,7,40,,2,B,4,0,0,3,16,0,0,0,0,0,-0.56,16,5*36
,$GPGGA,000855.00,3653.7843,S,17454.4481,E,1,12,0.7,23.5,M,28.3,M,,*41
,$GNGLL,3653.7843,S,17454.4481,E,000855.00,A,A*63
,$GNGSA,A,3,01,03,04,10,16,21,22,25,26,31,32,,1.3,0.7,1.1,1*37
,$GNGSA,A,3,83,,,,,,,,,,,,1.3,0.7,1.1,2*3C
,$GPGSV,3,1,11,01,28,268,37,03,31,224,37,04,07,256,39,10,14,035,27,0*6A
,$GPGSV,3,2,11,16,09,002,32,21,23,297,35,22,56,240,33,25,23,128,36,0*6C
,$GPGSV,3,3,11,26,32,017,33,31,85,200,38,32,37,102,41,,,,,0*53
,$GLGSV,2,1,08,65,22,067,33,66,64,144,37,67,29,217,42,75,19,149,,0*79
,$GLGSV,2,2,08,76,71,111,40,77,45,348,15,82,09,258,37,83,07,214,32,0*7B
,$GQGSV,1,1,04,01,58,248,,02,07,331,,03,08,324,,07,24,298,34,0*6D
,$GNRMC,000855.00,A,3653.7843,S,17454.4481,E,0.3,21.1,160621,,,A,V*1D
,$GNVTG,21.1,T,,M,0.3,N,0.6,K,A*24
,$GNZDA,000855.00,16,06,2021,,*70
,$PSGSA,4,01,03,04,10,16,21,22,25,26,31,32,,1.3,0.7,1.1,2407,00085500,00,,7,40,,2,B,4,0,0,3,16,0,0,0,0,0,-0.56,16,1*36
,$PSGSA,4,83,,,,,,,,,,,,1.3,0.7,1.1,2407,00085500,00,,7,40,,2,B,4,0,0,3,16,0,0,0,0,0,-0.56,16,2*3D
,$GPGGA,000856.00,3653.7843,S,17454.4480,E,1,12,0.8,23.7,M,28.3,M,,*4E
,$GNGLL,3653.7843,S,17454.4480,E,000856.00,A,A*61
,$GNGSA,A,3,01,03,04,10,16,21,22,25,26,31,32,,1.4,0.8,1.2,1*3C
,$GNGSA,A,3,76,,,,,,,,,,,,1.4,0.8,1.2,2*3D
,$GPGSV,3,1,11,01,28,268,37,03,31,224,38,04,07,256,40,10,14,035,28,0*64
,$GPGSV,3,2,11,16,09,002,33,21,23,297,36,22,56,240,34,25,23,128,34,0*6B
,$GPGSV,3,3,11,26,32,017,34,31,85,200,39,32,37,102,41,,,,,0*55
,$GLGSV,2,1,08,65,22,067,31,66,64,144,37,67,29,217,42,75,18,149,,0*7A
,$GLGSV,2,2,08,76,71,112,39,77,45,348,14,82,09,258,37,83,07,214,30,0*75
,$GQGSV,1,1,04,01,58,248,,02,07,331,,03,08,324,,07,24,298,34,0*6D
,$GNRMC,000856.00,A,3653.7843,S,17454.4480,E,0.3,21.1,160621,,,A,V*1F
,$GNVTG,21.1,T,,M,0.3,N,0.6,K,A*24
,$GNZDA,000856.00,16,06,2021,,*73
,$PSGSA,4,01,03,04,10,16,21,22,25,26,31,32,,1.4,0.8,1.2,2407,00085600,00,,7,40,,2,B,4,0,0,1,16,0,0,0,2,0,-0.56,16,1*3E
,$PSGSA,4,76,,,,,,,,,,,,1.4,0.8,1.2,2407,00085600,00,,7,40,,2,B,4,0,0,1,16,0,0,0,2,0,-0.56,16,2*3F
,$GPGGA,000857.00,3653.7843,S,17454.4479,E,1,12,0.7,23.8,M,28.3,M,,*49
,$GNGLL,3653.7843,S,17454.4479,E,000857.00,A,A*66
,$GNGSA,A,3,01,03,04,10,16,21,22,25,26,31,32,,1.3,0.7,1.1,1*37
,$GNGSA,A,3,83,,,,,,,,,,,,1.3,0.7,1.1,2*3C
,$GPGSV,3,1,11,01,28,268,36,03,31,224,37,04,07,256,38,10,14,035,27,0*6A
,$GPGSV,3,2,11,16,09,002,32,21,23,297,38,22,56,240,34,25,23,128,35,0*65
,$GPGSV,3,3,11,26,32,017,32,31,85,200,39,32,37,102,40,,,,,0*52
,$GLGSV,2,1,08,65,22,067,32,66,64,144,39,67,29,217,42,75,18,149,,0*77
,$GLGSV,2,2,08,76,71,112,39,77,45,348,17,82,09,258,36,83,07,214,30,0*77
,$GQGSV,1,1,04,01,58,248,,02,07,331,,03,08,324,,07,24,298,34,0*6D
,$GNRMC,000857.00,A,3653.7843,S,17454.4479,E,0.3,21.1,160621,,,A,V*18
,$GNVTG,21.1,T,,M,0.3,N,0.6,K,A*24
,$GNZDA,000857.00,16,06,2021,,*72
