,$GPGGA,000800.00,3653.7853,S,17454.4483,E,1,12,0.9,16.1,M,28.3,M,,*4E
,$GNGLL,3653.7853,S,17454.4483,E,000800.00,A,A*60
,$GNGSA,A,3,01,03,04,10,21,22,25,31,,,,,1.4,0.9,1.2,1*3F
,$GNGSA,A,3,65,66,67,,,,,,,,,,1.4,0.9,1.2,2*3F
,$GNGSA,A,3,01,,,,,,,,,,,,1.4,0.9,1.2,5*3B
,$GPGSV,3,1,12,01,28,268,39,03,31,224,41,04,07,256,39,10,14,036,31,0*62
,$GPGSV,3,2,12,12,00,151,,16,08,002,,21,23,297,38,22,55,240,43,0*68
,$GPGSV,3,3,12,25,24,127,43,26,31,017,20,31,85,205,44,32,38,103,,0*66
,$GLGSV,2,1,08,65,22,068,33,66,64,146,37,67,29,217,46,75,19,149,,0*70
,$GLGSV,2,2,08,76,71,110,38,77,44,348,24,82,09,257,35,83,07,214,27,0*7F
,$GQGSV,1,1,04,01,58,248,41,02,07,331,,03,08,324,,07,24,298,33,0*6F
,$GNRMC,000800.00,A,3653.7853,S,17454.4483,E,0.0,251.7,160621,,,A,V*2E
,$GNVTG,251.7,T,,M,0.0,N,0.0,K,A*12
,$GNZDA,000800.00,16,06,2021,,*70
,$PSGSA,4,01,03,04,10,21,22,25,31,,,,,1.4,0.9,1.2,1642,00080000,00,,7,44,,2,B,4,0,0,2,13,0,0,0,3,0,-0.56,16,1*3D
,$PSGSA,4,65,66,67,,,,,,,,,,1.4,0.9,1.2,1642,00080000,00,,7,44,,2,B,4,0,0,2,13,0,0,0,3,0,-0.56,16,2*3D
,$PSGSA,4,01,,,,,,,,,,,,1.4,0.9,1.2,1642,00080000,00,,7,44,,2,B,4,0,0,2,13,0,0,0,3,0,-0.56,16,5*39
,$GPGGA,000801.00,3653.7853,S,17454.4483,E,1,12,0.8,16.1,M,28.3,M,,*4E
,$GNGLL,3653.7853,S,17454.4483,E,000801.00,A,A*61
,$GNGSA,A,3,01,03,04,10,21,22,25,26,31,,,,1.4,0.8,1.2,1*3A
,$GNGSA,A,3,65,66,,,,,,,,,,,1.4,0.8,1.2,2*3F
,$GNGSA,A,3,01,,,,,,,,,,,,1.4,0.8,1.2,5*3A
,$GPGSV,3,1,12,01,28,268,36,03,31,224,42,04,07,256,40,10,14,036,33,0*62
,$GPGSV,3,2,12,12,00,151,,16,08,002,,21,23,297,38,22,55,240,42,0*69
,$GPGSV,3,3,12,25,24,127,43,26,31,017,22,31,85,205,44,32,38,103,,0*64
,$GLGSV,2,1,08,65,22,068,33,66,64,145,37,67,29,217,47,75,19,149,,0*72
,$GLGSV,2,2,08,76,71,110,37,77,44,348,23,82,09,257,37,83,07,214,26,0*74
,$GQGSV,1,1,04,01,58,248,42,02,07,331,,03,08,324,,07,24,298,33,0*6C
,$GNRMC,000801.00,A,3653.7853,S,17454.4483,E,0.2,251.7,160621,,,A,V*2D
,$GNVTG,251.7,T,,M,0.2,N,0.3,K,A*13
,$GNZDA,000801.00,16,06,2021,,*71
,$PSGSA,4,01,03,04,10,21,22,25,26,31,,,,1.4,0.8,1.2,1643,00080100,00,,7,44,,2,B,4,0,0,1,13,0,0,0,4,0,-0.56,16,1*3C
,$PSGSA,4,65,66,,,,,,,,,,,1.4,0.8,1.2,1643,00080100,00,,7,44,,2,B,4,0,0,1,13,0,0,0,4,0,-0.56,16,2*39
,$PSGSA,4,01,,,,,,,,,,,,1.4,0.8,1.2,1643,00080100,00,,7,44,,2,B,4,0,0,1,13,0,0,0,4,0,-0.56,16,5*3C
,$GPGGA,000802.00,3653.7854,S,17454.4483,E,1,12,0.8,16.1,M,28.3,M,,*4A
,$GNGLL,3653.7854,S,17454.4483,E,000802.00,A,A*65
,$GNGSA,A,3,01,03,04,10,21,22,25,26,31,,,,1.4,0.8,1.2,1*3A
,$GNGSA,A,3,66,67,,,,,,,,,,,1.4,0.8,1.2,2*3D
,$GNGSA,A,3,01,,,,,,,,,,,,1.4,0.8,1.2,5*3A
,$GPGSV,3,1,12,01,28,268,37,03,31,224,43,04,07,256,40,10,14,036,32,0*63
,$GPGSV,3,2,12,12,00,151,,16,08,002,,21,23,297,39,22,55,240,42,0*68
,$GPGSV,3,3,12,25,24,128,42,26,31,017,25,31,85,205,44,32,38,103,,0*6D
,$GLGSV,2,1,08,65,22,068,33,66,64,145,37,67,29,217,46,75,19,149,,0*73
,$GLGSV,2,2,08,76,71,110,37,77,44,348,27,82,09,257,36,83,07,214,19,0*7D
,$GQGSV,1,1,04,01,58,248,42,02,07,331,,03,08,324,,07,24,298,33,0*6C
,$GNRMC,000802.00,A,3653.7854,S,17454.4483,E,0.0,251.7,160621,,,A,V*2B
,$GNVTG,251.7,T,,M,0.0,N,0.0,K,A*12
,$GNZDA,000802.00,16,06,2021,,*72
,$PSGSA,4,01,03,04,10,21,22,25,26,31,,,,1.4,0.8,1.2,1644,00080200,00,,7,43,,2,B,4,0,0,2,13,0,0,0,3,0,-0.56,16,1*3B
,$PSGSA,4,66,67,,,,,,,,,,,1.4,0.8,1.2,1644,00080200,00,,7,43,,2,B,4,0,0,2,13,0,0,0,3,0,-0.56,16,2*3C
,$PSGSA,4,01,,,,,,,,,,,,1.4,0.8,1.2,1644,00080200,00,,7,43,,2,B,4,0,0,2,13,0,0,0,3,0,-0.56,16,5*3B
,$GPGGA,000803.00,3653.7855,S,17454.4482,E,1,12,0.8,16.0,M,28.3,M,,*4A
,$GNGLL,3653.7855,S,17454.4482,E,000803.00,A,A*64
,$GNGSA,A,3,01,03,04,10,21,22,25,26,31,,,,1.4,0.8,1.2,1*3A
,$GNGSA,A,3,65,66,,,,,,,,,,,1.4,0.8,1.2,2*3F
,$GNGSA,A,3,01,,,,,,,,,,,,1.4,0.8,1.2,5*3A
,$GPGSV,3,1,12,01,28,268,34,03,31,224,42,04,07,256,40,10,14,036,33,0*60
,$GPGSV,3,2,12,12,00,151,,16,08,002,00,21,23,297,40,22,55,240,43,0*67
,$GPGSV,3,3,12,25,24,128,42,26,31,017,27,31,85,205,44,32,38,103,,0*6F
,$GLGSV,2,1,08,65,22,068,32,66,64,145,38,67,29,217,46,75,19,149,,0*7D
,$GLGSV,2,2,08,76,71,110,37,77,44,348,27,82,09,257,37,83,07,214,23,0*75
,$GQGSV,1,1,04,01,58,248,42,02,07,331,,03,08,324,,07,24,298,32,0*6D
,$GNRMC,000803.00,A,3653.7855,S,17454.4482,E,0.3,251.7,160621,,,A,V*29
,$GNVTG,251.7,T,,M,0.3,N,0.5,K,A*14
,$GNZDA,000803.00,16,06,2021,,*73
,$PSGSA,4,01,03,04,10,21,22,25,26,31,,,,1.4,0.8,1.2,1644,00080300,00,,7,43,,2,B,4,0,0,3,16,0,0,0,0,0,-0.56,16,1*3D
,$PSGSA,4,65,66,,,,,,,,,,,1.4,0.8,1.2,1644,00080300,00,,7,43,,2,B,4,0,0,3,16,0,0,0,0,0,-0.56,16,2*38
,$PSGSA,4,01,,,,,,,,,,,,1.4,0.8,1.2,1644,00080300,00,,7,43,,2,B,4,0,0,3,16,0,0,0,0,0,-0.56,16,5*3D
,$GPGGA,000804.00,3653.7856,S,17454.4481,E,1,12,0.8,16.2,M,28.3,M,,*4F
,$GNGLL,3653.7856,S,17454.4481,E,000804.00,A,A*63
,$GNGSA,A,3,01,03,04,10,21,22,25,26,31,,,,1.4,0.8,1.2,1*3A
,$GNGSA,A,3,65,66,,,,,,,,,,,1.4,0.8,1.2,2*3F
,$GNGSA,A,3,01,,,,,,,,,,,,1.4,0.8,1.2,5*3A
,$GPGSV,3,1,12,01,28,268,31,03,31,224,43,04,07,256,41,10,14,036,33,0*65
,$GPGSV,3,2,12,12,00,151,,16,08,002,17,21,23,297,41,22,55,240,43,0*60
,$GPGSV,3,3,12,25,24,128,43,26,31,017,28,31,85,205,44,32,38,103,,0*61
,$GLGSV,2,1,08,65,22,068,34,66,64,145,39,67,29,217,46,75,19,149,,0*7A
,$GLGSV,2,2,08,76,71,110,37,77,44,348,24,82,09,257,38,83,07,214,25,0*7F
,$GQGSV,1,1,04,01,58,248,43,02,07,331,,03,08,324,,07,24,298,31,0*6F
,$GNRMC,000804.00,A,3653.7856,S,17454.4481,E,0.3,251.7,160621,,,A,V*2E
,$GNVTG,251.7,T,,M,0.3,N,0.5,K,A*14
,$GNZDA,000804.00,16,06,2021,,*74
,$PSGSA,4,01,03,04,10,21,22,25,26,31,,,,1.4,0.8,1.2,1644,00080400,00,,7,44,,2,B,4,0,0,3,16,0,0,0,0,0,-0.56,16,1*3D
,$PSGSA,4,65,66,,,,,,,,,,,1.4,0.8,1.2,1644,00080400,00,,7,44,,2,B,4,0,0,3,16,0,0,0,0,0,-0.56,16,2*38
,$PSGSA,4,01,,,,,,,,,,,,1.4,0.8,1.2,1644,00080400,00,,7,44,,2,B,4,0,0,3,16,0,0,0,0,0,-0.56,16,5*3D
,$GPGGA,000805.00,3653.7857,S,17454.4481,E,1,12,0.8,16.4,M,28.3,M,,*49
,$GNGLL,3653.7857,S,17454.4481,E,000805.00,A,A*63
,$GNGSA,A,3,01,03,04,10,21,22,25,26,31,,,,1.4,0.8,1.2,1*3A
,$GNGSA,A,3,65,66,,,,,,,,,,,1.4,0.8,1.2,2*3F
,$GNGSA,A,3,01,,,,,,,,,,,,1.4,0.8,1.2,5*3A
,$GPGSV,3,1,12,01,28,268,31,03,31,224,43,04,07,256,41,10,14,036,32,0*64
,$GPGSV,3,2,12,12,00,151,,16,08,002,14,21,23,297,41,22,55,240,44,0*64
,$GPGSV,3,3,12,25,24,128,43,26,31,017,29,31,85,204,44,32,38,103,,0*61
,$GLGSV,2,1,08,65,22,068,34,66,64,145,40,67,29,217,46,75,19,149,,0*74
,$GLGSV,2,2,08,76,71,110,38,77,44,348,25,82,09,257,39,83,07,214,25,0*70
,$GQGSV,1,1,04,01,58,248,42,02,07,331,,03,08,324,,07,24,298,34,0*6B
,$GNRMC,000805.00,A,3653.7857,S,17454.4481,E,0.3,205.4,160621,,,A,V*2C
,$GNVTG,205.4,T,,M,0.3,N,0.6,K,A*15
,$GNZDA,000805.00,16,06,2021,,*75
,$PSGSA,4,01,03,04,10,21,22,25,26,31,,,,1.4,0.8,1.2,1644,00080500,00,,7,44,,2,B,4,0,0,3,16,0,0,0,0,0,-0.56,16,1*3C
,$PSGSA,4,65,66,,,,,,,,,,,1.4,0.8,1.2,1644,00080500,00,,7,44,,2,B,4,0,0,3,16,0,0,0,0,0,-0.56,16,2*39
,$PSGSA,4,01,,,,,,,,,,,,1.4,0.8,1.2,1644,00080500,00,,7,44,,2,B,4,0,0,3,16,0,0,0,0,0,-0.56,16,5*3C
,$GPGGA,000806.00,3653.7857,S,17454.4479,E,1,12,0.8,16.4,M,28.3,M,,*4D
,$GNGLL,3653.7857,S,17454.4479,E,000806.00,A,A*67
,$GNGSA,A,3,01,03,04,10,21,22,25,26,31,,,,1.4,0.8,1.2,1*3A
,$GNGSA,A,3,65,66,,,,,,,,,,,1.4,0.8,1.2,2*3F
,$GNGSA,A,3,01,,,,,,,,,,,,1.4,0.8,1.2,5*3A
,$GPGSV,3,1,12,01,28,268,31,03,31,224,43,04,07,256,41,10,14,036,32,0*64
,$GPGSV,3,2,12,12,00,151,,16,08,002,17,21,23,297,40,22,55,240,44,0*66
,$GPGSV,3,3,12,25,24,128,43,26,31,017,27,31,85,204,43,32,38,103,,0*68
,$GLGSV,2,1,08,65,22,068,35,66,64,145,40,67,29,217,46,75,19,149,,0*75
,$GLGSV,2,2,08,76,71,110,38,77,44,348,25,82,09,257,39,83,07,214,26,0*73
,$GQGSV,1,1,04,01,58,248,43,02,07,331,,03,08,324,,07,24,298,34,0*6A
,$GNRMC,000806.00,A,3653.7857,S,17454.4479,E,0.3,209.7,160621,,,A,V*27
,$GNVTG,209.7,T,,M,0.3,N,0.6,K,A*1A
,$GNZDA,000806.00,16,06,2021,,*76
,$PSGSA,4,01,03,04,10,21,22,25,26,31,,,,1.4,0.8,1.2,1644,00080600,00,,7,44,,2,B,4,0,0,3,16,0,0,0,0,0,-0.56,16,1*3F
,$PSGSA,4,65,66,,,,,,,,,,,1.4,0.8,1.2,1644,00080600,00,,7,44,,2,B,4,0,0,3,16,0,0,0,0,0,-0.56,16,2*3A
,$PSGSA,4,01,,,,,,,,,,,,1.4,0.8,1.2,1644,00080600,00,,7,44,,2,B,4,0,0,3,16,0,0,0,0,0,-0.56,16,5*3F
,$GPGGA,000807.00,3653.7858,S,17454.4478,E,1,12,0.8,16.4,M,28.3,M,,*42
,$GNGLL,3653.7858,S,17454.4478,E,000807.00,A,A*68
,$GNGSA,A,3,01,03,04,10,21,22,25,26,31,,,,1.4,0.8,1.2,1*3A
,$GNGSA,A,3,65,66,,,,,,,,,,,1.4,0.8,1.2,2*3F
,$GNGSA,A,3,01,,,,,,,,,,,,1.4,0.8,1.2,5*3A
,$GPGSV,3,1,12,01,28,268,30,03,31,224,43,04,07,256,40,10,14,036,32,0*64
,$GPGSV,3,2,12,12,00,151,,16,08,002,17,21,23,297,38,22,55,240,44,0*69
,$GPGSV,3,3,12,25,24,128,44,26,31,017,27,31,85,204,43,32,38,103,,0*6F
,$GLGSV,2,1,08,65,22,068,34,66,64,145,40,67,29,217,46,75,19,149,,0*74
,$GLGSV,2,2,08,76,71,110,38,77,44,348,25,82,09,257,38,83,07,214,25,0*71
,$GQGSV,1,1,04,01,58,248,44,02,07,331,,03,08,324,,07,24,298,34,0*6D
,$GNRMC,000807.00,A,3653.7858,S,17454.4478,E,0.3,195.3,160621,,,A,V*2A
,$GNVTG,195.3,T,,M,0.3,N,0.6,K,A*18
,$GNZDA,000807.00,16,06,2021,,*77
,$PSGSA,4,01,03,04,10,21,22,25,26,31,,,,1.4,0.8,1.2,1644,00080700,00,,7,44,,2,B,4,0,0,3,16,0,0,0,0,0,-0.56,16,1*3E
,$PSGSA,4,65,66,,,,,,,,,,,1.4,0.8,1.2,1644,00080700,00,,7,44,,2,B,4,0,0,3,16,0,0,0,0,0,-0.56,16,2*3B
,$PSGSA,4,01,,,,,,,,,,,,1.4,0.8,1.2,1644,00080700,00,,7,44,,2,B,4,0,0,3,16,0,0,0,0,0,-0.56,16,5*3E
,$GPGGA,000808.00,3653.7859,S,17454.4477,E,1,12,0.8,16.5,M,28.3,M,,*42
,$GNGLL,3653.7859,S,17454.4477,E,000808.00,A,A*69
,$GNGSA,A,3,01,03,04,10,21,22,25,26,31,,,,1.4,0.8,1.2,1*3A
,$GNGSA,A,3,65,66,,,,,,,,,,,1.4,0.8,1.2,2*3F
,$GNGSA,A,3,01,,,,,,,,,,,,1.4,0.8,1.2,5*3A
,$GPGSV,3,1,12,01,28,268,30,03,31,224,42,04,07,256,40,10,14,036,31,0*66
,$GPGSV,3,2,12,12,00,151,,16,08,002,18,21,23,297,39,22,55,240,44,0*67
,$GPGSV,3,3,12,25,24,128,45,26,31,017,27,31,85,204,43,32,38,103,,0*6E
,$GLGSV,2,1,08,65,22,068,35,66,64,145,39,67,29,217,46,75,19,149,,0*7B
,$GLGSV,2,2,08,76,71,110,36,77,44,348,24,82,09,257,38,83,07,214,24,0*7F
,$GQGSV,1,1,04,01,58,248,44,02,07,331,,03,08,324,,07,24,298,33,0*6A
,$GNRMC,000808.00,A,3653.7859,S,17454.4477,E,0.4,199.6,160621,,,A,V*25
,$GNVTG,199.6,T,,M,0.4,N,0.7,K,A*17
,$GNZDA,000808.00,16,06,2021,,*78
,$PSGSA,4,01,03,04,10,21,22,25,26,31,,,,1.4,0.8,1.2,1644,00080800,00,,7,44,,2,B,4,0,0,3,16,0,0,0,0,0,-0.56,16,1*31
,$PSGSA,4,65,66,,,,,,,,,,,1.4,0.8,1.2,1644,00080800,00,,7,44,,2,B,4,0,0,3,16,0,0,0,0,0,-0.56,16,2*34
,$PSGSA,4,01,,,,,,,,,,,,1.4,0.8,1.2,1644,00080800,00,,7,44,,2,B,4,0,0,3,16,0,0,0,0,0,-0.56,16,5*31
,$GPGGA,000809.00,3653.7861,S,17454.4475,E,1,12,0.8,16.7,M,28.3,M,,*48
,$GNGLL,3653.7861,S,17454.4475,E,000809.00,A,A*61
,$GNGSA,A,3,01,03,04,10,21,22,25,26,31,,,,1.4,0.8,1.2,1*3A
,$GNGSA,A,3,65,66,,,,,,,,,,,1.4,0.8,1.2,2*3F
,$GNGSA,A,3,01,,,,,,,,,,,,1.4,0.8,1.2,5*3A
,$GPGSV,3,1,12,01,28,268,27,03,31,224,43,04,07,256,40,10,14,036,31,0*61
,$GPGSV,3,2,12,12,00,151,,16,08,002,18,21,23,297,39,22,55,240,44,0*67
,$GPGSV,3,3,12,25,24,128,44,26,31,017,27,31,85,204,43,32,38,103,,0*6F
,$GLGSV,2,1,08,65,22,068,34,66,64,145,39,67,29,217,46,75,19,149,,0*7A
,$GLGSV,2,2,08,76,71,110,37,77,44,348,25,82,09,257,38,83,07,214,27,0*7C
,$GQGSV,1,1,04,01,58,248,44,02,07,331,,03,08,324,,07,24,298,33,0*6A
,$GNRMC,000809.00,A,3653.7861,S,17454.4475,E,0.4,199.7,160621,,,A,V*2C
,$GNVTG,199.7,T,,M,0.4,N,0.7,K,A*16
,$GNZDA,000809.00,16,06,2021,,*79
,$PSGSA,4,01,03,04,10,21,22,25,26,31,,,,1.4,0.8,1.2,1644,00080900,00,,7,44,,2,B,4,0,0,3,16,0,0,0,0,0,-0.56,16,1*30
,$PSGSA,4,65,66,,,,,,,,,,,1.4,0.8,1.2,1644,00080900,00,,7,44,,2,B,4,0,0,3,16,0,0,0,0,0,-0.56,16,2*35
,$PSGSA,4,01,,,,,,,,,,,,1.4,0.8,1.2,1644,00080900,00,,7,44,,2,B,4,0,0,3,16,0,0,0,0,0,-0.56,16,5*30
,$GPGGA,000810.00,3653.7863,S,17454.4474,E,1,12,0.8,16.8,M,28.3,M,,*4C
,$GNGLL,3653.7863,S,17454.4474,E,000810.00,A,A*6A
,$GNGSA,A,3,01,03,04,10,21,22,25,26,31,,,,1.4,0.8,1.2,1*3A
,$GNGSA,A,3,65,66,,,,,,,,,,,1.4,0.8,1.2,2*3F
,$GNGSA,A,3,01,,,,,,,,,,,,1.4,0.8,1.2,5*3A
,$GPGSV,3,1,12,01,28,268,30,03,31,224,42,04,07,256,40,10,14,036,31,0*66
,$GPGSV,3,2,12,12,00,151,,16,08,002,23,21,23,297,39,22,55,240,43,0*68
,$GPGSV,3,3,12,25,24,128,44,26,31,017,29,31,85,204,43,32,38,103,,0*61
,$GLGSV,2,1,08,65,22,068,35,66,64,145,39,67,29,217,46,75,19,149,,0*7B
,$GLGSV,2,2,08,76,71,110,37,77,44,348,25,82,09,257,39,83,07,214,25,0*7F
,$GQGSV,1,1,04,01,58,248,43,02,07,331,,03,08,324,,07,24,298,33,0*6D
,$GNRMC,000810.00,A,3653.7863,S,17454.4474,E,0.4,206.0,160621,,,A,V*25
,$GNVTG,206.0,T,,M,0.4,N,0.8,K,A*1B
,$GNZDA,000810.00,16,06,2021,,*71
,$PSGSA,4,01,03,04,10,21,22,25,26,31,,,,1.4,0.8,1.2,1645,00081000,00,,7,44,,2,B,4,0,0,3,16,0,0,0,0,0,-0.56,16,1*39
,$PSGSA,4,65,66,,,,,,,,,,,1.4,0.8,1.2,1645,00081000,00,,7,44,,2,B,4,0,0,3,16,0,0,0,0,0,-0.56,16,2*3C
,$PSGSA,4,01,,,,,,,,,,,,1.4,0.8,1.2,1645,00081000,00,,7,44,,2,B,4,0,0,3,16,0,0,0,0,0,-0.56,16,5*39
,$GPGGA,000811.00,3653.7863,S,17454.4473,E,1,12,0.8,16.8,M,28.3,M,,*4A
,$GNGLL,3653.7863,S,17454.4473,E,000811.00,A,A*6C
,$GNGSA,A,3,01,03,04,10,21,22,25,26,31,,,,1.4,0.8,1.2,1*3A
,$GNGSA,A,3,65,66,,,,,,,,,,,1.4,0.8,1.2,2*3F
,$GNGSA,A,3,01,,,,,,,,,,,,1.4,0.8,1.2,5*3A
,$GPGSV,3,1,12,01,28,268,31,03,31,224,42,04,07,256,40,10,14,036,31,0*67
,$GPGSV,3,2,12,12,00,151,,16,08,002,21,21,23,297,40,22,55,240,44,0*63
,$GPGSV,3,3,12,25,24,128,43,26,31,017,27,31,85,204,43,32,38,103,,0*68
,$GLGSV,2,1,08,65,22,068,35,66,64,145,39,67,29,217,45,75,19,149,,0*78
,$GLGSV,2,2,08,76,71,110,38,77,44,348,25,82,09,257,39,83,07,214,23,0*76
,$GQGSV,1,1,04,01,58,248,44,02,07,331,,03,08,324,,07,24,298,34,0*6D
,$GNRMC,000811.00,A,3653.7863,S,17454.4473,E,0.4,208.0,160621,,,A,V*2D
,$GNVTG,208.0,T,,M,0.4,N,0.8,K,A*15
,$GNZDA,000811.00,16,06,2021,,*70
,$PSGSA,4,01,03,04,10,21,22,25,26,31,,,,1.4,0.8,1.2,1646,00081100,00,,7,44,,2,B,4,0,0,3,16,0,0,0,0,0,-0.56,16,1*3B
,$PSGSA,4,65,66,,,,,,,,,,,1.4,0.8,1.2,1646,00081100,00,,7,44,,2,B,4,0,0,3,16,0,0,0,0,0,-0.56,16,2*3E
,$PSGSA,4,01,,,,,,,,,,,,1.4,0.8,1.2,1646,00081100,00,,7,44,,2,B,4,0,0,3,16,0,0,0,0,0,-0.56,16,5*3B
,$GPGGA,000812.00,3653.7865,S,17454.4473,E,1,12,0.8,16.8,M,28.3,M,,*4F
,$GNGLL,3653.7865,S,17454.4473,E,000812.00,A,A*69
,$GNGSA,A,3,01,03,04,10,21,22,25,26,31,,,,1.4,0.8,1.2,1*3A
,$GNGSA,A,3,65,66,,,,,,,,,,,1.4,0.8,1.2,2*3F
,$GNGSA,A,3,01,,,,,,,,,,,,1.4,0.8,1.2,5*3A
,$GPGSV,3,1,12,01,28,268,32,03,31,224,42,04,07,256,40,10,14,036,30,0*65
,$GPGSV,3,2,12,12,00,151,,16,08,002,19,21,23,297,39,22,55,240,43,0*61
,$GPGSV,3,3,12,25,24,128,43,26,31,017,25,31,85,204,43,32,38,103,,0*6A
,$GLGSV,2,1,08,65,22,068,35,66,64,145,39,67,29,217,45,75,19,149,,0*78
,$GLGSV,2,2,08,76,71,110,38,77,44,348,21,82,09,257,39,83,07,214,26,0*77
,$GQGSV,1,1,04,01,58,248,44,02,07,331,,03,08,324,,07,24,298,34,0*6D
,$GNRMC,000812.00,A,3653.7865,S,17454.4473,E,0.5,202.5,160621,,,A,V*26
,$GNVTG,202.5,T,,M,0.5,N,0.9,K,A*1A
,$GNZDA,000812.00,16,06,2021,,*73
,$PSGSA,4,01,03,04,10,21,22,25,26,31,,,,1.4,0.8,1.2,1646,00081200,00,,7,43,,2,B,4,0,0,3,16,0,0,0,0,0,-0.56,16,1*3F
,$PSGSA,4,65,66,,,,,,,,,,,1.4,0.8,1.2,1646,00081200,00,,7,43,,2,B,4,0,0,3,16,0,0,0,0,0,-0.56,16,2*3A
,$PSGSA,4,01,,,,,,,,,,,,1.4,0.8,1.2,1646,00081200,00,,7,43,,2,B,4,0,0,3,16,0,0,0,0,0,-0.56,16,5*3F
,$GPGGA,000813.00,3653.7866,S,17454.4472,E,1,12,0.8,16.7,M,28.3,M,,*43
,$GNGLL,3653.7866,S,17454.4472,E,000813.00,A,A*6A
,$GNGSA,A,3,01,03,04,10,21,22,25,26,31,,,,1.4,0.8,1.2,1*3A
,$GNGSA,A,3,65,66,,,,,,,,,,,1.4,0.8,1.2,2*3F
,$GNGSA,A,3,01,,,,,,,,,,,,1.4,0.8,1.2,5*3A
,$GPGSV,3,1,11,01,28,268,33,03,31,224,43,04,07,256,39,10,14,036,30,0*68
,$GPGSV,3,2,11,16,08,002,20,21,23,297,41,22,55,240,43,25,24,128,42,0*6D
,$GPGSV,3,3,11,26,31,017,28,31,85,204,43,32,38,103,,,,,,0*59
,$GLGSV,2,1,08,65,22,068,35,66,64,145,39,67,29,217,46,75,19,149,,0*7B
,$GLGSV,2,2,08,76,71,110,37,77,44,348,23,82,09,257,39,83,07,214,27,0*7B
,$GQGSV,1,1,04,01,58,248,43,02,07,331,,03,08,324,,07,24,298,33,0*6D
,$GNRMC,000813.00,A,3653.7866,S,17454.4472,E,0.5,201.1,160621,,,A,V*22
,$GNVTG,201.1,T,,M,0.5,N,0.9,K,A*1D
,$GNZDA,000813.00,16,06,2021,,*72
,$PSGSA,4,01,03,04,10,21,22,25,26,31,,,,1.4,0.8,1.2,1645,00081300,00,,7,43,,2,B,4,0,0,3,16,0,0,0,0,0,-0.56,16,1*3D
,$PSGSA,4,65,66,,,,,,,,,,,1.4,0.8,1.2,1645,00081300,00,,7,43,,2,B,4,0,0,3,16,0,0,0,0,0,-0.56,16,2*38
,$PSGSA,4,01,,,,,,,,,,,,1.4,0.8,1.2,1645,00081300,00,,7,43,,2,B,4,0,0,3,16,0,0,0,0,0,-0.56,16,5*3D
,$GPGGA,000814.00,3653.7868,S,17454.4471,E,1,12,0.8,16.7,M,28.3,M,,*49
,$GNGLL,3653.7868,S,17454.4471,E,000814.00,A,A*60
,$GNGSA,A,3,01,03,04,10,21,22,25,26,31,,,,1.4,0.8,1.2,1*3A
,$GNGSA,A,3,65,66,,,,,,,,,,,1.4,0.8,1.2,2*3F
,$GNGSA,A,3,01,,,,,,,,,,,,1.4,0.8,1.2,5*3A
,$GPGSV,3,1,11,01,28,268,34,03,31,224,43,04,07,256,40,10,14,036,30,0*61
,$GPGSV,3,2,11,16,08,002,19,21,23,297,41,22,55,240,44,25,24,128,43,0*61
,$GPGSV,3,3,11,26,31,017,28,31,85,204,44,32,38,103,,,,,,0*5E
,$GLGSV,2,1,08,65,22,068,37,66,64,145,39,67,29,217,46,75,19,149,,0*79
,$GLGSV,2,2,08,76,71,110,37,77,44,348,25,82,09,257,40,83,07,214,27,0*73
,$GQGSV,1,1,04,01,58,248,42,02,07,331,,03,08,324,,07,24,298,34,0*6B
,$GNRMC,000814.00,A,3653.7868,S,17454.4471,E,0.5,206.9,160621,,,A,V*27
,$GNVTG,206.9,T,,M,0.5,N,1.0,K,A*1A
,$GNZDA,000814.00,16,06,2021,,*75
,$PSGSA,4,01,03,04,10,21,22,25,26,31,,,,1.4,0.8,1.2,1645,00081400,00,,7,44,,2,B,4,0,0,3,16,0,0,0,0,0,-0.56,16,1*3D
,$PSGSA,4,65,66,,,,,,,,,,,1.4,0.8,1.2,1645,00081400,00,,7,44,,2,B,4,0,0,3,16,0,0,0,0,0,-0.56,16,2*38
,$PSGSA,4,01,,,,,,,,,,,,1.4,0.8,1.2,1645,00081400,00,,7,44,,2,B,4,0,0,3,16,0,0,0,0,0,-0.56,16,5*3D
,$GPGGA,000815.00,3653.7869,S,17454.4470,E,1,12,0.8,16.8,M,28.3,M,,*47
,$GNGLL,3653.7869,S,17454.4470,E,000815.00,A,A*61
,$GNGSA,A,3,01,03,04,10,21,22,25,26,31,,,,1.4,0.8,1.2,1*3A
,$GNGSA,A,3,65,66,,,,,,,,,,,1.4,0.8,1.2,2*3F
,$GNGSA,A,3,01,,,,,,,,,,,,1.4,0.8,1.2,5*3A
,$GPGSV,3,1,11,01,28,268,37,03,31,224,43,04,07,256,39,10,14,036,30,0*6C
,$GPGSV,3,2,11,16,08,002,22,21,23,297,40,22,55,240,43,25,24,128,42,0*6E
,$GPGSV,3,3,11,26,31,017,25,31,85,204,44,32,38,103,,,,,,0*53
,$GLGSV,2,1,08,65,22,068,37,66,64,145,38,67,29,217,46,75,19,149,,0*78
,$GLGSV,2,2,08,76,71,110,37,77,44,348,25,82,09,257,39,83,07,214,21,0*7B
,$GQGSV,1,1,04,01,58,248,42,02,07,331,,03,08,324,,07,24,298,34,0*6B
,$GNRMC,000815.00,A,3653.7869,S,17454.4470,E,0.5,206.7,160621,,,A,V*28
,$GNVTG,206.7,T,,M,0.5,N,1.0,K,A*14
,$GNZDA,000815.00,16,06,2021,,*74
,$PSGSA,4,01,03,04,10,21,22,25,26,31,,,,1.4,0.8,1.2,1645,00081500,00,,7,44,,2,B,4,0,0,3,16,0,0,0,0,0,-0.56,16,1*3C
,$PSGSA,4,65,66,,,,,,,,,,,1.4,0.8,1.2,1645,00081500,00,,7,44,,2,B,4,0,0,3,16,0,0,0,0,0,-0.56,16,2*39
,$PSGSA,4,01,,,,,,,,,,,,1.4,0.8,1.2,1645,00081500,00,,7,44,,2,B,4,0,0,3,16,0,0,0,0,0,-0.56,16,5*3C
,$GPGGA,000816.00,3653.7870,S,17454.4468,E,1,12,0.8,16.9,M,28.3,M,,*44
,$GNGLL,3653.7870,S,17454.4468,E,000816.00,A,A*63
,$GNGSA,A,3,01,03,04,10,21,22,25,26,31,,,,1.4,0.8,1.2,1*3A
,$GNGSA,A,3,65,66,,,,,,,,,,,1.4,0.8,1.2,2*3F
,$GNGSA,A,3,01,,,,,,,,,,,,1.4,0.8,1.2,5*3A
,$GPGSV,3,1,11,01,28,268,35,03,31,224,42,04,07,256,39,10,14,036,31,0*6E
,$GPGSV,3,2,11,16,08,002,21,21,23,297,41,22,55,240,43,25,24,128,43,0*6D
,$GPGSV,3,3,11,26,31,017,26,31,85,204,44,32,38,103,,,,,,0*50
,$GLGSV,2,1,08,65,22,068,36,66,64,145,38,67,29,217,45,75,19,149,,0*7A
,$GLGSV,2,2,08,76,71,110,38,77,44,348,25,82,09,258,39,83,07,214,27,0*7D
,$GQGSV,1,1,04,01,58,248,42,02,07,331,,03,08,324,,07,24,298,34,0*6B
,$GNRMC,000816.00,A,3653.7870,S,17454.4468,E,0.5,202.2,160621,,,A,V*2B
,$GNVTG,202.2,T,,M,0.5,N,1.0,K,A*15
,$GNZDA,000816.00,16,06,2021,,*77
,$PSGSA,4,01,03,04,10,21,22,25,26,31,,,,1.4,0.8,1.2,1645,00081600,00,,7,43,,2,B,4,0,0,3,16,0,0,0,0,0,-0.56,16,1*38
,$PSGSA,4,65,66,,,,,,,,,,,1.4,0.8,1.2,1645,00081600,00,,7,43,,2,B,4,0,0,3,16,0,0,0,0,0,-0.56,16,2*3D
,$PSGSA,4,01,,,,,,,,,,,,1.4,0.8,1.2,1645,00081600,00,,7,43,,2,B,4,0,0,3,16,0,0,0,0,0,-0.56,16,5*38
,$GPGGA,000817.00,3653.7871,S,17454.4467,E,1,12,0.8,17.0,M,28.3,M,,*43
,$GNGLL,3653.7871,S,17454.4467,E,000817.00,A,A*6C
,$GNGSA,A,3,01,03,04,10,21,22,25,26,31,,,,1.4,0.8,1.2,1*3A
,$GNGSA,A,3,65,66,,,,,,,,,,,1.4,0.8,1.2,2*3F
,$GNGSA,A,3,01,,,,,,,,,,,,1.4,0.8,1.2,5*3A
,$GPGSV,3,1,11,01,28,268,35,03,31,224,42,04,07,256,40,10,14,036,30,0*61
,$GPGSV,3,2,11,16,08,002,21,21,23,297,40,22,55,240,43,25,24,128,43,0*6C
,$GPGSV,3,3,11,26,31,017,26,31,85,204,44,32,38,103,,,,,,0*50
,$GLGSV,2,1,08,65,22,068,35,66,64,145,38,67,29,217,45,75,19,149,,0*79
,$GLGSV,2,2,08,76,71,110,38,77,44,348,24,82,09,258,38,83,07,214,27,0*7D
,$GQGSV,1,1,04,01,58,248,43,02,07,331,,03,08,324,,07,24,298,33,0*6D
,$GNRMC,000817.00,A,3653.7871,S,17454.4467,E,0.5,196.5,160621,,,A,V*2D
,$GNVTG,196.5,T,,M,0.5,N,1.0,K,A*1C
,$GNZDA,000817.00,16,06,2021,,*76
,$PSGSA,4,01,03,04,10,21,22,25,26,31,,,,1.4,0.8,1.2,1645,00081700,00,,7,43,,2,B,4,0,0,3,16,0,0,0,0,0,-0.56,16,1*39
,$PSGSA,4,65,66,,,,,,,,,,,1.4,0.8,1.2,1645,00081700,00,,7,43,,2,B,4,0,0,3,16,0,0,0,0,0,-0.56,16,2*3C
,$PSGSA,4,01,,,,,,,,,,,,1.4,0.8,1.2,1645,00081700,00,,7,43,,2,B,4,0,0,3,16,0,0,0,0,0,-0.56,16,5*39
,$GPGGA,000818.00,3653.7872,S,17454.4466,E,1,12,0.8,17.0,M,28.3,M,,*4E
,$GNGLL,3653.7872,S,17454.4466,E,000818.00,A,A*61
,$GNGSA,A,3,01,03,04,10,21,22,25,26,31,,,,1.4,0.8,1.2,1*3A
,$GNGSA,A,3,65,66,,,,,,,,,,,1.4,0.8,1.2,2*3F
,$GNGSA,A,3,01,,,,,,,,,,,,1.4,0.8,1.2,5*3A
,$GPGSV,3,1,11,01,28,268,35,03,31,224,41,04,07,256,40,10,14,036,31,0*63
,$GPGSV,3,2,11,16,08,002,22,21,23,297,40,22,55,240,43,25,24,128,44,0*68
,$GPGSV,3,3,11,26,31,017,28,31,85,203,44,32,38,103,,,,,,0*59
,$GLGSV,2,1,08,65,22,068,35,66,64,145,38,67,29,217,45,75,19,149,,0*79
,$GLGSV,2,2,08,76,71,110,39,77,44,348,25,82,09,258,39,83,07,214,31,0*7B
,$GQGSV,1,1,04,01,58,248,43,02,07,331,,03,08,324,,07,24,298,34,0*6A
,$GNRMC,000818.00,A,3653.7872,S,17454.4466,E,0.5,199.7,160621,,,A,V*2D
,$GNVTG,199.7,T,,M,0.5,N,1.0,K,A*11
,$GNZDA,000818.00,16,06,2021,,*79
,$PSGSA,4,01,03,04,10,21,22,25,26,31,,,,1.4,0.8,1.2,1645,00081800,00,,7,44,,2,B,4,0,0,3,16,0,0,0,0,0,-0.56,16,1*31
,$PSGSA,4,65,66,,,,,,,,,,,1.4,0.8,1.2,1645,00081800,00,,7,44,,2,B,4,0,0,3,16,0,0,0,0,0,-0.56,16,2*34
,$PSGSA,4,01,,,,,,,,,,,,1.4,0.8,1.2,1645,00081800,00,,7,44,,2,B,4,0,0,3,16,0,0,0,0,0,-0.56,16,5*31
,$GPGGA,000819.00,3653.7873,S,17454.4465,E,1,12,0.8,17.1,M,28.3,M,,*4C
,$GNGLL,3653.7873,S,17454.4465,E,000819.00,A,A*62
,$GNGSA,A,3,01,03,04,10,21,22,25,26,31,,,,1.4,0.8,1.2,1*3A
,$GNGSA,A,3,65,66,,,,,,,,,,,1.4,0.8,1.2,2*3F
,$GNGSA,A,3,01,,,,,,,,,,,,1.4,0.8,1.2,5*3A
,$GPGSV,3,1,11,01,28,268,35,03,31,224,43,04,07,256,40,10,14,036,32,0*62
,$GPGSV,3,2,11,16,08,002,22,21,23,297,40,22,55,240,42,25,24,128,43,0*6E
,$GPGSV,3,3,11,26,31,017,26,31,85,203,44,32,38,103,,,,,,0*57
,$GLGSV,2,1,08,65,22,068,36,66,64,145,39,67,29,217,46,75,19,149,,0*78
,$GLGSV,2,2,08,76,71,110,39,77,44,348,25,82,09,258,41,83,07,214,29,0*7D
,$GQGSV,1,1,04,01,58,248,43,02,07,331,,03,08,324,,07,24,298,33,0*6D
,$GNRMC,000819.00,A,3653.7873,S,17454.4465,E,0.5,209.0,160621,,,A,V*23
,$GNVTG,209.0,T,,M,0.5,N,1.0,K,A*1C
,$GNZDA,000819.00,16,06,2021,,*78
,$PSGSA,4,01,03,04,10,21,22,25,26,31,,,,1.4,0.8,1.2,1646,00081900,00,,7,44,,2,B,4,0,0,3,16,0,0,0,0,0,-0.56,16,1*33
,$PSGSA,4,65,66,,,,,,,,,,,1.4,0.8,1.2,1646,00081900,00,,7,44,,2,B,4,0,0,3,16,0,0,0,0,0,-0.56,16,2*36
,$PSGSA,4,01,,,,,,,,,,,,1.4,0.8,1.2,1646,00081900,00,,7,44,,2,B,4,0,0,3,16,0,0,0,0,0,-0.56,16,5*33
,$GPGGA,000820.00,3653.7873,S,17454.4464,E,1,12,0.8,17.1,M,28.3,M,,*47
,$GNGLL,3653.7873,S,17454.4464,E,000820.00,A,A*69
,$GNGSA,A,3,01,03,04,10,21,22,25,26,31,,,,1.4,0.8,1.2,1*3A
,$GNGSA,A,3,65,66,,,,,,,,,,,1.4,0.8,1.2,2*3F
,$GNGSA,A,3,01,,,,,,,,,,,,1.4,0.8,1.2,5*3A
,$GPGSV,3,1,11,01,28,268,35,03,31,224,44,04,07,256,40,10,14,036,32,0*65
,$GPGSV,3,2,11,16,08,002,17,21,23,297,40,22,55,240,43,25,24,128,42,0*68
,$GPGSV,3,3,11,26,31,017,23,31,85,203,44,32,38,103,,,,,,0*52
,$GLGSV,2,1,08,65,22,068,37,66,64,145,40,67,29,217,46,75,19,149,,0*77
,$GLGSV,2,2,08,76,71,110,38,77,44,348,25,82,09,258,40,83,07,214,24,0*70
,$GQGSV,1,1,04,01,58,248,42,02,07,331,,03,08,324,,07,24,298,34,0*6B
,$GNRMC,000820.00,A,3653.7873,S,17454.4464,E,0.0,209.0,160621,,,A,V*2D
,$GNVTG,209.0,T,,M,0.0,N,0.0,K,A*18
,$GNZDA,000820.00,16,06,2021,,*72
,$PSGSA,4,01,03,04,10,21,22,25,26,31,,,,1.4,0.8,1.2,1647,00082000,00,,7,44,,2,B,4,0,0,3,16,0,0,0,0,0,-0.56,16,1*38
,$PSGSA,4,65,66,,,,,,,,,,,1.4,0.8,1.2,1647,00082000,00,,7,44,,2,B,4,0,0,3,16,0,0,0,0,0,-0.56,16,2*3D
,$PSGSA,4,01,,,,,,,,,,,,1.4,0.8,1.2,1647,00082000,00,,7,44,,2,B,4,0,0,3,16,0,0,0,0,0,-0.56,16,5*38
,$GPGGA,000821.00,3653.7873,S,17454.4464,E,1,12,0.8,17.1,M,28.3,M,,*46
,$GNGLL,3653.7873,S,17454.4464,E,000821.00,A,A*68
,$GNGSA,A,3,01,03,04,10,21,22,25,26,31,,,,1.4,0.8,1.2,1*3A
,$GNGSA,A,3,65,66,,,,,,,,,,,1.4,0.8,1.2,2*3F
,$GNGSA,A,3,01,,,,,,,,,,,,1.4,0.8,1.2,5*3A
,$GPGSV,3,1,11,01,28,268,37,03,31,224,42,04,07,256,39,10,14,036,32,0*6F
,$GPGSV,3,2,11,16,08,002,23,21,23,297,40,22,55,240,43,25,24,128,42,0*6F
,$GPGSV,3,3,11,26,31,017,26,31,85,203,44,32,38,103,,,,,,0*57
,$GLGSV,2,1,08,65,22,068,37,66,64,145,40,67,29,217,46,75,19,149,,0*77
,$GLGSV,2,2,08,76,71,110,38,77,44,348,26,82,09,258,41,83,07,214,27,0*71
,$GQGSV,1,1,04,01,58,248,43,02,07,331,,03,08,324,,07,24,298,34,0*6A
,$GNRMC,000821.00,A,3653.7873,S,17454.4464,E,0.0,209.0,160621,,,A,V*2C
,$GNVTG,209.0,T,,M,0.0,N,0.0,K,A*18
,$GNZDA,000821.00,16,06,2021,,*73
,$PSGSA,4,01,03,04,10,21,22,25,26,31,,,,1.4,0.8,1.2,1646,00082100,00,,7,44,,2,B,4,0,0,3,16,0,0,0,0,0,-0.56,16,1*38
,$PSGSA,4,65,66,,,,,,,,,,,1.4,0.8,1.2,1646,00082100,00,,7,44,,2,B,4,0,0,3,16,0,0,0,0,0,-0.56,16,2*3D
,$PSGSA,4,01,,,,,,,,,,,,1.4,0.8,1.2,1646,00082100,00,,7,44,,2,B,4,0,0,3,16,0,0,0,0,0,-0.56,16,5*38
,$GPGGA,000822.00,3653.7873,S,17454.4463,E,1,12,0.8,17.0,M,28.3,M,,*43
,$GNGLL,3653.7873,S,17454.4463,E,000822.00,A,A*6C
,$GNGSA,A,3,01,03,04,10,21,22,25,26,31,,,,1.4,0.8,1.2,1*3A
,$GNGSA,A,3,65,66,,,,,,,,,,,1.4,0.8,1.2,2*3F
,$GNGSA,A,3,01,,,,,,,,,,,,1.4,0.8,1.2,5*3A
,$GPGSV,3,1,11,01,28,268,34,03,31,224,41,04,07,256,40,10,14,036,30,0*63
,$GPGSV,3,2,11,16,08,002,22,21,23,297,40,22,56,240,44,25,24,128,44,0*6C
,$GPGSV,3,3,11,26,32,017,27,31,85,203,43,32,37,103,,,,,,0*5D
,$GLGSV,2,1,08,65,22,068,35,66,64,145,39,67,29,217,45,75,19,149,,0*78
,$GLGSV,2,2,08,76,71,110,38,77,44,348,24,82,09,258,40,83,07,214,28,0*7D
,$GQGSV,1,1,04,01,58,248,44,02,07,331,,03,08,324,,07,24,298,34,0*6D
,$GNRMC,000822.00,A,3653.7873,S,17454.4463,E,0.0,209.0,160621,,,A,V*28
,$GNVTG,209.0,T,,M,0.0,N,0.0,K,A*18
,$GNZDA,000822.00,16,06,2021,,*70
,$PSGSA,4,01,03,04,10,21,22,25,26,31,,,,1.4,0.8,1.2,1646,00082200,00,,7,44,,2,B,4,0,0,3,16,0,0,0,0,0,-0.56,16,1*3B
,$PSGSA,4,65,66,,,,,,,,,,,1.4,0.8,1.2,1646,00082200,00,,7,44,,2,B,4,0,0,3,16,0,0,0,0,0,-0.56,16,2*3E
,$PSGSA,4,01,,,,,,,,,,,,1.4,0.8,1.2,1646,00082200,00,,7,44,,2,B,4,0,0,3,16,0,0,0,0,0,-0.56,16,5*3B
,$GPGGA,000823.00,3653.7872,S,17454.4463,E,1,12,0.8,17.0,M,28.3,M,,*43
,$GNGLL,3653.7872,S,17454.4463,E,000823.00,A,A*6C
,$GNGSA,A,3,01,03,04,10,21,22,25,26,31,,,,1.4,0.8,1.2,1*3A
,$GNGSA,A,3,65,66,,,,,,,,,,,1.4,0.8,1.2,2*3F
,$GNGSA,A,3,01,,,,,,,,,,,,1.4,0.8,1.2,5*3A
,$GPGSV,3,1,11,01,28,268,35,03,31,224,41,04,07,256,40,10,14,035,30,0*61
,$GPGSV,3,2,11,16,08,002,20,21,23,297,41,22,56,240,44,25,24,128,44,0*6F
,$GPGSV,3,3,11,26,32,017,29,31,85,203,44,32,37,103,,,,,,0*54
,$GLGSV,2,1,08,65,22,068,36,66,64,145,39,67,29,217,44,75,19,149,,0*7A
,$GLGSV,2,2,08,76,71,111,39,77,44,348,22,82,09,258,39,83,07,214,29,0*74
,$GQGSV,1,1,04,01,58,248,43,02,07,331,,03,08,324,,07,24,298,35,0*6B
,$GNRMC,000823.00,A,3653.7872,S,17454.4463,E,0.4,209.0,160621,,,A,V*2C
,$GNVTG,209.0,T,,M,0.4,N,0.8,K,A*14
,$GNZDA,000823.00,16,06,2021,,*71
,$PSGSA,4,01,03,04,10,21,22,25,26,31,,,,1.4,0.8,1.2,1646,00082300,00,,7,44,,2,B,4,0,0,3,16,0,0,0,0,0,-0.56,16,1*3A
,$PSGSA,4,65,66,,,,,,,,,,,1.4,0.8,1.2,1646,00082300,00,,7,44,,2,B,4,0,0,3,16,0,0,0,0,0,-0.56,16,2*3F
,$PSGSA,4,01,,,,,,,,,,,,1.4,0.8,1.2,1646,00082300,00,,7,44,,2,B,4,0,0,3,16,0,0,0,0,0,-0.56,16,5*3A
,$GPGGA,000824.00,3653.7871,S,17454.4462,E,1,12,0.9,17.1,M,28.3,M,,*46
,$GNGLL,3653.7871,S,17454.4462,E,000824.00,A,A*69
,$GNGSA,A,3,01,03,04,10,21,22,25,26,31,,,,1.4,0.9,1.1,1*38
,$GNGSA,A,3,65,76,,,,,,,,,,,1.4,0.9,1.1,2*3C
,$GNGSA,A,3,01,,,,,,,,,,,,1.4,0.9,1.1,5*38
,$GPGSV,3,1,11,01,28,268,34,03,31,224,39,04,07,256,38,10,14,035,28,0*69
,$GPGSV,3,2,11,16,08,002,20,21,23,297,41,22,56,240,43,25,24,128,44,0*68
,$GPGSV,3,3,11,26,32,017,29,31,85,203,44,32,37,103,,,,,,0*54
,$GLGSV,2,1,08,65,22,068,34,66,64,145,37,67,29,217,43,75,19,149,,0*71
,$GLGSV,2,2,08,76,71,111,39,77,44,348,24,82,09,258,38,83,07,214,29,0*73
,$GQGSV,1,1,04,01,58,248,43,02,07,331,,03,08,324,,07,24,298,34,0*6A
,$GNRMC,000824.00,A,3653.7871,S,17454.4462,E,0.4,209.0,160621,,,A,V*29
,$GNVTG,209.0,T,,M,0.4,N,0.7,K,A*1B
,$GNZDA,000824.00,16,06,2021,,*76
,$PSGSA,4,01,03,04,10,21,22,25,26,31,,,,1.4,0.9,1.1,1647,00082400,00,,7,43,,2,B,4,0,0,3,16,0,0,0,0,0,-0.56,16,1*39
,$PSGSA,4,65,76,,,,,,,,,,,1.4,0.9,1.1,1647,00082400,00,,7,43,,2,B,4,0,0,3,16,0,0,0,0,0,-0.56,16,2*3D
,$PSGSA,4,01,,,,,,,,,,,,1.4,0.9,1.1,1647,00082400,00,,7,43,,2,B,4,0,0,3,16,0,0,0,0,0,-0.56,16,5*39
,$GPGGA,000825.00,3653.7869,S,17454.4463,E,1,12,0.8,17.4,M,28.3,M,,*4B
,$GNGLL,3653.7869,S,17454.4463,E,000825.00,A,A*60
,$GNGSA,A,3,01,03,04,10,21,22,25,26,31,,,,1.4,0.8,1.2,1*3A
,$GNGSA,A,3,65,66,,,,,,,,,,,1.4,0.8,1.2,2*3F
,$GNGSA,A,3,01,,,,,,,,,,,,1.4,0.8,1.2,5*3A
,$GPGSV,3,1,11,01,28,268,35,03,31,224,40,04,07,256,39,10,14,035,28,0*67
,$GPGSV,3,2,11,16,08,002,18,21,23,297,40,22,56,240,43,25,24,128,44,0*62
,$GPGSV,3,3,11,26,32,017,28,31,85,203,44,32,37,103,,,,,,0*55
,$GLGSV,2,1,08,65,22,068,35,66,64,145,38,67,29,217,43,75,19,149,,0*7F
,$GLGSV,2,2,08,76,71,111,37,77,44,348,25,82,09,258,39,83,07,214,30,0*75
,$GQGSV,1,1,04,01,58,248,44,02,07,331,,03,08,324,,07,24,298,34,0*6D
,$GNRMC,000825.00,A,3653.7869,S,17454.4463,E,0.4,31.8,160621,,,A,V*11
,$GNVTG,31.8,T,,M,0.4,N,0.7,K,A*2A
,$GNZDA,000825.00,16,06,2021,,*77
,$PSGSA,4,01,03,04,10,21,22,25,26,31,,,,1.4,0.8,1.2,1647,00082500,00,,7,43,,2,B,4,0,0,3,16,0,0,0,0,0,-0.56,16,1*3A
,$PSGSA,4,65,66,,,,,,,,,,,1.4,0.8,1.2,1647,00082500,00,,7,43,,2,B,4,0,0,3,16,0,0,0,0,0,-0.56,16,2*3F
,$PSGSA,4,01,,,,,,,,,,,,1.4,0.8,1.2,1647,00082500,00,,7,43,,2,B,4,0,0,3,16,0,0,0,0,0,-0.56,16,5*3A
,$GPGGA,000826.00,3653.7868,S,17454.4463,E,1,12,0.8,17.4,M,28.3,M,,*49
,$GNGLL,3653.7868,S,17454.4463,E,000826.00,A,A*62
,$GNGSA,A,3,01,03,04,10,21,22,25,26,31,,,,1.4,0.8,1.2,1*3A
,$GNGSA,A,3,65,66,,,,,,,,,,,1.4,0.8,1.2,2*3F
,$GNGSA,A,3,01,,,,,,,,,,,,1.4,0.8,1.2,5*3A
,$GPGSV,3,1,11,01,28,268,33,03,31,224,40,04,07,256,39,10,14,035,30,0*68
,$GPGSV,3,2,11,16,09,002,20,21,23,297,40,22,56,240,42,25,24,128,44,0*69
,$GPGSV,3,3,11,26,32,017,29,31,85,203,44,32,37,103,,,,,,0*54
,$GLGSV,2,1,08,65,22,068,35,66,64,145,37,67,29,217,43,75,19,149,,0*70
,$GLGSV,2,2,08,76,71,111,38,77,44,348,25,82,09,258,39,83,07,214,31,0*7B
,$GQGSV,1,1,04,01,58,248,44,02,07,331,,03,08,324,,07,24,298,33,0*6A
,$GNRMC,000826.00,A,3653.7868,S,17454.4463,E,0.4,31.9,160621,,,A,V*12
,$GNVTG,31.9,T,,M,0.4,N,0.7,K,A*2B
,$GNZDA,000826.00,16,06,2021,,*74
,$PSGSA,4,01,03,04,10,21,22,25,26,31,,,,1.4,0.8,1.2,1647,00082600,00,,7,43,,2,B,4,0,0,3,16,0,0,0,0,0,-0.56,16,1*39
,$PSGSA,4,65,66,,,,,,,,,,,1.4,0.8,1.2,1647,00082600,00,,7,43,,2,B,4,0,0,3,16,0,0,0,0,0,-0.56,16,2*3C
,$PSGSA,4,01,,,,,,,,,,,,1.4,0.8,1.2,1647,00082600,00,,7,43,,2,B,4,0,0,3,16,0,0,0,0,0,-0.56,16,5*39
,$GPGGA,000827.00,3653.7866,S,17454.4464,E,1,12,0.8,17.6,M,28.3,M,,*43
,$GNGLL,3653.7866,S,17454.4464,E,000827.00,A,A*6A
,$GNGSA,A,3,01,03,04,10,21,22,25,26,31,,,,1.4,0.8,1.2,1*3A
,$GNGSA,A,3,65,66,,,,,,,,,,,1.4,0.8,1.2,2*3F
,$GNGSA,A,3,01,,,,,,,,,,,,1.4,0.8,1.2,5*3A
,$GPGSV,3,1,11,01,28,268,35,03,31,224,41,04,07,256,40,10,14,035,29,0*69
,$GPGSV,3,2,11,16,09,002,21,21,23,297,39,22,56,240,43,25,24,128,44,0*67
,$GPGSV,3,3,11,26,32,017,30,31,85,203,44,32,37,103,,,,,,0*5C
,$GLGSV,2,1,08,65,22,068,34,66,64,145,38,67,29,217,44,75,19,149,,0*79
,$GLGSV,2,2,08,76,71,111,39,77,44,348,25,82,09,258,39,83,07,214,32,0*79
,$GQGSV,1,1,04,01,58,248,43,02,07,331,,03,08,324,,07,24,298,34,0*6A
,$GNRMC,000827.00,A,3653.7866,S,17454.4464,E,0.3,31.9,160621,,,A,V*1D
,$GNVTG,31.9,T,,M,0.3,N,0.6,K,A*2D
,$GNZDA,000827.00,16,06,2021,,*75
,$PSGSA,4,01,03,04,10,21,22,25,26,31,,,,1.4,0.8,1.2,1648,00082700,00,,7,43,,2,B,4,0,0,3,16,0,0,0,0,0,-0.56,16,1*37
,$PSGSA,4,65,66,,,,,,,,,,,1.4,0.8,1.2,1648,00082700,00,,7,43,,2,B,4,0,0,3,16,0,0,0,0,0,-0.56,16,2*32
,$PSGSA,4,01,,,,,,,,,,,,1.4,0.8,1.2,1648,00082700,00,,7,43,,2,B,4,0,0,3,16,0,0,0,0,0,-0.56,16,5*37
,$GPGGA,000828.00,3653.7865,S,17454.4464,E,1,12,0.8,17.6,M,28.3,M,,*4F
,$GNGLL,3653.7865,S,17454.4464,E,000828.00,A,A*66
,$GNGSA,A,3,01,03,04,10,21,22,25,26,31,,,,1.4,0.8,1.2,1*3A
,$GNGSA,A,3,65,66,,,,,,,,,,,1.4,0.8,1.2,2*3F
,$GNGSA,A,3,01,,,,,,,,,,,,1.4,0.8,1.2,5*3A
,$GPGSV,3,1,11,01,28,268,37,03,31,224,41,04,07,256,41,10,14,035,28,0*6B
,$GPGSV,3,2,11,16,09,002,19,21,23,297,40,22,56,240,42,25,23,128,44,0*64
,$GPGSV,3,3,11,26,32,017,27,31,85,202,44,32,37,103,,,,,,0*5B
,$GLGSV,2,1,08,65,22,068,36,66,64,145,38,67,29,217,44,75,19,149,,0*7B
,$GLGSV,2,2,08,76,71,111,37,77,44,348,25,82,09,258,40,83,07,214,31,0*7A
,$GQGSV,1,1,04,01,58,248,43,02,07,331,,03,08,324,,07,24,298,34,0*6A
,$GNRMC,000828.00,A,3653.7865,S,17454.4464,E,0.3,31.9,160621,,,A,V*11
,$GNVTG,31.9,T,,M,0.3,N,0.6,K,A*2D
,$GNZDA,000828.00,16,06,2021,,*7A
,$PSGSA,4,01,03,04,10,21,22,25,26,31,,,,1.4,0.8,1.2,1648,00082800,00,,7,43,,2,B,4,0,0,3,16,0,0,0,0,0,-0.56,16,1*38
,$PSGSA,4,65,66,,,,,,,,,,,1.4,0.8,1.2,1648,00082800,00,,7,43,,2,B,4,0,0,3,16,0,0,0,0,0,-0.56,16,2*3D
,$PSGSA,4,01,,,,,,,,,,,,1.4,0.8,1.2,1648,00082800,00,,7,43,,2,B,4,0,0,3,16,0,0,0,0,0,-0.56,16,5*38
,$GPGGA,000829.00,3653.7864,S,17454.4465,E,1,12,0.8,17.8,M,28.3,M,,*40
,$GNGLL,3653.7864,S,17454.4465,E,000829.00,A,A*67
,$GNGSA,A,3,01,03,04,10,21,22,25,26,31,,,,1.4,0.8,1.2,1*3A
,$GNGSA,A,3,65,66,,,,,,,,,,,1.4,0.8,1.2,2*3F
,$GNGSA,A,3,01,,,,,,,,,,,,1.4,0.8,1.2,5*3A
,$GPGSV,3,1,11,01,28,268,37,03,31,224,39,04,07,256,40,10,14,035,26,0*6B
,$GPGSV,3,2,11,16,09,002,21,21,23,297,40,22,56,240,42,25,23,128,44,0*6F
,$GPGSV,3,3,11,26,32,017,30,31,85,202,43,32,37,103,,,,,,0*5A
,$GLGSV,2,1,08,65,22,068,36,66,64,145,39,67,29,217,43,75,19,149,,0*7D
,$GLGSV,2,2,08,76,71,111,38,77,44,348,26,82,09,258,39,83,07,214,32,0*7B
,$GQGSV,1,1,04,01,58,248,43,02,07,331,,03,08,324,,07,24,298,34,0*6A
,$GNRMC,000829.00,A,3653.7864,S,17454.4465,E,0.3,31.9,160621,,,A,V*10
,$GNVTG,31.9,T,,M,0.3,N,0.6,K,A*2D
,$GNZDA,000829.00,16,06,2021,,*7B
,$PSGSA,4,01,03,04,10,21,22,25,26,31,,,,1.4,0.8,1.2,1649,00082900,00,,7,43,,2,B,4,0,0,3,16,0,0,0,0,0,-0.56,16,1*38
,$PSGSA,4,65,66,,,,,,,,,,,1.4,0.8,1.2,1649,00082900,00,,7,43,,2,B,4,0,0,3,16,0,0,0,0,0,-0.56,16,2*3D
,$PSGSA,4,01,,,,,,,,,,,,1.4,0.8,1.2,1649,00082900,00,,7,43,,2,B,4,0,0,3,16,0,0,0,0,0,-0.56,16,5*38
,$GPGGA,000830.00,3653.7863,S,17454.4465,E,1,12,0.8,17.8,M,28.3,M,,*4F
,$GNGLL,3653.7863,S,17454.4465,E,000830.00,A,A*68
,$GNGSA,A,3,01,03,04,10,21,22,25,26,31,,,,1.4,0.8,1.2,1*3A
,$GNGSA,A,3,65,66,,,,,,,,,,,1.4,0.8,1.2,2*3F
,$GNGSA,A,3,01,,,,,,,,,,,,1.4,0.8,1.2,5*3A
,$GPGSV,3,1,11,01,28,268,36,03,31,224,39,04,07,256,40,10,14,035,27,0*6B
,$GPGSV,3,2,11,16,09,002,17,21,23,297,40,22,56,240,43,25,23,128,44,0*6B
,$GPGSV,3,3,11,26,32,017,27,31,85,202,44,32,37,103,,,,,,0*5B
,$GLGSV,2,1,08,65,22,068,35,66,64,145,38,67,29,217,43,75,19,149,,0*7F
,$GLGSV,2,2,08,76,71,111,38,77,44,348,24,82,09,258,37,83,07,214,32,0*77
,$GQGSV,1,1,04,01,58,248,44,02,07,331,,03,08,324,,07,24,298,34,0*6D
,$GNRMC,000830.00,A,3653.7863,S,17454.4465,E,0.0,31.9,160621,,,A,V*1C
,$GNVTG,31.9,T,,M,0.0,N,0.0,K,A*28
,$GNZDA,000830.00,16,06,2021,,*73
,$PSGSA,4,01,03,04,10,21,22,25,26,31,,,,1.4,0.8,1.2,1648,00083000,00,,7,43,,2,B,4,0,0,3,16,0,0,0,0,0,-0.56,16,1*31
,$PSGSA,4,65,66,,,,,,,,,,,1.4,0.8,1.2,1648,00083000,00,,7,43,,2,B,4,0,0,3,16,0,0,0,0,0,-0.56,16,2*34
,$PSGSA,4,01,,,,,,,,,,,,1.4,0.8,1.2,1648,00083000,00,,7,43,,2,B,4,0,0,3,16,0,0,0,0,0,-0.56,16,5*31
,$GPGGA,000831.00,3653.7862,S,17454.4465,E,1,12,0.8,18.0,M,28.3,M,,*48
,$GNGLL,3653.7862,S,17454.4465,E,000831.00,A,A*68
,$GNGSA,A,3,01,03,04,10,21,22,25,26,31,,,,1.4,0.8,1.2,1*3A
,$GNGSA,A,3,65,66,,,,,,,,,,,1.4,0.8,1.2,2*3F
,$GNGSA,A,3,01,,,,,,,,,,,,1.4,0.8,1.2,5*3A
,$GPGSV,3,1,11,01,28,268,37,03,31,224,38,04,07,256,40,10,14,035,23,0*6F
,$GPGSV,3,2,11,16,09,002,21,21,23,297,41,22,56,240,43,25,23,128,45,0*6E
,$GPGSV,3,3,11,26,32,017,27,31,85,202,43,32,37,103,,,,,,0*5C
,$GLGSV,2,1,08,65,22,068,35,66,64,145,38,67,29,217,42,75,19,149,,0*7E
,$GLGSV,2,2,08,76,71,111,38,77,44,348,24,82,09,258,37,83,07,214,28,0*7C
,$GQGSV,1,1,04,01,58,248,44,02,07,331,,03,08,324,,07,24,298,33,0*6A
,$GNRMC,000831.00,A,3653.7862,S,17454.4465,E,0.0,31.9,160621,,,A,V*1C
,$GNVTG,31.9,T,,M,0.0,N,0.0,K,A*28
,$GNZDA,000831.00,16,06,2021,,*72
,$PSGSA,4,01,03,04,10,21,22,25,26,31,,,,1.4,0.8,1.2,1648,00083100,00,,7,43,,2,B,4,0,0,3,16,0,0,0,0,0,-0.56,16,1*30
,$PSGSA,4,65,66,,,,,,,,,,,1.4,0.8,1.2,1648,00083100,00,,7,43,,2,B,4,0,0,3,16,0,0,0,0,0,-0.56,16,2*35
,$PSGSA,4,01,,,,,,,,,,,,1.4,0.8,1.2,1648,00083100,00,,7,43,,2,B,4,0,0,3,16,0,0,0,0,0,-0.56,16,5*30
,$GPGGA,000832.00,3653.7862,S,17454.4466,E,1,12,0.8,18.0,M,28.3,M,,*48
,$GNGLL,3653.7862,S,17454.4466,E,000832.00,A,A*68
,$GNGSA,A,3,01,03,04,10,21,22,25,26,31,,,,1.4,0.8,1.2,1*3A
,$GNGSA,A,3,65,66,,,,,,,,,,,1.4,0.8,1.2,2*3F
,$GNGSA,A,3,01,,,,,,,,,,,,1.4,0.8,1.2,5*3A
,$GPGSV,3,1,11,01,28,268,36,03,31,224,39,04,07,256,40,10,14,035,22,0*6E
,$GPGSV,3,2,11,16,09,002,20,21,23,297,41,22,56,240,44,25,23,128,44,0*69
,$GPGSV,3,3,11,26,32,017,30,31,85,202,44,32,37,103,,,,,,0*5D
,$GLGSV,2,1,08,65,22,068,36,66,64,145,37,67,29,217,42,75,19,149,,0*72
,$GLGSV,2,2,08,76,71,111,38,77,44,348,24,82,09,258,38,83,07,214,30,0*7A
,$GQGSV,1,1,04,01,58,248,44,02,07,331,,03,08,324,,07,24,298,33,0*6A
,$GNRMC,000832.00,A,3653.7862,S,17454.4466,E,0.0,31.9,160621,,,A,V*1C
,$GNVTG,31.9,T,,M,0.0,N,0.0,K,A*28
,$GNZDA,000832.00,16,06,2021,,*71
,$PSGSA,4,01,03,04,10,21,22,25,26,31,,,,1.4,0.8,1.2,1648,00083200,00,,7,44,,2,B,4,0,0,3,16,0,0,0,0,0,-0.56,16,1*34
,$PSGSA,4,65,66,,,,,,,,,,,1.4,0.8,1.2,1648,00083200,00,,7,44,,2,B,4,0,0,3,16,0,0,0,0,0,-0.56,16,2*31
,$PSGSA,4,01,,,,,,,,,,,,1.4,0.8,1.2,1648,00083200,00,,7,44,,2,B,4,0,0,3,16,0,0,0,0,0,-0.56,16,5*34
,$GPGGA,000833.00,3653.7862,S,17454.4465,E,1,12,0.8,18.2,M,28.3,M,,*48
,$GNGLL,3653.7862,S,17454.4465,E,000833.00,A,A*6A
,$GNGSA,A,3,01,03,04,10,21,22,25,26,31,,,,1.4,0.8,1.2,1*3A
,$GNGSA,A,3,65,66,,,,,,,,,,,1.4,0.8,1.2,2*3F
,$GNGSA,A,3,01,,,,,,,,,,,,1.4,0.8,1.2,5*3A
,$GPGSV,3,1,11,01,28,268,34,03,31,224,38,04,07,256,40,10,14,035,22,0*6D
,$GPGSV,3,2,11,16,09,002,19,21,23,297,41,22,56,240,44,25,23,128,44,0*63
,$GPGSV,3,3,11,26,32,017,29,31,85,202,44,32,37,103,,,,,,0*55
,$GLGSV,2,1,08,65,22,068,35,66,64,145,38,67,29,217,42,75,19,149,,0*7E
,$GLGSV,2,2,08,76,71,111,38,77,44,348,23,82,09,258,38,83,07,214,32,0*7F
,$GQGSV,1,1,04,01,58,248,44,02,07,331,,03,08,324,,07,24,298,33,0*6A
,$GNRMC,000833.00,A,3653.7862,S,17454.4465,E,0.3,31.9,160621,,,A,V*1D
,$GNVTG,31.9,T,,M,0.3,N,0.6,K,A*2D
,$GNZDA,000833.00,16,06,2021,,*70
,$PSGSA,4,01,03,04,10,21,22,25,26,31,,,,1.4,0.8,1.2,1648,00083300,00,,7,44,,2,B,4,0,0,3,16,0,0,0,0,0,-0.56,16,1*35
,$PSGSA,4,65,66,,,,,,,,,,,1.4,0.8,1.2,1648,00083300,00,,7,44,,2,B,4,0,0,3,16,0,0,0,0,0,-0.56,16,2*30
,$PSGSA,4,01,,,,,,,,,,,,1.4,0.8,1.2,1648,00083300,00,,7,44,,2,B,4,0,0,3,16,0,0,0,0,0,-0.56,16,5*35
,$GPGGA,000834.00,3653.7861,S,17454.4466,E,1,12,0.8,18.2,M,28.3,M,,*4F
,$GNGLL,3653.7861,S,17454.4466,E,000834.00,A,A*6D
,$GNGSA,A,3,01,03,04,10,21,22,25,26,31,,,,1.4,0.8,1.2,1*3A
,$GNGSA,A,3,65,66,,,,,,,,,,,1.4,0.8,1.2,2*3F
,$GNGSA,A,3,01,,,,,,,,,,,,1.4,0.8,1.2,5*3A
,$GPGSV,3,1,11,01,28,268,35,03,31,224,38,04,07,256,39,10,14,035,23,0*63
,$GPGSV,3,2,11,16,09,002,20,21,23,297,40,22,56,240,44,25,23,128,44,0*68
,$GPGSV,3,3,11,26,32,017,28,31,85,202,43,32,37,103,,,,,,0*53
,$GLGSV,2,1,08,65,22,068,34,66,64,145,37,67,29,217,42,75,19,149,,0*70
,$GLGSV,2,2,08,76,71,111,37,77,45,348,24,82,09,258,38,83,07,214,31,0*75
,$GQGSV,1,1,04,01,58,248,44,02,07,331,,03,08,324,,07,24,298,33,0*6A
,$GNRMC,000834.00,A,3653.7861,S,17454.4466,E,0.0,31.9,160621,,,A,V*19
,$GNVTG,31.9,T,,M,0.0,N,0.0,K,A*28
,$GNZDA,000834.00,16,06,2021,,*77
,$PSGSA,4,01,03,04,10,21,22,25,26,31,,,,1.4,0.8,1.2,1648,00083400,00,,7,43,,2,B,4,0,0,3,16,0,0,0,0,0,-0.56,16,1*35
,$PSGSA,4,65,66,,,,,,,,,,,1.4,0.8,1.2,1648,00083400,00,,7,43,,2,B,4,0,0,3,16,0,0,0,0,0,-0.56,16,2*30
,$PSGSA,4,01,,,,,,,,,,,,1.4,0.8,1.2,1648,00083400,00,,7,43,,2,B,4,0,0,3,16,0,0,0,0,0,-0.56,16,5*35
,$GPGGA,000835.00,3653.7859,S,17454.4466,E,1,12,0.9,18.3,M,28.3,M,,*45
,$GNGLL,3653.7859,S,17454.4466,E,000835.00,A,A*67
,$GNGSA,A,3,01,03,04,10,21,22,25,26,31,,,,1.4,0.9,1.1,1*38
,$GNGSA,A,3,65,76,,,,,,,,,,,1.4,0.9,1.1,2*3C
,$GNGSA,A,3,01,,,,,,,,,,,,1.4,0.9,1.1,5*38
,$GPGSV,3,1,11,01,28,268,35,03,31,224,39,04,07,256,40,10,14,035,27,0*68
,$GPGSV,3,2,11,16,09,002,18,21,23,297,39,22,56,240,44,25,23,128,45,0*6C
,$GPGSV,3,3,11,26,32,017,26,31,85,202,43,32,37,103,,,,,,0*5D
,$GLGSV,2,1,08,65,22,068,34,66,64,145,37,67,29,217,42,75,19,149,,0*70
,$GLGSV,2,2,08,76,71,111,38,77,45,348,24,82,09,258,38,83,07,215,31,0*7B
,$GQGSV,1,1,04,01,58,248,44,02,07,331,,03,08,324,,07,24,298,34,0*6D
,$GNRMC,000835.00,A,3653.7859,S,17454.4466,E,0.3,31.9,160621,,,A,V*10
,$GNVTG,31.9,T,,M,0.3,N,0.5,K,A*2E
,$GNZDA,000835.00,16,06,2021,,*76
,$PSGSA,4,01,03,04,10,21,22,25,26,31,,,,1.4,0.9,1.1,1648,00083500,00,,7,44,,2,B,4,0,0,3,16,0,0,0,0,0,-0.56,16,1*31
,$PSGSA,4,65,76,,,,,,,,,,,1.4,0.9,1.1,1648,00083500,00,,7,44,,2,B,4,0,0,3,16,0,0,0,0,0,-0.56,16,2*35
,$PSGSA,4,01,,,,,,,,,,,,1.4,0.9,1.1,1648,00083500,00,,7,44,,2,B,4,0,0,3,16,0,0,0,0,0,-0.56,16,5*31
,$GPGGA,000836.00,3653.7858,S,17454.4466,E,1,12,0.9,18.2,M,28.3,M,,*46
,$GNGLL,3653.7858,S,17454.4466,E,000836.00,A,A*65
,$GNGSA,A,3,01,03,04,10,21,22,25,26,31,,,,1.4,0.9,1.1,1*38
,$GNGSA,A,3,65,76,,,,,,,,,,,1.4,0.9,1.1,2*3C
,$GNGSA,A,3,01,,,,,,,,,,,,1.4,0.9,1.1,5*38
,$GPGSV,3,1,11,01,28,268,35,03,31,224,38,04,07,256,42,10,14,035,29,0*65
,$GPGSV,3,2,11,16,09,002,22,21,23,297,40,22,56,240,44,25,23,128,43,0*6D
,$GPGSV,3,3,11,26,32,017,29,31,85,202,44,32,37,103,,,,,,0*55
,$GLGSV,2,1,08,65,22,068,34,66,64,145,36,67,29,217,42,75,19,149,,0*71
,$GLGSV,2,2,08,76,71,111,38,77,45,348,24,82,09,258,38,83,07,215,31,0*7B
,$GQGSV,1,1,04,01,58,248,44,02,07,331,,03,08,324,,07,24,298,34,0*6D
,$GNRMC,000836.00,A,3653.7858,S,17454.4466,E,0.3,26.8,160621,,,A,V*15
,$GNVTG,26.8,T,,M,0.3,N,0.5,K,A*29
,$GNZDA,000836.00,16,06,2021,,*75
,$PSGSA,4,01,03,04,10,21,22,25,26,31,,,,1.4,0.9,1.1,1648,00083600,00,,7,43,,2,B,4,0,0,3,16,0,0,0,0,0,-0.56,16,1*35
,$PSGSA,4,65,76,,,,,,,,,,,1.4,0.9,1.1,1648,00083600,00,,7,43,,2,B,4,0,0,3,16,0,0,0,0,0,-0.56,16,2*31
,$PSGSA,4,01,,,,,,,,,,,,1.4,0.9,1.1,1648,00083600,00,,7,43,,2,B,4,0,0,3,16,0,0,0,0,0,-0.56,16,5*35
,$GPGGA,000837.00,3653.7857,S,17454.4467,E,1,12,0.9,18.0,M,28.3,M,,*4B
,$GNGLL,3653.7857,S,17454.4467,E,000837.00,A,A*6A
,$GNGSA,A,3,01,03,04,10,21,22,25,26,31,,,,1.4,0.9,1.1,1*38
,$GNGSA,A,3,65,76,,,,,,,,,,,1.4,0.9,1.1,2*3C
,$GNGSA,A,3,01,,,,,,,,,,,,1.4,0.9,1.1,5*38
,$GPGSV,3,1,11,01,28,268,32,03,31,224,39,04,07,256,42,10,14,035,29,0*63
,$GPGSV,3,2,11,16,09,002,22,21,23,297,40,22,56,240,44,25,23,128,43,0*6D
,$GPGSV,3,3,11,26,32,017,29,31,85,202,44,32,37,103,,,,,,0*55
,$GLGSV,2,1,08,65,22,068,35,66,64,145,37,67,29,217,43,75,19,149,,0*70
,$GLGSV,2,2,08,76,71,111,39,77,45,348,25,82,09,258,39,83,07,215,30,0*7B
,$GQGSV,1,1,04,01,58,248,44,02,07,331,,03,08,324,,07,24,298,34,0*6D
,$GNRMC,000837.00,A,3653.7857,S,17454.4467,E,0.0,26.8,160621,,,A,V*19
,$GNVTG,26.8,T,,M,0.0,N,0.0,K,A*2F
,$GNZDA,000837.00,16,06,2021,,*74
,$PSGSA,4,01,03,04,10,21,22,25,26,31,,,,1.4,0.9,1.1,1649,00083700,00,,7,43,,2,B,4,0,0,3,16,0,0,0,0,0,-0.56,16,1*35
,$PSGSA,4,65,76,,,,,,,,,,,1.4,0.9,1.1,1649,00083700,00,,7,43,,2,B,4,0,0,3,16,0,0,0,0,0,-0.56,16,2*31
,$PSGSA,4,01,,,,,,,,,,,,1.4,0.9,1.1,1649,00083700,00,,7,43,,2,B,4,0,0,3,16,0,0,0,0,0,-0.56,16,5*35
,$GPGGA,000838.00,3653.7857,S,17454.4468,E,1,12,0.9,17.8,M,28.3,M,,*4C
,$GNGLL,3653.7857,S,17454.4468,E,000838.00,A,A*6A
,$GNGSA,A,3,01,03,04,10,21,22,25,26,31,,,,1.4,0.9,1.1,1*38
,$GNGSA,A,3,65,76,,,,,,,,,,,1.4,0.9,1.1,2*3C
,$GNGSA,A,3,01,,,,,,,,,,,,1.4,0.9,1.1,5*38
,$GPGSV,3,1,11,01,28,268,35,03,31,224,37,04,07,256,41,10,14,035,30,0*61
,$GPGSV,3,2,11,16,09,002,23,21,23,297,39,22,56,240,45,25,23,128,43,0*63
,$GPGSV,3,3,11,26,32,017,29,31,85,202,44,32,37,103,,,,,,0*55
,$GLGSV,2,1,08,65,22,067,35,66,64,145,37,67,29,217,41,75,19,149,,0*7D
,$GLGSV,2,2,08,76,71,111,39,77,45,348,27,82,09,258,38,83,07,215,30,0*78
,$GQGSV,1,1,04,01,58,248,44,02,07,331,,03,08,324,,07,24,298,34,0*6D
,$GNRMC,000838.00,A,3653.7857,S,17454.4468,E,0.0,26.8,160621,,,A,V*19
,$GNVTG,26.8,T,,M,0.0,N,0.0,K,A*2F
,$GNZDA,000838.00,16,06,2021,,*7B
,$PSGSA,4,01,03,04,10,21,22,25,26,31,,,,1.4,0.9,1.1,1650,00083800,00,,7,44,,2,B,4,0,0,3,16,0,0,0,0,0,-0.56,16,1*35
,$PSGSA,4,65,76,,,,,,,,,,,1.4,0.9,1.1,1650,00083800,00,,7,44,,2,B,4,0,0,3,16,0,0,0,0,0,-0.56,16,2*31
,$PSGSA,4,01,,,,,,,,,,,,1.4,0.9,1.1,1650,00083800,00,,7,44,,2,B,4,0,0,3,16,0,0,0,0,0,-0.56,16,5*35
,$GPGGA,000839.00,3653.7856,S,17454.4469,E,1,12,0.8,17.7,M,28.3,M,,*43
,$GNGLL,3653.7856,S,17454.4469,E,000839.00,A,A*6B
,$GNGSA,A,3,01,03,04,10,21,22,25,26,31,,,,1.4,0.8,1.2,1*3A
,$GNGSA,A,3,65,66,,,,,,,,,,,1.4,0.8,1.2,2*3F
,$GNGSA,A,3,01,,,,,,,,,,,,1.4,0.8,1.2,5*3A
,$GPGSV,3,1,11,01,28,268,36,03,31,224,36,04,07,256,41,10,14,035,31,0*62
,$GPGSV,3,2,11,16,09,002,24,21,23,297,39,22,56,240,45,25,23,128,43,0*64
,$GPGSV,3,3,11,26,32,017,29,31,85,202,43,32,37,103,,,,,,0*52
,$GLGSV,2,1,08,65,22,067,35,66,64,145,37,67,29,217,41,75,19,149,,0*7D
,$GLGSV,2,2,08,76,71,111,38,77,45,348,23,82,09,258,36,83,07,215,31,0*72
,$GQGSV,1,1,04,01,58,248,44,02,07,331,,03,08,324,,07,24,298,33,0*6A
,$GNRMC,000839.00,A,3653.7856,S,17454.4469,E,0.0,26.8,160621,,,A,V*18
,$GNVTG,26.8,T,,M,0.0,N,0.0,K,A*2F
,$GNZDA,000839.00,16,06,2021,,*7A
,$PSGSA,4,01,03,04,10,21,22,25,26,31,,,,1.4,0.8,1.2,1650,00083900,00,,7,43,,2,B,4,0,0,3,16,0,0,0,0,0,-0.56,16,1*31
,$PSGSA,4,65,66,,,,,,,,,,,1.4,0.8,1.2,1650,00083900,00,,7,43,,2,B,4,0,0,3,16,0,0,0,0,0,-0.56,16,2*34
,$PSGSA,4,01,,,,,,,,,,,,1.4,0.8,1.2,1650,00083900,00,,7,43,,2,B,4,0,0,3,16,0,0,0,0,0,-0.56,16,5*31
,$GPGGA,000840.00,3653.7854,S,17454.4470,E,1,12,0.8,17.9,M,28.3,M,,*49
,$GNGLL,3653.7854,S,17454.4470,E,000840.00,A,A*6F
,$GNGSA,A,3,01,03,04,10,21,22,25,26,31,,,,1.4,0.8,1.2,1*3A
,$GNGSA,A,3,65,66,,,,,,,,,,,1.4,0.8,1.2,2*3F
,$GNGSA,A,3,01,,,,,,,,,,,,1.4,0.8,1.2,5*3A
,$GPGSV,3,1,11,01,28,268,36,03,31,224,37,04,07,256,41,10,14,035,29,0*6A
,$GPGSV,3,2,11,16,09,002,22,21,23,297,40,22,56,240,45,25,23,128,44,0*6B
,$GPGSV,3,3,11,26,32,017,29,31,85,201,43,32,37,103,,,,,,0*51
,$GLGSV,2,1,08,65,22,067,34,66,64,145,37,67,29,217,41,75,19,149,,0*7C
,$GLGSV,2,2,08,76,71,111,38,77,45,348,24,82,09,258,37,83,07,215,31,0*74
,$GQGSV,1,1,04,01,58,248,44,02,07,331,,03,08,324,,07,24,298,34,0*6D
,$GNRMC,000840.00,A,3653.7854,S,17454.4470,E,0.2,26.8,160621,,,A,V*1E
,$GNVTG,26.8,T,,M,0.2,N,0.4,K,A*29
,$GNZDA,000840.00,16,06,2021,,*74
,$PSGSA,4,01,03,04,10,21,22,25,26,31,,,,1.4,0.8,1.2,1650,00084000,00,,7,44,,2,B,4,0,0,3,16,0,0,0,0,0,-0.56,16,1*38
,$PSGSA,4,65,66,,,,,,,,,,,1.4,0.8,1.2,1650,00084000,00,,7,44,,2,B,4,0,0,3,16,0,0,0,0,0,-0.56,16,2*3D
,$PSGSA,4,01,,,,,,,,,,,,1.4,0.8,1.2,1650,00084000,00,,7,44,,2,B,4,0,0,3,16,0,0,0,0,0,-0.56,16,5*38
,$GPGGA,000841.00,3653.7853,S,17454.4471,E,1,12,0.8,18.0,M,28.3,M,,*48
,$GNGLL,3653.7853,S,17454.4471,E,000841.00,A,A*68
,$GNGSA,A,3,01,03,04,10,21,22,25,26,31,,,,1.4,0.8,1.2,1*3A
,$GNGSA,A,3,65,66,,,,,,,,,,,1.4,0.8,1.2,2*3F
,$GNGSA,A,3,01,,,,,,,,,,,,1.4,0.8,1.2,5*3A
,$GPGSV,3,1,11,01,28,268,38,03,31,224,38,04,07,256,41,10,14,035,27,0*65
,$GPGSV,3,2,11,16,09,002,19,21,23,297,39,22,56,240,46,25,23,128,44,0*6E
,$GPGSV,3,3,11,26,32,017,30,31,85,201,43,32,37,103,,,,,,0*59
,$GLGSV,2,1,08,65,22,067,35,66,64,145,38,67,29,217,40,75,19,149,,0*73
,$GLGSV,2,2,08,76,71,111,38,77,45,348,25,82,09,258,37,83,07,215,31,0*75
,$GQGSV,1,1,04,01,58,248,43,02,07,331,,03,08,324,,07,24,298,34,0*6A
,$GNRMC,000841.00,A,3653.7853,S,17454.4471,E,0.2,26.8,160621,,,A,V*19
,$GNVTG,26.8,T,,M,0.2,N,0.4,K,A*29
,$GNZDA,000841.00,16,06,2021,,*75
,$PSGSA,4,01,03,04,10,21,22,25,26,31,,,,1.4,0.8,1.2,1650,00084100,00,,7,44,,2,B,4,0,0,3,16,0,0,0,0,0,-0.56,16,1*39
,$PSGSA,4,65,66,,,,,,,,,,,1.4,0.8,1.2,1650,00084100,00,,7,44,,2,B,4,0,0,3,16,0,0,0,0,0,-0.56,16,2*3C
,$PSGSA,4,01,,,,,,,,,,,,1.4,0.8,1.2,1650,00084100,00,,7,44,,2,B,4,0,0,3,16,0,0,0,0,0,-0.56,16,5*39
,$GPGGA,000842.00,3653.7851,S,17454.4471,E,1,12,0.9,18.1,M,28.3,M,,*49
,$GNGLL,3653.7851,S,17454.4471,E,000842.00,A,A*69
,$GNGSA,A,3,01,03,04,10,21,22,25,26,31,,,,1.4,0.9,1.1,1*38
,$GNGSA,A,3,65,76,,,,,,,,,,,1.4,0.9,1.1,2*3C
,$GNGSA,A,3,01,,,,,,,,,,,,1.4,0.9,1.1,5*38
,$GPGSV,3,1,11,01,28,268,34,03,31,224,38,04,07,256,41,10,14,035,27,0*69
,$GPGSV,3,2,11,16,09,002,16,21,23,297,40,22,56,240,45,25,23,128,44,0*6C
,$GPGSV,3,3,11,26,32,017,28,31,85,201,44,32,37,103,,,,,,0*57
,$GLGSV,2,1,08,65,22,067,35,66,64,145,37,67,29,217,42,75,19,149,,0*7E
,$GLGSV,2,2,08,76,71,111,38,77,45,348,23,82,09,258,35,83,07,215,32,0*72
,$GQGSV,1,1,04,01,58,248,44,02,07,331,,03,08,324,,07,24,298,34,0*6D
,$GNRMC,000842.00,A,3653.7851,S,17454.4471,E,0.0,26.8,160621,,,A,V*1A
,$GNVTG,26.8,T,,M,0.0,N,0.0,K,A*2F
,$GNZDA,000842.00,16,06,2021,,*76
,$PSGSA,4,01,03,04,10,21,22,25,26,31,,,,1.4,0.9,1.1,1649,00084200,00,,7,44,,2,B,4,0,0,3,16,0,0,0,0,0,-0.56,16,1*30
,$PSGSA,4,65,76,,,,,,,,,,,1.4,0.9,1.1,1649,00084200,00,,7,44,,2,B,4,0,0,3,16,0,0,0,0,0,-0.56,16,2*34
,$PSGSA,4,01,,,,,,,,,,,,1.4,0.9,1.1,1649,00084200,00,,7,44,,2,B,4,0,0,3,16,0,0,0,0,0,-0.56,16,5*30
,$GPGGA,000843.00,3653.7851,S,17454.4472,E,1,12,0.9,17.9,M,28.3,M,,*4C
,$GNGLL,3653.7851,S,17454.4472,E,000843.00,A,A*6B
,$GNGSA,A,3,01,03,04,10,21,22,25,26,31,,,,1.4,0.9,1.1,1*38
,$GNGSA,A,3,65,76,,,,,,,,,,,1.4,0.9,1.1,2*3C
,$GNGSA,A,3,01,,,,,,,,,,,,1.4,0.9,1.1,5*38
,$GPGSV,3,1,11,01,28,268,35,03,31,224,38,04,07,256,41,10,14,035,30,0*6E
,$GPGSV,3,2,11,16,09,002,22,21,23,297,39,22,56,240,45,25,23,128,43,0*62
,$GPGSV,3,3,11,26,32,017,28,31,85,201,43,32,37,103,,,,,,0*50
,$GLGSV,2,1,08,65,22,067,35,66,64,145,38,67,29,217,41,75,19,149,,0*72
,$GLGSV,2,2,08,76,71,111,39,77,45,348,25,82,09,258,36,83,07,215,30,0*74
,$GQGSV,1,1,04,01,58,248,44,02,07,331,,03,08,324,,07,24,298,33,0*6A
,$GNRMC,000843.00,A,3653.7851,S,17454.4472,E,0.3,26.8,160621,,,A,V*1B
,$GNVTG,26.8,T,,M,0.3,N,0.5,K,A*29
,$GNZDA,000843.00,16,06,2021,,*77
,$PSGSA,4,01,03,04,10,21,22,25,26,31,,,,1.4,0.9,1.1,1649,00084300,00,,7,43,,2,B,4,0,0,3,16,0,0,0,0,0,-0.56,16,1*36
,$PSGSA,4,65,76,,,,,,,,,,,1.4,0.9,1.1,1649,00084300,00,,7,43,,2,B,4,0,0,3,16,0,0,0,0,0,-0.56,16,2*32
,$PSGSA,4,01,,,,,,,,,,,,1.4,0.9,1.1,1649,00084300,00,,7,43,,2,B,4,0,0,3,16,0,0,0,0,0,-0.56,16,5*36
,$GPGGA,000844.00,3653.7851,S,17454.4473,E,1,12,0.9,17.7,M,28.3,M,,*44
,$GNGLL,3653.7851,S,17454.4473,E,000844.00,A,A*6D
,$GNGSA,A,3,01,03,04,10,21,22,25,26,31,,,,1.4,0.9,1.1,1*38
,$GNGSA,A,3,65,76,,,,,,,,,,,1.4,0.9,1.1,2*3C
,$GNGSA,A,3,01,,,,,,,,,,,,1.4,0.9,1.1,5*38
,$GPGSV,3,1,11,01,28,268,36,03,31,224,38,04,07,256,41,10,14,035,31,0*6C
,$GPGSV,3,2,11,16,09,002,21,21,23,297,39,22,56,240,45,25,23,128,42,0*60
,$GPGSV,3,3,11,26,32,017,28,31,85,201,43,32,37,103,,,,,,0*50
,$GLGSV,2,1,08,65,22,067,35,66,64,145,38,67,29,217,41,75,19,149,,0*72
,$GLGSV,2,2,08,76,71,111,39,77,45,348,27,82,09,258,36,83,07,215,30,0*76
,$GQGSV,1,1,04,01,58,248,44,02,07,331,,03,08,324,,07,24,298,35,0*6C
,$GNRMC,000844.00,A,3653.7851,S,17454.4473,E,0.3,26.8,160621,,,A,V*1D
,$GNVTG,26.8,T,,M,0.3,N,0.5,K,A*29
,$GNZDA,000844.00,16,06,2021,,*70
,$PSGSA,4,01,03,04,10,21,22,25,26,31,,,,1.4,0.9,1.1,1649,00084400,00,,7,43,,2,B,4,0,0,3,16,0,0,0,0,0,-0.56,16,1*31
,$PSGSA,4,65,76,,,,,,,,,,,1.4,0.9,1.1,1649,00084400,00,,7,43,,2,B,4,0,0,3,16,0,0,0,0,0,-0.56,16,2*35
,$PSGSA,4,01,,,,,,,,,,,,1.4,0.9,1.1,1649,00084400,00,,7,43,,2,B,4,0,0,3,16,0,0,0,0,0,-0.56,16,5*31
,$GPGGA,000845.00,3653.7850,S,17454.4474,E,1,12,0.9,17.5,M,28.3,M,,*41
,$GNGLL,3653.7850,S,17454.4474,E,000845.00,A,A*6A
,$GNGSA,A,3,01,03,04,10,21,22,25,26,31,,,,1.4,0.9,1.1,1*38
,$GNGSA,A,3,65,76,,,,,,,,,,,1.4,0.9,1.1,2*3C
,$GNGSA,A,3,01,,,,,,,,,,,,1.4,0.9,1.1,5*38
,$GPGSV,3,1,11,01,28,268,34,03,31,224,38,04,07,256,42,10,14,035,30,0*6C
,$GPGSV,3,2,11,16,09,002,20,21,23,297,40,22,56,240,44,25,23,128,42,0*6E
,$GPGSV,3,3,11,26,32,017,28,31,85,201,44,32,37,103,,,,,,0*57
,$GLGSV,2,1,08,65,22,067,35,66,64,145,37,67,29,217,42,75,19,149,,0*7E
,$GLGSV,2,2,08,76,71,111,39,77,45,348,24,82,09,258,35,83,07,215,31,0*77
,$GQGSV,1,1,04,01,58,248,43,02,07,331,,03,08,324,,07,24,298,35,0*6B
,$GNRMC,000845.00,A,3653.7850,S,17454.4474,E,0.0,26.8,160621,,,A,V*19
,$GNVTG,26.8,T,,M,0.0,N,0.0,K,A*2F
,$GNZDA,000845.00,16,06,2021,,*71
,$PSGSA,4,01,03,04,10,21,22,25,26,31,,,,1.4,0.9,1.1,1649,00084500,00,,7,43,,2,B,4,0,0,3,16,0,0,0,0,0,-0.56,16,1*30
,$PSGSA,4,65,76,,,,,,,,,,,1.4,0.9,1.1,1649,00084500,00,,7,43,,2,B,4,0,0,3,16,0,0,0,0,0,-0.56,16,2*34
,$PSGSA,4,01,,,,,,,,,,,,1.4,0.9,1.1,1649,00084500,00,,7,43,,2,B,4,0,0,3,16,0,0,0,0,0,-0.56,16,5*30
,$GPGGA,000846.00,3653.7849,S,17454.4475,E,1,12,0.8,17.5,M,28.3,M,,*4A
,$GNGLL,3653.7849,S,17454.4475,E,000846.00,A,A*60
,$GNGSA,A,3,01,03,04,10,21,22,25,26,31,,,,1.4,0.8,1.2,1*3A
,$GNGSA,A,3,65,66,,,,,,,,,,,1.4,0.8,1.2,2*3F
,$GNGSA,A,3,01,,,,,,,,,,,,1.4,0.8,1.2,5*3A
,$GPGSV,3,1,11,01,28,268,33,03,31,224,38,04,07,256,42,10,14,035,33,0*68
,$GPGSV,3,2,11,16,09,002,21,21,23,297,40,22,56,240,44,25,23,128,42,0*6F
,$GPGSV,3,3,11,26,32,017,27,31,85,201,44,32,37,102,,,,,,0*59
,$GLGSV,2,1,08,65,22,067,34,66,64,145,38,67,29,217,42,75,19,149,,0*70
,$GLGSV,2,2,08,76,71,111,39,77,45,348,24,82,09,258,37,83,07,215,29,0*7C
,$GQGSV,1,1,04,01,58,248,43,02,07,331,,03,08,324,,07,24,298,34,0*6A
,$GNRMC,000846.00,A,3653.7849,S,17454.4475,E,0.3,26.8,160621,,,A,V*10
,$GNVTG,26.8,T,,M,0.3,N,0.6,K,A*2A
,$GNZDA,000846.00,16,06,2021,,*72
,$PSGSA,4,01,03,04,10,21,22,25,26,31,,,,1.4,0.8,1.2,1650,00084600,00,,7,43,,2,B,4,0,0,3,16,0,0,0,0,0,-0.56,16,1*39
,$PSGSA,4,65,66,,,,,,,,,,,1.4,0.8,1.2,1650,00084600,00,,7,43,,2,B,4,0,0,3,16,0,0,0,0,0,-0.56,16,2*3C
,$PSGSA,4,01,,,,,,,,,,,,1.4,0.8,1.2,1650,00084600,00,,7,43,,2,B,4,0,0,3,16,0,0,0,0,0,-0.56,16,5*39
,$GPGGA,000847.00,3653.7849,S,17454.4475,E,1,12,0.9,17.5,M,28.3,M,,*4A
,$GNGLL,3653.7849,S,17454.4475,E,000847.00,A,A*61
,$GNGSA,A,3,01,03,04,10,21,22,25,26,31,,,,1.4,0.9,1.1,1*38
,$GNGSA,A,3,65,76,,,,,,,,,,,1.4,0.9,1.1,2*3C
,$GNGSA,A,3,01,,,,,,,,,,,,1.4,0.9,1.1,5*38
,$GPGSV,3,1,11,01,28,268,34,03,31,224,38,04,07,256,41,10,14,035,34,0*6B
,$GPGSV,3,2,11,16,09,002,18,21,23,297,41,22,56,240,43,25,23,128,43,0*62
,$GPGSV,3,3,11,26,32,017,31,31,85,201,44,32,37,102,,,,,,0*5E
,$GLGSV,2,1,08,65,22,067,35,66,64,144,37,67,29,217,42,75,19,149,,0*7F
,$GLGSV,2,2,08,76,71,111,39,77,45,348,25,82,09,258,34,83,07,215,31,0*77
,$GQGSV,1,1,04,01,58,248,43,02,07,331,,03,08,324,,07,24,298,33,0*6D
,$GNRMC,000847.00,A,3653.7849,S,17454.4475,E,0.3,26.8,160621,,,A,V*11
,$GNVTG,26.8,T,,M,0.3,N,0.6,K,A*2A
,$GNZDA,000847.00,16,06,2021,,*73
,$PSGSA,4,01,03,04,10,21,22,25,26,31,,,,1.4,0.9,1.1,1650,00084700,00,,7,43,,2,B,4,0,0,3,16,0,0,0,0,0,-0.56,16,1*3A
,$PSGSA,4,65,76,,,,,,,,,,,1.4,0.9,1.1,1650,00084700,00,,7,43,,2,B,4,0,0,3,16,0,0,0,0,0,-0.56,16,2*3E
,$PSGSA,4,01,,,,,,,,,,,,1.4,0.9,1.1,1650,00084700,00,,7,43,,2,B,4,0,0,3,16,0,0,0,0,0,-0.56,16,5*3A
,$GPGGA,000848.00,3653.7849,S,17454.4476,E,1,12,0.9,17.5,M,28.3,M,,*46
,$GNGLL,3653.7849,S,17454.4476,E,000848.00,A,A*6D
,$GNGSA,A,3,01,03,04,10,21,22,25,26,31,,,,1.4,0.9,1.1,1*38
,$GNGSA,A,3,65,76,,,,,,,,,,,1.4,0.9,1.1,2*3C
,$GNGSA,A,3,01,,,,,,,,,,,,1.4,0.9,1.1,5*38
,$GPGSV,3,1,11,01,28,268,35,03,31,224,38,04,07,256,42,10,14,035,31,0*6C
,$GPGSV,3,2,11,16,09,002,18,21,23,297,41,22,56,240,43,25,23,128,42,0*63
,$GPGSV,3,3,11,26,32,017,29,31,85,201,44,32,37,102,,,,,,0*57
,$GLGSV,2,1,08,65,22,067,35,66,64,144,36,67,29,217,42,75,19,149,,0*7E
,$GLGSV,2,2,08,76,71,111,38,77,45,348,,82,09,258,31,83,07,215,32,0*77
,$GQGSV,1,1,04,01,58,248,43,02,07,331,,03,08,324,,07,24,298,31,0*6F
,$GNRMC,000848.00,A,3653.7849,S,17454.4476,E,0.3,26.8,160621,,,A,V*1D
,$GNVTG,26.8,T,,M,0.3,N,0.6,K,A*2A
,$GNZDA,000848.00,16,06,2021,,*7C
,$PSGSA,4,01,03,04,10,21,22,25,26,31,,,,1.4,0.9,1.1,1650,00084800,00,,7,43,,2,B,4,0,0,2,16,0,0,0,0,0,-0.56,16,1*34
,$PSGSA,4,65,76,,,,,,,,,,,1.4,0.9,1.1,1650,00084800,00,,7,43,,2,B,4,0,0,2,16,0,0,0,0,0,-0.56,16,2*30
,$PSGSA,4,01,,,,,,,,,,,,1.4,0.9,1.1,1650,00084800,00,,7,43,,2,B,4,0,0,2,16,0,0,0,0,0,-0.56,16,5*34
,$GPGGA,000849.00,3653.7848,S,17454.4476,E,1,12,0.9,17.6,M,28.3,M,,*45
,$GNGLL,3653.7848,S,17454.4476,E,000849.00,A,A*6D
,$GNGSA,A,3,01,03,04,10,21,22,25,26,31,,,,1.4,0.9,1.1,1*38
,$GNGSA,A,3,65,76,,,,,,,,,,,1.4,0.9,1.1,2*3C
,$GNGSA,A,3,01,,,,,,,,,,,,1.4,0.9,1.1,5*38
,$GPGSV,3,1,11,01,28,268,35,03,31,224,38,04,07,256,41,10,14,035,32,0*6C
,$GPGSV,3,2,11,16,09,002,16,21,23,297,42,22,56,240,43,25,23,128,43,0*6F
,$GPGSV,3,3,11,26,32,017,29,31,85,201,45,32,37,102,,,,,,0*56
,$GLGSV,2,1,08,65,22,067,33,66,64,144,38,67,29,217,43,75,19,149,,0*77
,$GLGSV,2,2,08,76,71,111,39,77,45,348,,82,09,258,35,83,07,215,32,0*72
,$GQGSV,1,1,04,01,58,248,43,02,07,331,,03,08,324,,07,24,298,32,0*6C
,$GNRMC,000849.00,A,3653.7848,S,17454.4476,E,0.3,26.8,160621,,,A,V*1D
,$GNVTG,26.8,T,,M,0.3,N,0.6,K,A*2A
,$GNZDA,000849.00,16,06,2021,,*7D
,$PSGSA,4,01,03,04,10,21,22,25,26,31,,,,1.4,0.9,1.1,1650,00084900,00,,7,43,,2,B,4,0,0,2,16,0,0,0,0,0,-0.56,16,1*35
,$PSGSA,4,65,76,,,,,,,,,,,1.4,0.9,1.1,1650,00084900,00,,7,43,,2,B,4,0,0,2,16,0,0,0,0,0,-0.56,16,2*31
,$PSGSA,4,01,,,,,,,,,,,,1.4,0.9,1.1,1650,00084900,00,,7,43,,2,B,4,0,0,2,16,0,0,0,0,0,-0.56,16,5*35
,$GPGGA,000850.00,3653.7848,S,17454.4476,E,1,12,0.8,17.5,M,28.3,M,,*4F
,$GNGLL,3653.7848,S,17454.4476,E,000850.00,A,A*65
,$GNGSA,A,3,01,03,04,10,21,22,25,26,31,,,,1.4,0.8,1.2,1*3A
,$GNGSA,A,3,65,66,,,,,,,,,,,1.4,0.8,1.2,2*3F
,$GNGSA,A,3,01,,,,,,,,,,,,1.4,0.8,1.2,5*3A
,$GPGSV,3,1,11,01,28,268,33,03,31,224,38,04,07,256,39,10,14,035,34,0*63
,$GPGSV,3,2,11,16,09,002,17,21,23,297,42,22,56,240,43,25,23,128,42,0*6F
,$GPGSV,3,3,11,26,32,017,27,31,85,201,45,32,37,102,,,,,,0*58
,$GLGSV,2,1,08,65,22,067,33,66,64,144,38,67,29,217,43,75,18,149,,0*76
,$GLGSV,2,2,08,76,71,111,38,77,45,348,,82,09,258,33,83,07,215,32,0*75
,$GQGSV,1,1,04,01,58,248,43,02,07,331,,03,08,324,,07,24,298,34,0*6A
,$GNRMC,000850.00,A,3653.7848,S,17454.4476,E,0.0,26.8,160621,,,A,V*16
,$GNVTG,26.8,T,,M,0.0,N,0.0,K,A*2F
,$GNZDA,000850.00,16,06,2021,,*75
,$PSGSA,4,01,03,04,10,21,22,25,26,31,,,,1.4,0.8,1.2,1649,00085000,00,,7,43,,2,B,4,0,0,2,16,0,0,0,0,0,-0.56,16,1*37
,$PSGSA,4,65,66,,,,,,,,,,,1.4,0.8,1.2,1649,00085000,00,,7,43,,2,B,4,0,0,2,16,0,0,0,0,0,-0.56,16,2*32
,$PSGSA,4,01,,,,,,,,,,,,1.4,0.8,1.2,1649,00085000,00,,7,43,,2,B,4,0,0,2,16,0,0,0,0,0,-0.56,16,5*37
,$GPGGA,000851.00,3653.7848,S,17454.4476,E,1,12,0.8,17.3,M,28.3,M,,*48
,$GNGLL,3653.7848,S,17454.4476,E,000851.00,A,A*64
,$GNGSA,A,3,01,03,04,10,21,22,25,26,31,,,,1.4,0.8,1.2,1*3A
,$GNGSA,A,3,65,66,,,,,,,,,,,1.4,0.8,1.2,2*3F
,$GNGSA,A,3,01,,,,,,,,,,,,1.4,0.8,1.2,5*3A
,$GPGSV,3,1,11,01,28,268,34,03,31,224,38,04,07,256,39,10,14,035,34,0*64
,$GPGSV,3,2,11,16,09,002,18,21,23,297,40,22,56,240,42,25,23,128,43,0*62
,$GPGSV,3,3,11,26,32,017,26,31,85,201,45,32,37,102,,,,,,0*59
,$GLGSV,2,1,08,65,22,067,35,66,64,144,38,67,29,217,43,75,18,149,,0*70
,$GLGSV,2,2,08,76,71,111,38,77,45,348,,82,09,258,33,83,07,215,31,0*76
,$GQGSV,1,1,04,01,58,248,44,02,07,331,,03,08,324,,07,24,298,34,0*6D
,$GNRMC,000851.00,A,3653.7848,S,17454.4476,E,0.3,26.8,160621,,,A,V*14
,$GNVTG,26.8,T,,M,0.3,N,0.6,K,A*2A
,$GNZDA,000851.00,16,06,2021,,*74
,$PSGSA,4,01,03,04,10,21,22,25,26,31,,,,1.4,0.8,1.2,1649,00085100,00,,7,43,,2,B,4,0,0,2,16,0,0,0,0,0,-0.56,16,1*36
