,$GPGGA,235042.02,3653.4939,S,17454.6015,E,0,00,3.7,28.1,M,28.3,M,,*43
,$GNGLL,3653.4939,S,17454.6015,E,235042.02,V,N*77
,$GNGSA,A,1,,,,,,,,,,,,,7.3,3.7,6.2,*06
,$GPGSV,3,1,12,01,30,259,10,03,24,224,,04,02,262,,10,21,039,,0*60
,$GPGSV,3,2,12,12,04,146,,16,02,359,,21,28,289,,22,49,233,14,0*69
,$GPGSV,3,3,12,25,27,120,,26,24,013,,31,83,304,,32,43,111,,0*6E
,$GQGSV,1,1,04,01,55,248,,02,06,332,07,03,10,323,10,07,24,298,00,0*6D
,$GNRMC,235042.02,V,3653.4939,S,17454.6015,E,,,150621,,,N,V*3B
,$GNVTG,,T,,M,,N,,K,N*32
,$GNZDA,235042.02,15,06,2021,,*7B
,$PSGSA,1,,,,,,,,,,,,,7.3,3.7,6.2,1014,23504202,,,1,10,3,0,B,,0,0,5,0,0,0,0,0,0,,16,1*3B
,$GPGGA,235043.00,3653.4939,S,17454.6015,E,0,00,3.7,28.1,M,28.3,M,,*40
,$GNGLL,3653.4939,S,17454.6015,E,235043.00,V,N*74
,$GNGSA,A,1,,,,,,,,,,,,,7.3,3.7,6.2,*06
,$GPGSV,3,1,12,01,30,259,15,03,24,224,00,04,02,262,,10,21,039,,0*65
,$GPGSV,3,2,12,12,04,146,,16,02,359,,21,28,289,,22,49,233,10,0*6D
,$GPGSV,3,3,12,25,27,120,16,26,24,013,00,31,83,304,,32,43,111,00,0*69
,$GQGSV,1,1,04,01,55,248,00,02,06,332,06,03,10,323,10,07,24,298,03,0*6F
,$GNRMC,235043.00,V,3653.4939,S,17454.6015,E,,,150621,,,N,V*38
,$GNVTG,,T,,M,,N,,K,N*32
,$GNZDA,235043.00,15,06,2021,,*78
,$PSGSA,1,,,,,,,,,,,,,7.3,3.7,6.2,1014,23504300,,,1,12,3,0,B,,0,0,10,0,0,0,0,0,0,,16,1*0E
,$GPGGA,235044.00,3653.4939,S,17454.6015,E,0,00,3.7,28.1,M,28.3,M,,*47
,$GNGLL,3653.4939,S,17454.6015,E,235044.00,V,N*73
,$GNGSA,A,1,,,,,,,,,,,,,7.3,3.7,6.2,*06
,$GPGSV,3,1,12,01,30,259,07,03,24,224,07,04,02,262,,10,21,039,,0*61
,$GPGSV,3,2,12,12,04,146,,16,02,359,,21,28,289,,22,49,233,,0*6C
,$GPGSV,3,3,12,25,27,120,10,26,24,013,15,31,83,304,,32,43,111,06,0*6D
,$GQGSV,1,1,04,01,55,248,00,02,06,332,25,03,10,323,,07,24,298,00,0*6C
,$GNRMC,235044.00,V,3653.4939,S,17454.6015,E,,,150621,,,N,V*3F
,$GNVTG,,T,,M,,N,,K,N*32
,$GNZDA,235044.00,15,06,2021,,*7F
,$PSGSA,1,,,,,,,,,,,,,7.3,3.7,6.2,1014,23504400,,,1,14,3,0,B,,0,0,8,0,0,0,0,0,0,,16,1*36
,$GPGGA,235045.00,3653.4939,S,17454.6015,E,0,00,3.7,28.1,M,28.3,M,,*46
,$GNGLL,3653.4939,S,17454.6015,E,235045.00,V,N*72
,$GNGSA,A,1,,,,,,,,,,,,,7.3,3.7,6.2,*06
,$GPGSV,3,1,12,01,30,259,10,03,24,224,,04,02,262,,10,21,039,,0*60
,$GPGSV,3,2,12,12,04,146,,16,02,359,,21,28,289,,22,49,233,,0*6C
,$GPGSV,3,3,12,25,27,120,03,26,24,013,07,31,83,304,,32,43,111,,0*6A
,$GQGSV,1,1,04,01,55,248,,02,06,332,15,03,10,323,,07,24,298,00,0*6F
,$GNRMC,235045.00,V,3653.4939,S,17454.6015,E,,,150621,,,N,V*3E
,$GNVTG,,T,,M,,N,,K,N*32
,$GNZDA,235045.00,15,06,2021,,*7E
,$PSGSA,1,,,,,,,,,,,,,7.3,3.7,6.2,1014,23504500,,,1,08,3,0,B,,0,0,5,0,0,0,0,0,0,,16,1*37
,$GPGGA,235046.00,3653.4939,S,17454.6015,E,0,00,3.7,28.1,M,28.3,M,,*45
,$GNGLL,3653.4939,S,17454.6015,E,235046.00,V,N*71
,$GNGSA,A,1,,,,,,,,,,,,,7.3,3.7,6.2,*06
,$GPGSV,3,1,12,01,30,259,06,03,24,224,,04,02,262,,10,21,039,,0*67
,$GPGSV,3,2,12,12,04,146,,16,02,359,,21,28,289,,22,49,233,,0*6C
,$GPGSV,3,3,12,25,27,120,,26,24,013,00,31,83,304,,32,43,111,,0*6E
,$GQGSV,1,1,04,01,55,248,,02,06,332,10,03,10,323,,07,24,298,,0*6A
,$GNRMC,235046.00,V,3653.4939,S,17454.6015,E,,,150621,,,N,V*3D
,$GNVTG,,T,,M,,N,,K,N*32
,$GNZDA,235046.00,15,06,2021,,*7D
,$PSGSA,1,,,,,,,,,,,,,7.3,3.7,6.2,1014,23504600,,,1,04,3,0,B,,0,0,3,0,0,0,0,0,0,,16,1*3E
,$GPGGA,235047.00,3653.4939,S,17454.6015,E,0,00,3.7,28.1,M,28.3,M,,*44
,$GNGLL,3653.4939,S,17454.6015,E,235047.00,V,N*70
,$GNGSA,A,1,,,,,,,,,,,,,7.3,3.7,6.2,*06
,$GPGSV,3,1,12,01,30,259,12,03,24,224,,04,02,262,,10,21,039,,0*62
,$GPGSV,3,2,12,12,04,146,,16,02,359,,21,28,289,,22,49,233,,0*6C
,$GPGSV,3,3,12,25,27,120,,26,24,013,00,31,83,304,,32,43,111,,0*6E
,$GQGSV,1,1,04,01,55,248,,02,06,332,00,03,10,323,,07,24,298,,0*6B
,$GNRMC,235047.00,V,3653.4939,S,17454.6015,E,,,150621,,,N,V*3C
,$GNVTG,,T,,M,,N,,K,N*32
,$GNZDA,235047.00,15,06,2021,,*7C
,$PSGSA,1,,,,,,,,,,,,,7.3,3.7,6.2,1014,23504700,,,1,03,3,0,B,,0,0,2,0,1,0,0,0,0,,16,1*38
,$GPGGA,235048.00,3653.4939,S,17454.6015,E,0,00,3.7,28.1,M,28.3,M,,*4B
,$GNGLL,3653.4939,S,17454.6015,E,235048.00,V,N*7F
,$GNGSA,A,1,,,,,,,,,,,,,7.3,3.7,6.2,*06
,$GPGSV,3,1,12,01,30,259,00,03,24,224,,04,02,262,,10,21,039,,0*61
,$GPGSV,3,2,12,12,04,146,,16,02,359,,21,28,289,,22,49,233,,0*6C
,$GPGSV,3,3,12,25,27,120,,26,24,013,00,31,83,304,,32,43,111,,0*6E
,$GQGSV,1,1,04,01,56,248,,02,06,332,00,03,10,323,,07,24,298,,0*68
,$GNRMC,235048.00,V,3653.4939,S,17454.6015,E,,,150621,,,N,V*33
,$GNVTG,,T,,M,,N,,K,N*32
,$GNZDA,235048.00,15,06,2021,,*73
,$PSGSA,1,,,,,,,,,,,,,7.3,3.7,6.2,1014,23504800,,,1,00,3,0,B,,0,0,2,0,1,0,0,0,0,,16,1*34
,$GPGGA,235049.00,3653.4939,S,17454.6015,E,0,00,3.7,28.1,M,28.3,M,,*4A
,$GNGLL,3653.4939,S,17454.6015,E,235049.00,V,N*7E
,$GNGSA,A,1,,,,,,,,,,,,,7.3,3.7,6.2,*06
,$GPGSV,3,1,12,01,30,259,00,03,24,224,,04,02,262,,10,21,039,,0*61
,$GPGSV,3,2,12,12,04,146,,16,02,359,,21,28,289,,22,49,233,,0*6C
,$GPGSV,3,3,12,25,27,120,,26,24,013,00,31,83,304,,32,43,111,,0*6E
,$GQGSV,1,1,04,01,56,248,,02,06,332,10,03,10,323,,07,24,298,,0*69
,$GNRMC,235049.00,V,3653.4939,S,17454.6015,E,,,150621,,,N,V*32
,$GNVTG,,T,,M,,N,,K,N*32
,$GNZDA,235049.00,15,06,2021,,*72
,$PSGSA,1,,,,,,,,,,,,,7.3,3.7,6.2,1014,23504900,,,1,02,3,0,B,,0,0,1,0,2,0,0,0,0,,16,1*37
,$GPGGA,235050.00,3653.4939,S,17454.6015,E,0,00,3.7,28.1,M,28.3,M,,*42
,$GNGLL,3653.4939,S,17454.6015,E,235050.00,V,N*76
,$GNGSA,A,1,,,,,,,,,,,,,7.3,3.7,6.2,*06
,$GPGSV,3,1,12,01,30,259,00,03,24,224,,04,02,262,,10,21,039,,0*61
,$GPGSV,3,2,12,12,04,146,,16,02,359,,21,28,289,,22,49,233,,0*6C
,$GPGSV,3,3,12,25,27,120,,26,24,013,00,31,83,304,,32,43,111,,0*6E
,$GQGSV,1,1,04,01,56,248,,02,06,332,00,03,10,323,,07,24,298,,0*68
,$GNRMC,235050.00,V,3653.4939,S,17454.6015,E,,,150621,,,N,V*3A
,$GNVTG,,T,,M,,N,,K,N*32
,$GNZDA,235050.00,15,06,2021,,*7A
,$PSGSA,1,,,,,,,,,,,,,7.3,3.7,6.2,1014,23505000,,,1,00,3,0,B,,0,0,1,0,2,0,0,0,0,,16,1*3D
,$GPGGA,235051.00,3653.4939,S,17454.6015,E,0,00,3.7,28.1,M,28.3,M,,*43
,$GNGLL,3653.4939,S,17454.6015,E,235051.00,V,N*77
,$GNGSA,A,1,,,,,,,,,,,,,7.3,3.7,6.2,*06
,$GPGSV,3,1,12,01,30,259,00,03,24,224,,04,02,262,,10,21,039,,0*61
,$GPGSV,3,2,12,12,04,146,,16,02,359,,21,28,289,,22,49,233,,0*6C
,$GPGSV,3,3,12,25,27,120,,26,24,013,00,31,83,304,,32,43,111,,0*6E
,$GQGSV,1,1,04,01,56,248,,02,06,332,09,03,10,323,,07,24,298,,0*61
,$GNRMC,235051.00,V,3653.4939,S,17454.6015,E,,,150621,,,N,V*3B
,$GNVTG,,T,,M,,N,,K,N*32
,$GNZDA,235051.00,15,06,2021,,*7B
,$PSGSA,1,,,,,,,,,,,,,7.3,3.7,6.2,1014,23505100,,,1,02,3,0,B,,0,0,1,0,2,0,0,0,0,,16,1*3E
,$GPGGA,235052.00,3653.4939,S,17454.6015,E,0,00,3.7,28.1,M,28.3,M,,*40
,$GNGLL,3653.4939,S,17454.6015,E,235052.00,V,N*74
,$GNGSA,A,1,,,,,,,,,,,,,7.3,3.7,6.2,*06
,$GPGSV,3,1,12,01,30,259,00,03,24,224,00,04,02,262,,10,21,039,,0*61
,$GPGSV,3,2,12,12,04,146,,16,02,359,,21,28,289,,22,49,233,,0*6C
,$GPGSV,3,3,12,25,27,120,,26,24,013,10,31,83,304,,32,43,111,,0*6F
,$GQGSV,1,1,04,01,56,248,,02,06,332,00,03,10,323,,07,24,298,,0*68
,$GNRMC,235052.00,V,3653.4939,S,17454.6015,E,,,150621,,,N,V*38
,$GNVTG,,T,,M,,N,,K,N*32
,$GNZDA,235052.00,15,06,2021,,*78
,$PSGSA,1,,,,,,,,,,,,,7.3,3.7,6.2,1014,23505200,,,1,02,3,0,B,,0,0,3,0,1,0,0,0,0,,16,1*3C
,$GPGGA,235053.00,3653.4939,S,17454.6015,E,0,00,3.7,28.1,M,28.3,M,,*41
,$GNGLL,3653.4939,S,17454.6015,E,235053.00,V,N*75
,$GNGSA,A,1,,,,,,,,,,,,,7.3,3.7,6.2,*06
,$GPGSV,3,1,12,01,30,259,00,03,24,224,00,04,02,262,,10,21,039,,0*61
,$GPGSV,3,2,12,12,04,146,,16,02,359,,21,28,289,,22,49,233,,0*6C
,$GPGSV,3,3,12,25,27,120,00,26,24,013,07,31,83,304,,32,43,111,,0*69
,$GQGSV,1,1,04,01,56,248,,02,06,332,00,03,10,323,,07,24,298,,0*68
,$GNRMC,235053.00,V,3653.4939,S,17454.6015,E,,,150621,,,N,V*39
,$GNVTG,,T,,M,,N,,K,N*32
,$GNZDA,235053.00,15,06,2021,,*79
,$PSGSA,1,,,,,,,,,,,,,7.3,3.7,6.2,1014,23505300,,,1,01,3,0,B,,0,0,4,0,1,0,0,0,0,,16,1*39
,$GPGGA,235054.00,3653.4939,S,17454.6015,E,0,00,3.7,28.1,M,28.3,M,,*46
,$GNGLL,3653.4939,S,17454.6015,E,235054.00,V,N*72
,$GNGSA,A,1,,,,,,,,,,,,,7.3,3.7,6.2,*06
,$GPGSV,3,1,12,01,30,259,00,03,24,224,,04,02,261,,10,21,039,,0*62
,$GPGSV,3,2,12,12,04,146,,16,02,359,,21,28,289,,22,49,233,,0*6C
,$GPGSV,3,3,12,25,27,120,00,26,24,013,00,31,83,304,,32,43,111,,0*6E
,$GQGSV,1,1,04,01,56,248,00,02,06,332,00,03,10,323,,07,24,298,,0*68
,$GNRMC,235054.00,V,3653.4939,S,17454.6015,E,,,150621,,,N,V*3E
,$GNVTG,,T,,M,,N,,K,N*32
,$GNZDA,235054.00,15,06,2021,,*7E
,$PSGSA,1,,,,,,,,,,,,,7.3,3.7,6.2,1014,23505400,,,1,00,3,0,B,,0,0,3,0,2,0,0,0,0,,16,1*3B
,$GPGGA,235055.00,3653.4939,S,17454.6015,E,0,00,3.7,28.1,M,28.3,M,,*47
,$GNGLL,3653.4939,S,17454.6015,E,235055.00,V,N*73
,$GNGSA,A,1,,,,,,,,,,,,,7.3,3.7,6.2,*06
,$GPGSV,3,1,12,01,30,259,00,03,24,224,,04,02,261,,10,21,039,,0*62
,$GPGSV,3,2,12,12,04,146,,16,02,359,,21,28,289,,22,49,233,,0*6C
,$GPGSV,3,3,12,25,27,120,,26,24,013,00,31,83,303,,32,43,111,,0*69
,$GQGSV,1,1,04,01,56,248,00,02,06,332,00,03,10,323,,07,24,298,17,0*6E
,$GNRMC,235055.00,V,3653.4939,S,17454.6015,E,,,150621,,,N,V*3F
,$GNVTG,,T,,M,,N,,K,N*32
,$GNZDA,235055.00,15,06,2021,,*7F
,$PSGSA,1,,,,,,,,,,,,,7.3,3.7,6.2,1014,23505500,,,1,04,3,0,B,,0,0,3,0,2,0,0,0,0,,16,1*3E
,$GPGGA,235056.00,3653.4939,S,17454.6015,E,0,00,3.7,28.1,M,28.3,M,,*44
,$GNGLL,3653.4939,S,17454.6015,E,235056.00,V,N*70
,$GNGSA,A,1,,,,,,,,,,,,,7.3,3.7,6.2,*06
,$GPGSV,3,1,12,01,30,259,00,03,24,224,,04,02,261,,10,21,039,,0*62
,$GPGSV,3,2,12,12,04,146,,16,02,359,,21,28,289,,22,49,233,,0*6C
,$GPGSV,3,3,12,25,27,120,,26,24,013,00,31,83,303,,32,43,111,,0*69
,$GQGSV,1,1,04,01,56,248,,02,06,332,00,03,10,323,00,07,24,298,04,0*6C
,$GNRMC,235056.00,V,3653.4939,S,17454.6015,E,,,150621,,,N,V*3C
,$GNVTG,,T,,M,,N,,K,N*32
,$GNZDA,235056.00,15,06,2021,,*7C
,$PSGSA,1,,,,,,,,,,,,,7.3,3.7,6.2,1014,23505600,,,1,01,3,0,B,,0,0,2,0,3,0,0,0,0,,16,1*38
,$GPGGA,235057.00,3653.4939,S,17454.6015,E,0,00,3.7,28.1,M,28.3,M,,*45
,$GNGLL,3653.4939,S,17454.6015,E,235057.00,V,N*71
,$GNGSA,A,1,,,,,,,,,,,,,7.3,3.7,6.2,*06
,$GPGSV,3,1,12,01,30,259,00,03,24,224,,04,02,261,,10,21,039,,0*62
,$GPGSV,3,2,12,12,04,146,,16,02,359,,21,28,289,,22,49,233,,0*6C
,$GPGSV,3,3,12,25,27,120,,26,24,013,00,31,83,303,,32,43,111,,0*69
,$GQGSV,1,1,04,01,56,248,,02,06,332,00,03,10,323,00,07,24,298,,0*68
,$GNRMC,235057.00,V,3653.4939,S,17454.6015,E,,,150621,,,N,V*3D
,$GNVTG,,T,,M,,N,,K,N*32
,$GNZDA,235057.00,15,06,2021,,*7D
,$PSGSA,1,,,,,,,,,,,,,7.3,3.7,6.2,1014,23505700,,,1,00,3,0,B,,0,0,1,0,3,0,0,0,0,,16,1*3B
,$GPGGA,235058.00,3653.4939,S,17454.6015,E,0,00,3.7,28.1,M,28.3,M,,*4A
,$GNGLL,3653.4939,S,17454.6015,E,235058.00,V,N*7E
,$GNGSA,A,1,,,,,,,,,,,,,7.3,3.7,6.2,*06
,$GPGSV,3,1,12,01,30,259,00,03,24,224,,04,02,261,,10,21,039,,0*62
,$GPGSV,3,2,12,12,04,146,,16,02,359,,21,28,290,,22,49,233,,0*64
,$GPGSV,3,3,12,25,27,120,,26,24,013,00,31,83,303,,32,43,111,,0*69
,$GQGSV,1,1,04,01,56,248,,02,06,332,00,03,10,323,,07,24,298,,0*68
,$GNRMC,235058.00,V,3653.4939,S,17454.6015,E,,,150621,,,N,V*32
,$GNVTG,,T,,M,,N,,K,N*32
,$GNZDA,235058.00,15,06,2021,,*72
,$PSGSA,1,,,,,,,,,,,,,7.3,3.7,6.2,1014,23505800,,,1,00,3,0,B,,0,0,0,0,3,0,0,0,0,,16,1*35
,$GPGGA,235059.00,3653.4939,S,17454.6015,E,0,00,3.7,28.1,M,28.3,M,,*4B
,$GNGLL,3653.4939,S,17454.6015,E,235059.00,V,N*7F
,$GNGSA,A,1,,,,,,,,,,,,,7.3,3.7,6.2,*06
,$GPGSV,3,1,12,01,30,259,00,03,24,224,,04,02,261,,10,21,039,10,0*63
,$GPGSV,3,2,12,12,04,146,,16,02,359,,21,28,290,,22,49,233,,0*64
,$GPGSV,3,3,12,25,27,120,,26,24,013,00,31,83,303,,32,43,111,,0*69
,$GQGSV,1,1,04,01,56,248,,02,06,332,00,03,10,323,,07,24,298,,0*68
,$GNRMC,235059.00,V,3653.4939,S,17454.6015,E,,,150621,,,N,V*33
,$GNVTG,,T,,M,,N,,K,N*32
,$GNZDA,235059.00,15,06,2021,,*73
,$PSGSA,1,,,,,,,,,,,,,7.3,3.7,6.2,1014,23505900,,,1,02,3,0,B,,0,0,1,0,3,0,0,0,0,,16,1*37
,$GPGGA,235100.00,3653.4939,S,17454.6015,E,0,00,3.7,28.1,M,28.3,M,,*46
,$GNGLL,3653.4939,S,17454.6015,E,235100.00,V,N*72
,$GNGSA,A,1,,,,,,,,,,,,,7.3,3.7,6.2,*06
,$GPGSV,3,1,12,01,30,259,00,03,24,224,,04,02,261,,10,21,039,00,0*62
,$GPGSV,3,2,12,12,04,146,,16,02,359,,21,28,290,,22,49,233,,0*64
,$GPGSV,3,3,12,25,26,120,,26,24,013,00,31,83,303,00,32,43,111,,0*68
,$GQGSV,1,1,04,01,56,248,,02,06,332,00,03,10,323,,07,24,298,,0*68
,$GNRMC,235100.00,V,3653.4939,S,17454.6015,E,,,150621,,,N,V*3E
,$GNVTG,,T,,M,,N,,K,N*32
,$GNZDA,235100.00,15,06,2021,,*7E
,$PSGSA,1,,,,,,,,,,,,,7.3,3.7,6.2,1014,23510000,,,1,00,3,0,B,,0,0,2,0,3,0,0,0,0,,16,1*3B
,$GPGGA,235101.00,3653.4939,S,17454.6015,E,0,00,3.7,28.1,M,28.3,M,,*47
,$GNGLL,3653.4939,S,17454.6015,E,235101.00,V,N*73
,$GNGSA,A,1,,,,,,,,,,,,,7.3,3.7,6.2,*06
,$GPGSV,3,1,12,01,30,259,00,03,24,224,,04,02,261,,10,21,039,,0*62
,$GPGSV,3,2,12,12,04,146,,16,02,359,,21,28,290,,22,49,233,,0*64
,$GPGSV,3,3,12,25,26,120,,26,24,013,00,31,83,303,10,32,43,111,,0*69
,$GQGSV,1,1,04,01,56,248,22,02,06,332,00,03,10,323,,07,24,298,,0*68
,$GNRMC,235101.00,V,3653.4939,S,17454.6015,E,,,150621,,,N,V*3F
,$GNVTG,,T,,M,,N,,K,N*32
,$GNZDA,235101.00,15,06,2021,,*7F
,$PSGSA,1,,,,,,,,,,,,,7.3,3.7,6.2,1014,23510100,,,1,08,3,0,B,,0,0,2,0,3,0,0,0,0,,16,1*32
,$GPGGA,235102.00,3653.4939,S,17454.6015,E,0,00,3.7,28.1,M,28.3,M,,*44
,$GNGLL,3653.4939,S,17454.6015,E,235102.00,V,N*70
,$GNGSA,A,1,,,,,,,,,,,,,7.3,3.7,6.2,*06
,$GPGSV,3,1,12,01,30,259,00,03,24,224,,04,02,261,,10,21,039,,0*62
,$GPGSV,3,2,12,12,04,146,,16,02,359,,21,28,290,,22,49,233,,0*64
,$GPGSV,3,3,12,25,26,120,,26,24,013,00,31,83,303,,32,43,111,,0*68
,$GQGSV,1,1,04,01,56,248,16,02,06,332,00,03,10,323,,07,24,298,,0*6F
,$GNRMC,235102.00,V,3653.4939,S,17454.6015,E,,,150621,,,N,V*3C
,$GNVTG,,T,,M,,N,,K,N*32
,$GNZDA,235102.00,15,06,2021,,*7C
,$PSGSA,1,,,,,,,,,,,,,7.3,3.7,6.2,1014,23510200,,,1,04,3,0,B,,0,0,1,0,3,0,0,0,0,,16,1*3E
,$GPGGA,235103.00,3653.4939,S,17454.6015,E,0,00,3.7,28.1,M,28.3,M,,*45
,$GNGLL,3653.4939,S,17454.6015,E,235103.00,V,N*71
,$GNGSA,A,1,,,,,,,,,,,,,7.3,3.7,6.2,*06
,$GPGSV,3,1,12,01,30,259,00,03,24,224,,04,02,261,,10,21,039,,0*62
,$GPGSV,3,2,12,12,04,146,,16,02,359,,21,28,290,,22,49,233,,0*64
,$GPGSV,3,3,12,25,26,120,,26,24,013,00,31,83,303,,32,43,111,,0*68
,$GQGSV,1,1,04,01,56,248,15,02,06,332,,03,10,323,,07,24,298,,0*6C
,$GNRMC,235103.00,V,3653.4939,S,17454.6015,E,,,150621,,,N,V*3D
,$GNVTG,,T,,M,,N,,K,N*32
,$GNZDA,235103.00,15,06,2021,,*7D
,$PSGSA,1,,,,,,,,,,,,,7.3,3.7,6.2,1014,23510300,,,1,03,3,0,B,,0,0,1,0,2,0,0,0,0,,16,1*39
,$GPGGA,235104.00,3653.4939,S,17454.6015,E,0,00,3.7,28.1,M,28.3,M,,*42
,$GNGLL,3653.4939,S,17454.6015,E,235104.00,V,N*76
,$GNGSA,A,1,,,,,,,,,,,,,7.3,3.7,6.2,*06
,$GPGSV,3,1,12,01,30,259,00,03,24,224,,04,02,261,,10,21,039,,0*62
,$GPGSV,3,2,12,12,04,146,,16,02,359,,21,28,290,,22,49,233,,0*64
,$GPGSV,3,3,12,25,26,120,,26,24,013,,31,83,303,,32,43,111,,0*68
,$GQGSV,1,1,04,01,56,248,03,02,06,332,,03,10,323,,07,24,298,,0*6B
,$GNRMC,235104.00,V,3653.4939,S,17454.6015,E,,,150621,,,N,V*3A
,$GNVTG,,T,,M,,N,,K,N*32
,$GNZDA,235104.00,15,06,2021,,*7A
,$PSGSA,1,,,,,,,,,,,,,7.3,3.7,6.2,1014,23510400,,,1,00,3,0,B,,0,0,1,0,1,0,0,0,0,,16,1*3E
,$GPGGA,235105.00,3653.4939,S,17454.6015,E,0,00,3.7,28.1,M,28.3,M,,*43
,$GNGLL,3653.4939,S,17454.6015,E,235105.00,V,N*77
,$GNGSA,A,1,,,,,,,,,,,,,7.3,3.7,6.2,*06
,$GPGSV,3,1,12,01,30,259,00,03,24,224,,04,02,261,,10,21,039,,0*62
,$GPGSV,3,2,12,12,04,146,,16,02,359,,21,28,290,,22,49,233,,0*64
,$GPGSV,3,3,12,25,26,120,,26,24,013,,31,83,303,,32,43,111,,0*68
,$GQGSV,1,1,04,01,56,248,00,02,06,332,,03,10,323,,07,24,298,,0*68
,$GNRMC,235105.00,V,3653.4939,S,17454.6015,E,,,150621,,,N,V*3B
,$GNVTG,,T,,M,,N,,K,N*32
,$GNZDA,235105.00,15,06,2021,,*7B
,$PSGSA,1,,,,,,,,,,,,,7.3,3.7,6.2,1014,23510500,,,1,00,3,0,B,,0,0,1,0,1,0,0,0,0,,16,1*3F
,$GPGGA,235106.00,3653.4939,S,17454.6015,E,0,00,3.7,28.1,M,28.3,M,,*40
,$GNGLL,3653.4939,S,17454.6015,E,235106.00,V,N*74
,$GNGSA,A,1,,,,,,,,,,,,,7.3,3.7,6.2,*06
,$GPGSV,3,1,12,01,30,259,,03,24,224,,04,02,261,,10,21,039,,0*62
,$GPGSV,3,2,12,12,04,146,,16,02,359,,21,28,290,,22,49,233,,0*64
,$GPGSV,3,3,12,25,26,121,,26,24,013,,31,83,303,,32,43,111,,0*69
,$GQGSV,1,1,04,01,56,248,00,02,06,332,,03,10,323,,07,24,298,,0*68
,$GNRMC,235106.00,V,3653.4939,S,17454.6015,E,,,150621,,,N,V*38
,$GNVTG,,T,,M,,N,,K,N*32
,$GNZDA,235106.00,15,06,2021,,*78
,$PSGSA,1,,,,,,,,,,,,,7.3,3.7,6.2,1014,23510600,,,1,00,3,0,B,,0,0,1,0,0,0,0,0,0,,16,1*3D
,$GPGGA,235107.00,3653.4939,S,17454.6015,E,0,00,3.7,28.1,M,28.3,M,,*41
,$GNGLL,3653.4939,S,17454.6015,E,235107.00,V,N*75
,$GNGSA,A,1,,,,,,,,,,,,,7.3,3.7,6.2,*06
,$GPGSV,3,1,12,01,30,259,,03,24,224,,04,02,261,,10,21,039,,0*62
,$GPGSV,3,2,12,12,04,146,,16,02,359,,21,28,290,,22,49,233,,0*64
,$GPGSV,3,3,12,25,26,121,,26,24,013,,31,83,303,,32,43,111,,0*69
,$GQGSV,1,1,04,01,56,248,00,02,06,332,,03,10,323,,07,24,298,,0*68
,$GNRMC,235107.00,V,3653.4939,S,17454.6015,E,,,150621,,,N,V*39
,$GNVTG,,T,,M,,N,,K,N*32
,$GNZDA,235107.00,15,06,2021,,*79
,$PSGSA,1,,,,,,,,,,,,,7.3,3.7,6.2,1014,23510700,,,1,00,3,0,B,,0,0,0,0,1,0,0,0,0,,16,1*3C
,$GPGGA,235108.00,3653.4939,S,17454.6015,E,0,00,3.7,28.1,M,28.3,M,,*4E
,$GNGLL,3653.4939,S,17454.6015,E,235108.00,V,N*7A
,$GNGSA,A,1,,,,,,,,,,,,,7.3,3.7,6.2,*06
,$GPGSV,3,1,12,01,30,259,,03,24,224,,04,02,261,,10,21,039,,0*62
,$GPGSV,3,2,12,12,04,146,,16,02,359,,21,28,290,,22,49,233,,0*64
,$GPGSV,3,3,12,25,26,121,,26,24,013,,31,83,303,,32,43,111,,0*69
,$GQGSV,1,1,04,01,56,248,00,02,06,332,,03,10,323,,07,24,298,,0*68
,$GNRMC,235108.00,V,3653.4939,S,17454.6015,E,,,150621,,,N,V*36
,$GNVTG,,T,,M,,N,,K,N*32
,$GNZDA,235108.00,15,06,2021,,*76
,$PSGSA,1,,,,,,,,,,,,,7.3,3.7,6.2,1014,23510800,,,1,00,3,0,B,,0,0,0,0,1,0,0,0,0,,16,1*33
,$GPGGA,235109.00,3653.4939,S,17454.6015,E,0,00,3.7,28.1,M,28.3,M,,*4F
,$GNGLL,3653.4939,S,17454.6015,E,235109.00,V,N*7B
,$GNGSA,A,1,,,,,,,,,,,,,7.3,3.7,6.2,*06
,$GPGSV,3,1,12,01,30,259,,03,24,224,,04,02,261,,10,21,039,,0*62
,$GPGSV,3,2,12,12,04,146,,16,02,359,,21,28,290,,22,49,233,,0*64
,$GPGSV,3,3,12,25,26,121,,26,24,013,,31,83,303,,32,43,111,,0*69
,$GQGSV,1,1,04,01,56,248,00,02,06,332,,03,10,323,,07,24,298,,0*68
,$GNRMC,235109.00,V,3653.4939,S,17454.6015,E,,,150621,,,N,V*37
,$GNVTG,,T,,M,,N,,K,N*32
,$GNZDA,235109.00,15,06,2021,,*77
,$PSGSA,1,,,,,,,,,,,,,7.3,3.7,6.2,1014,23510900,,,1,00,3,0,B,,0,0,0,0,1,0,0,0,0,,16,1*32
,$GPGGA,235110.00,3653.4939,S,17454.6015,E,0,00,3.7,28.1,M,28.3,M,,*47
,$GNGLL,3653.4939,S,17454.6015,E,235110.00,V,N*73
,$GNGSA,A,1,,,,,,,,,,,,,7.3,3.7,6.2,*06
,$GPGSV,3,1,12,01,30,259,,03,24,224,,04,02,261,,10,21,039,,0*62
,$GPGSV,3,2,12,12,04,146,,16,02,359,,21,28,290,,22,49,233,,0*64
,$GPGSV,3,3,12,25,26,121,,26,24,014,,31,83,303,,32,43,111,,0*6E
,$GQGSV,1,1,04,01,56,248,00,02,06,332,,03,10,323,00,07,24,298,,0*68
,$GNRMC,235110.00,V,3653.4939,S,17454.6015,E,,,150621,,,N,V*3F
,$GNVTG,,T,,M,,N,,K,N*32
,$GNZDA,235110.00,15,06,2021,,*7F
,$PSGSA,1,,,,,,,,,,,,,7.3,3.7,6.2,1014,23511000,,,1,00,3,0,B,,0,0,1,0,1,0,0,0,0,,16,1*3B
,$GPGGA,235111.00,3653.4939,S,17454.6015,E,0,00,3.7,28.1,M,28.3,M,,*46
,$GNGLL,3653.4939,S,17454.6015,E,235111.00,V,N*72
,$GNGSA,A,1,,,,,,,,,,,,,7.3,3.7,6.2,*06
,$GPGSV,3,1,12,01,30,259,,03,24,224,,04,02,261,,10,21,039,,0*62
,$GPGSV,3,2,12,12,04,146,,16,02,359,,21,28,290,,22,49,233,,0*64
,$GPGSV,3,3,12,25,26,121,,26,24,014,,31,83,303,,32,43,111,,0*6E
,$GQGSV,1,1,04,01,56,248,00,02,06,332,,03,10,323,12,07,24,298,,0*6B
,$GNRMC,235111.00,V,3653.4939,S,17454.6015,E,,,150621,,,N,V*3E
,$GNVTG,,T,,M,,N,,K,N*32
,$GNZDA,235111.00,15,06,2021,,*7E
,$PSGSA,1,,,,,,,,,,,,,7.3,3.7,6.2,1014,23511100,,,1,03,3,0,B,,0,0,1,0,1,0,0,0,0,,16,1*39
,$GPGGA,235112.00,3653.4939,S,17454.6015,E,0,00,3.7,28.1,M,28.3,M,,*45
,$GNGLL,3653.4939,S,17454.6015,E,235112.00,V,N*71
,$GNGSA,A,1,,,,,,,,,,,,,7.3,3.7,6.2,*06
,$GPGSV,3,1,12,01,30,259,,03,24,224,,04,02,261,,10,21,039,,0*62
,$GPGSV,3,2,12,12,04,146,,16,02,359,,21,28,290,,22,49,233,00,0*64
,$GPGSV,3,3,12,25,26,121,,26,24,014,,31,83,303,,32,43,111,,0*6E
,$GQGSV,1,1,04,01,56,248,00,02,06,332,,03,10,323,,07,24,298,,0*68
,$GNRMC,235112.00,V,3653.4939,S,17454.6015,E,,,150621,,,N,V*3D
,$GNVTG,,T,,M,,N,,K,N*32
,$GNZDA,235112.00,15,06,2021,,*7D
,$PSGSA,1,,,,,,,,,,,,,7.3,3.7,6.2,1014,23511200,,,1,00,3,0,B,,0,0,1,0,1,0,0,0,0,,16,1*39
,$GPGGA,235113.00,3653.4939,S,17454.6015,E,0,00,3.7,28.1,M,28.3,M,,*44
,$GNGLL,3653.4939,S,17454.6015,E,235113.00,V,N*70
,$GNGSA,A,1,,,,,,,,,,,,,7.3,3.7,6.2,*06
,$GPGSV,3,1,12,01,30,259,,03,24,224,,04,02,261,,10,21,039,,0*62
,$GPGSV,3,2,12,12,04,146,,16,02,359,,21,28,290,,22,49,233,09,0*6D
,$GPGSV,3,3,12,25,26,121,,26,24,014,,31,83,303,,32,43,111,,0*6E
,$GQGSV,1,1,04,01,56,248,00,02,06,332,,03,10,323,,07,24,298,,0*68
,$GNRMC,235113.00,V,3653.4939,S,17454.6015,E,,,150621,,,N,V*3C
,$GNVTG,,T,,M,,N,,K,N*32
,$GNZDA,235113.00,15,06,2021,,*7C
,$PSGSA,1,,,,,,,,,,,,,7.3,3.7,6.2,1014,23511300,,,1,02,3,0,B,,0,0,1,0,1,0,0,0,0,,16,1*3A
,$GPGGA,235114.00,3653.4939,S,17454.6015,E,0,00,3.7,28.1,M,28.3,M,,*43
,$GNGLL,3653.4939,S,17454.6015,E,235114.00,V,N*77
,$GNGSA,A,1,,,,,,,,,,,,,7.3,3.7,6.2,*06
,$GPGSV,3,1,12,01,30,259,,03,24,224,,04,02,261,,10,21,039,,0*62
,$GPGSV,3,2,12,12,04,146,,16,02,359,,21,28,290,,22,49,233,,0*64
,$GPGSV,3,3,12,25,26,121,,26,24,014,,31,83,303,,32,43,111,,0*6E
,$GQGSV,1,1,04,01,56,248,00,02,06,332,,03,10,323,,07,24,298,,0*68
,$GNRMC,235114.00,V,3653.4939,S,17454.6015,E,,,150621,,,N,V*3B
,$GNVTG,,T,,M,,N,,K,N*32
,$GNZDA,235114.00,15,06,2021,,*7B
,$PSGSA,1,,,,,,,,,,,,,7.3,3.7,6.2,1014,23511400,,,1,00,3,0,B,,0,0,0,0,1,0,0,0,0,,16,1*3E
,$GPGGA,235115.00,3653.4939,S,17454.6015,E,0,00,3.7,28.1,M,28.3,M,,*42
,$GNGLL,3653.4939,S,17454.6015,E,235115.00,V,N*76
,$GNGSA,A,1,,,,,,,,,,,,,7.3,3.7,6.2,*06
,$GPGSV,3,1,12,01,30,259,,03,24,224,,04,02,261,,10,21,039,,0*62
,$GPGSV,3,2,12,12,04,146,,16,02,359,,21,28,290,,22,49,233,00,0*64
,$GPGSV,3,3,12,25,26,121,,26,24,014,,31,83,303,,32,42,111,,0*6F
,$GQGSV,1,1,04,01,56,248,13,02,06,332,,03,10,323,,07,24,298,,0*6A
,$GNRMC,235115.00,V,3653.4939,S,17454.6015,E,,,150621,,,N,V*3A
,$GNVTG,,T,,M,,N,,K,N*32
,$GNZDA,235115.00,15,06,2021,,*7A
,$PSGSA,1,,,,,,,,,,,,,7.3,3.7,6.2,1014,23511500,,,1,03,3,0,B,,0,0,2,0,0,0,0,0,0,,16,1*3F
,$GPGGA,235116.00,3653.4939,S,17454.6015,E,0,00,3.7,28.1,M,28.3,M,,*41
,$GNGLL,3653.4939,S,17454.6015,E,235116.00,V,N*75
,$GNGSA,A,1,,,,,,,,,,,,,7.3,3.7,6.2,*06
,$GPGSV,3,1,12,01,30,259,,03,24,224,,04,02,261,,10,21,039,,0*62
,$GPGSV,3,2,12,12,04,146,,16,02,359,,21,28,290,,22,49,233,00,0*64
,$GPGSV,3,3,12,25,26,121,,26,24,014,,31,83,303,,32,42,111,,0*6F
,$GQGSV,1,1,04,01,56,248,00,02,06,332,,03,10,323,,07,24,298,,0*68
,$GNRMC,235116.00,V,3653.4939,S,17454.6015,E,,,150621,,,N,V*39
,$GNVTG,,T,,M,,N,,K,N*32
,$GNZDA,235116.00,15,06,2021,,*79
,$PSGSA,1,,,,,,,,,,,,,7.3,3.7,6.2,1014,23511600,,,1,00,3,0,B,,0,0,2,0,0,0,0,0,0,,16,1*3F
,$GPGGA,235117.00,3653.4939,S,17454.6015,E,0,00,3.7,28.1,M,28.3,M,,*40
,$GNGLL,3653.4939,S,17454.6015,E,235117.00,V,N*74
,$GNGSA,A,1,,,,,,,,,,,,,7.3,3.7,6.2,*06
,$GPGSV,3,1,12,01,30,259,,03,24,224,,04,02,261,,10,21,039,,0*62
,$GPGSV,3,2,12,12,04,146,,16,02,359,,21,28,290,,22,49,233,,0*64
,$GPGSV,3,3,12,25,26,121,,26,24,014,,31,83,303,,32,42,111,03,0*6C
,$GQGSV,1,1,04,01,56,248,07,02,06,332,,03,10,323,,07,24,298,,0*6F
,$GNRMC,235117.00,V,3653.4939,S,17454.6015,E,,,150621,,,N,V*38
,$GNVTG,,T,,M,,N,,K,N*32
,$GNZDA,235117.00,15,06,2021,,*78
,$PSGSA,1,,,,,,,,,,,,,7.3,3.7,6.2,1014,23511700,,,1,02,3,0,B,,0,0,2,0,0,0,0,0,0,,16,1*3C
,$GPGGA,235118.00,3653.4939,S,17454.6015,E,0,00,3.7,28.1,M,28.3,M,,*4F
,$GNGLL,3653.4939,S,17454.6015,E,235118.00,V,N*7B
,$GNGSA,A,1,,,,,,,,,,,,,7.3,3.7,6.2,*06
,$GPGSV,3,1,12,01,30,259,,03,24,224,,04,02,261,,10,21,039,,0*62
,$GPGSV,3,2,12,12,04,146,,16,02,359,,21,28,290,,22,49,233,,0*64
,$GPGSV,3,3,12,25,26,121,,26,24,014,,31,83,303,,32,42,111,00,0*6F
,$GQGSV,1,1,04,01,56,248,00,02,06,332,,03,10,323,,07,24,298,,0*68
,$GNRMC,235118.00,V,3653.4939,S,17454.6015,E,,,150621,,,N,V*37
,$GNVTG,,T,,M,,N,,K,N*32
,$GNZDA,235118.00,15,06,2021,,*77
,$PSGSA,1,,,,,,,,,,,,,7.3,3.7,6.2,1014,23511800,,,1,00,3,0,B,,0,0,2,0,0,0,0,0,0,,16,1*31
,$GPGGA,235119.00,3653.4939,S,17454.6015,E,0,00,3.7,28.1,M,28.3,M,,*4E
,$GNGLL,3653.4939,S,17454.6015,E,235119.00,V,N*7A
,$GNGSA,A,1,,,,,,,,,,,,,7.3,3.7,6.2,*06
,$GPGSV,3,1,12,01,30,259,,03,24,224,,04,02,261,,10,21,039,,0*62
,$GPGSV,3,2,12,12,04,146,,16,02,359,,21,28,290,,22,49,233,,0*64
,$GPGSV,3,3,12,25,26,121,,26,24,014,,31,83,303,,32,42,111,06,0*69
,$GQGSV,1,1,04,01,56,248,00,02,06,332,,03,10,323,,07,24,298,,0*68
,$GNRMC,235119.00,V,3653.4939,S,17454.6015,E,,,150621,,,N,V*36
,$GNVTG,,T,,M,,N,,K,N*32
,$GNZDA,235119.00,15,06,2021,,*76
,$PSGSA,1,,,,,,,,,,,,,7.3,3.7,6.2,1014,23511900,,,1,01,3,0,B,,0,0,1,0,1,0,0,0,0,,16,1*33
,$GPGGA,235120.00,3653.4939,S,17454.6015,E,0,00,3.7,28.1,M,28.3,M,,*44
,$GNGLL,3653.4939,S,17454.6015,E,235120.00,V,N*70
,$GNGSA,A,1,,,,,,,,,,,,,7.3,3.7,6.2,*06
,$GPGSV,3,1,12,01,30,259,,03,24,224,,04,02,261,,10,21,039,00,0*62
,$GPGSV,3,2,12,12,04,146,,16,02,359,,21,28,290,,22,49,233,,0*64
,$GPGSV,3,3,12,25,26,121,,26,24,014,,31,83,302,,32,42,111,00,0*6E
,$GQGSV,1,1,04,01,56,248,00,02,06,332,,03,10,323,,07,24,298,,0*68
,$GNRMC,235120.00,V,3653.4939,S,17454.6015,E,,,150621,,,N,V*3C
,$GNVTG,,T,,M,,N,,K,N*32
,$GNZDA,235120.00,15,06,2021,,*7C
,$PSGSA,1,,,,,,,,,,,,,7.3,3.7,6.2,1014,23512000,,,1,00,3,0,B,,0,0,2,0,1,0,0,0,0,,16,1*3B
,$GPGGA,235121.00,3653.4939,S,17454.6015,E,0,00,3.7,28.1,M,28.3,M,,*45
,$GNGLL,3653.4939,S,17454.6015,E,235121.00,V,N*71
,$GNGSA,A,1,,,,,,,,,,,,,7.3,3.7,6.2,*06
,$GPGSV,3,1,12,01,30,259,,03,24,224,,04,02,261,,10,21,039,00,0*62
,$GPGSV,3,2,12,12,04,146,,16,02,359,,21,28,290,,22,49,233,,0*64
,$GPGSV,3,3,12,25,26,121,00,26,24,014,,31,83,302,,32,42,111,11,0*6E
,$GQGSV,1,1,04,01,56,248,00,02,06,332,,03,10,323,,07,24,298,,0*68
,$GNRMC,235121.00,V,3653.4939,S,17454.6015,E,,,150621,,,N,V*3D
,$GNVTG,,T,,M,,N,,K,N*32
,$GNZDA,235121.00,15,06,2021,,*7D
,$PSGSA,1,,,,,,,,,,,,,7.3,3.7,6.2,1014,23512100,,,1,02,3,0,B,,0,0,3,0,1,0,0,0,0,,16,1*39
,$GPGGA,235122.00,3653.4939,S,17454.6015,E,0,00,3.7,28.1,M,28.3,M,,*46
,$GNGLL,3653.4939,S,17454.6015,E,235122.00,V,N*72
,$GNGSA,A,1,,,,,,,,,,,,,7.3,3.7,6.2,*06
,$GPGSV,3,1,12,01,30,259,00,03,24,224,,04,02,261,,10,21,039,10,0*63
,$GPGSV,3,2,12,12,04,147,,16,02,359,,21,28,290,,22,49,233,,0*65
,$GPGSV,3,3,12,25,26,121,00,26,24,014,20,31,83,302,,32,42,111,00,0*6C
,$GQGSV,1,1,04,01,56,248,00,02,06,332,,03,10,323,18,07,24,298,,0*61
,$GNRMC,235122.00,V,3653.4939,S,17454.6015,E,,,150621,,,N,V*3E
,$GNVTG,,T,,M,,N,,K,N*32
,$GNZDA,235122.00,15,06,2021,,*7E
,$PSGSA,1,,,,,,,,,,,,,7.3,3.7,6.2,1014,23512200,,,1,12,3,0,B,,0,0,6,0,1,0,0,0,0,,16,1*3E
,$GPGGA,235123.00,3653.4939,S,17454.6015,E,0,00,3.7,28.1,M,28.3,M,,*47
,$GNGLL,3653.4939,S,17454.6015,E,235123.00,V,N*73
,$GNGSA,A,1,,,,,,,,,,,,,7.3,3.7,6.2,*06
,$GPGSV,3,1,12,01,30,259,08,03,24,224,,04,02,261,,10,21,039,00,0*6A
,$GPGSV,3,2,12,12,04,147,,16,02,359,,21,28,290,,22,49,233,,0*65
,$GPGSV,3,3,12,25,26,121,,26,24,014,14,31,83,302,,32,42,111,00,0*6B
,$GQGSV,1,1,04,01,56,248,00,02,06,332,,03,10,323,00,07,24,298,,0*68
,$GNRMC,235123.00,V,3653.4939,S,17454.6015,E,,,150621,,,N,V*3F
,$GNVTG,,T,,M,,N,,K,N*32
,$GNZDA,235123.00,15,06,2021,,*7F
,$PSGSA,1,,,,,,,,,,,,,7.3,3.7,6.2,1014,23512300,,,1,05,3,0,B,,0,0,4,0,2,0,0,0,0,,16,1*38
,$GPGGA,235124.00,3653.4939,S,17454.6015,E,0,00,3.7,28.1,M,28.3,M,,*40
,$GNGLL,3653.4939,S,17454.6015,E,235124.00,V,N*74
,$GNGSA,A,1,,,,,,,,,,,,,7.3,3.7,6.2,*06
,$GPGSV,3,1,12,01,30,259,00,03,24,224,,04,02,261,,10,21,039,12,0*61
,$GPGSV,3,2,12,12,04,147,,16,02,359,,21,28,290,,22,49,233,,0*65
,$GPGSV,3,3,12,25,26,121,,26,24,014,06,31,83,302,,32,42,111,00,0*68
,$GQGSV,1,1,04,01,56,248,00,02,06,332,,03,10,323,00,07,24,298,,0*68
,$GNRMC,235124.00,V,3653.4939,S,17454.6015,E,,,150621,,,N,V*38
,$GNVTG,,T,,M,,N,,K,N*32
,$GNZDA,235124.00,15,06,2021,,*78
,$PSGSA,1,,,,,,,,,,,,,7.3,3.7,6.2,1014,23512400,,,1,04,3,0,B,,0,0,4,0,2,0,0,0,0,,16,1*3E
,$GPGGA,235125.00,3653.4939,S,17454.6015,E,0,00,3.7,28.1,M,28.3,M,,*41
,$GNGLL,3653.4939,S,17454.6015,E,235125.00,V,N*75
,$GNGSA,A,1,,,,,,,,,,,,,7.3,3.7,6.2,*06
,$GPGSV,3,1,12,01,30,259,,03,24,224,,04,02,261,,10,21,039,00,0*62
,$GPGSV,3,2,12,12,04,147,,16,02,359,,21,28,290,,22,49,233,,0*65
,$GPGSV,3,3,12,25,26,121,,26,24,014,03,31,83,302,,32,42,111,00,0*6D
,$GQGSV,1,1,04,01,56,248,00,02,06,332,,03,10,323,00,07,24,298,,0*68
,$GNRMC,235125.00,V,3653.4939,S,17454.6015,E,,,150621,,,N,V*39
,$GNVTG,,T,,M,,N,,K,N*32
,$GNZDA,235125.00,15,06,2021,,*79
,$PSGSA,1,,,,,,,,,,,,,7.3,3.7,6.2,1014,23512500,,,1,00,3,0,B,,0,0,2,0,3,0,0,0,0,,16,1*3C
,$GPGGA,235126.00,3653.4939,S,17454.6015,E,0,00,3.7,28.1,M,28.3,M,,*42
,$GNGLL,3653.4939,S,17454.6015,E,235126.00,V,N*76
,$GNGSA,A,1,,,,,,,,,,,,,7.3,3.7,6.2,*06
,$GPGSV,3,1,12,01,30,259,,03,24,224,,04,02,261,,10,21,039,00,0*62
,$GPGSV,3,2,12,12,04,147,,16,02,359,,21,28,290,,22,49,233,,0*65
,$GPGSV,3,3,12,25,26,121,,26,24,014,14,31,83,302,,32,42,111,00,0*6B
,$GQGSV,1,1,04,01,56,248,00,02,06,332,,03,10,323,00,07,24,298,,0*68
,$GNRMC,235126.00,V,3653.4939,S,17454.6015,E,,,150621,,,N,V*3A
,$GNVTG,,T,,M,,N,,K,N*32
,$GNZDA,235126.00,15,06,2021,,*7A
,$PSGSA,1,,,,,,,,,,,,,7.3,3.7,6.2,1014,23512600,,,1,03,3,0,B,,0,0,1,0,4,0,0,0,0,,16,1*38
,$GPGGA,235127.00,3653.4939,S,17454.6015,E,0,00,3.7,28.1,M,28.3,M,,*43
,$GNGLL,3653.4939,S,17454.6015,E,235127.00,V,N*77
,$GNGSA,A,1,,,,,,,,,,,,,7.3,3.7,6.2,*06
,$GPGSV,3,1,12,01,30,259,,03,24,224,,04,02,261,,10,21,039,00,0*62
,$GPGSV,3,2,12,12,04,147,,16,02,359,,21,28,290,,22,49,233,,0*65
,$GPGSV,3,3,12,25,26,121,,26,24,014,03,31,83,302,,32,42,111,00,0*6D
,$GQGSV,1,1,04,01,56,248,08,02,06,332,,03,10,323,00,07,24,298,,0*60
,$GNRMC,235127.00,V,3653.4939,S,17454.6015,E,,,150621,,,N,V*3B
,$GNVTG,,T,,M,,N,,K,N*32
,$GNZDA,235127.00,15,06,2021,,*7B
,$PSGSA,1,,,,,,,,,,,,,7.3,3.7,6.2,1014,23512700,,,1,02,3,0,B,,0,0,2,0,3,0,0,0,0,,16,1*3C
,$GPGGA,235128.00,3653.4939,S,17454.6015,E,0,00,3.7,28.1,M,28.3,M,,*4C
,$GNGLL,3653.4939,S,17454.6015,E,235128.00,V,N*78
,$GNGSA,A,1,,,,,,,,,,,,,7.3,3.7,6.2,*06
,$GPGSV,3,1,12,01,30,259,,03,24,224,,04,02,261,,10,21,039,00,0*62
,$GPGSV,3,2,12,12,04,147,,16,02,359,,21,28,290,,22,49,233,,0*65
,$GPGSV,3,3,12,25,26,121,,26,24,014,00,31,83,302,,32,42,111,00,0*6E
,$GQGSV,1,1,04,01,56,248,00,02,06,332,,03,10,323,00,07,24,298,,0*68
,$GNRMC,235128.00,V,3653.4939,S,17454.6015,E,,,150621,,,N,V*34
,$GNVTG,,T,,M,,N,,K,N*32
,$GNZDA,235128.00,15,06,2021,,*74
,$PSGSA,1,,,,,,,,,,,,,7.3,3.7,6.2,1014,23512800,,,1,00,3,0,B,,0,0,2,0,3,0,0,0,0,,16,1*31
,$GPGGA,235129.00,3653.4939,S,17454.6015,E,0,00,3.7,28.1,M,28.3,M,,*4D
,$GNGLL,3653.4939,S,17454.6015,E,235129.00,V,N*79
,$GNGSA,A,1,,,,,,,,,,,,,7.3,3.7,6.2,*06
,$GPGSV,3,1,12,01,30,259,,03,24,224,,04,02,261,,10,21,039,00,0*62
,$GPGSV,3,2,12,12,04,147,,16,02,359,,21,28,290,,22,49,233,,0*65
,$GPGSV,3,3,12,25,26,121,,26,24,014,03,31,83,302,,32,42,111,00,0*6D
,$GQGSV,1,1,04,01,56,248,14,02,06,332,,03,10,323,00,07,24,298,,0*6D
,$GNRMC,235129.00,V,3653.4939,S,17454.6015,E,,,150621,,,N,V*35
,$GNVTG,,T,,M,,N,,K,N*32
,$GNZDA,235129.00,15,06,2021,,*75
,$PSGSA,1,,,,,,,,,,,,,7.3,3.7,6.2,1014,23512900,,,1,04,3,0,B,,0,0,2,0,3,0,0,0,0,,16,1*34
,$GPGGA,235130.00,3653.4939,S,17454.6015,E,0,00,3.7,28.1,M,28.3,M,,*45
,$GNGLL,3653.4939,S,17454.6015,E,235130.00,V,N*71
,$GNGSA,A,1,,,,,,,,,,,,,7.3,3.7,6.2,*06
,$GPGSV,3,1,12,01,30,259,,03,24,224,,04,02,261,,10,21,039,00,0*62
,$GPGSV,3,2,12,12,04,147,,16,02,359,,21,28,290,,22,49,233,,0*65
,$GPGSV,3,3,12,25,26,121,,26,24,014,00,31,83,302,,32,42,111,00,0*6E
,$GQGSV,1,1,04,01,56,248,03,02,06,332,,03,10,323,00,07,24,298,10,0*6A
,$GNRMC,235130.00,V,3653.4939,S,17454.6015,E,,,150621,,,N,V*3D
,$GNVTG,,T,,M,,N,,K,N*32
,$GNZDA,235130.00,15,06,2021,,*7D
,$PSGSA,1,,,,,,,,,,,,,7.3,3.7,6.2,1014,23513000,,,1,03,3,0,B,,0,0,2,0,4,0,0,0,0,,16,1*3C
,$GPGGA,235131.00,3653.4939,S,17454.6015,E,0,00,3.7,28.1,M,28.3,M,,*44
,$GNGLL,3653.4939,S,17454.6015,E,235131.00,V,N*70
,$GNGSA,A,1,,,,,,,,,,,,,7.3,3.7,6.2,*06
,$GPGSV,3,1,12,01,30,259,,03,24,224,,04,02,261,,10,21,039,00,0*62
,$GPGSV,3,2,12,12,04,147,,16,02,359,,21,28,290,,22,49,233,,0*65
,$GPGSV,3,3,12,25,26,121,,26,24,014,00,31,83,302,,32,42,110,00,0*6F
,$GQGSV,1,1,04,01,56,248,00,02,06,332,,03,10,323,00,07,24,298,08,0*60
,$GNRMC,235131.00,V,3653.4939,S,17454.6015,E,,,150621,,,N,V*3C
,$GNVTG,,T,,M,,N,,K,N*32
,$GNZDA,235131.00,15,06,2021,,*7C
,$PSGSA,1,,,,,,,,,,,,,7.3,3.7,6.2,1014,23513100,,,1,02,3,0,B,,0,0,2,0,4,0,0,0,0,,16,1*3C
,$GPGGA,235132.00,3653.4939,S,17454.6015,E,0,00,3.7,28.1,M,28.3,M,,*47
,$GNGLL,3653.4939,S,17454.6015,E,235132.00,V,N*73
,$GNGSA,A,1,,,,,,,,,,,,,7.3,3.7,6.2,*06
,$GPGSV,3,1,12,01,30,259,,03,24,224,,04,02,261,,10,21,039,00,0*62
,$GPGSV,3,2,12,12,04,147,,16,02,359,,21,28,290,,22,49,233,,0*65
,$GPGSV,3,3,12,25,26,121,,26,24,014,00,31,83,302,,32,42,110,00,0*6F
,$GQGSV,1,1,04,01,56,248,00,02,06,332,,03,10,323,00,07,24,298,,0*68
,$GNRMC,235132.00,V,3653.4939,S,17454.6015,E,,,150621,,,N,V*3F
,$GNVTG,,T,,M,,N,,K,N*32
,$GNZDA,235132.00,15,06,2021,,*7F
,$PSGSA,1,,,,,,,,,,,,,7.3,3.7,6.2,1014,23513200,,,1,00,3,0,B,,0,0,0,0,5,0,0,0,0,,16,1*3E
,$GPGGA,235133.00,3653.4939,S,17454.6015,E,0,00,3.7,28.1,M,28.3,M,,*46
,$GNGLL,3653.4939,S,17454.6015,E,235133.00,V,N*72
,$GNGSA,A,1,,,,,,,,,,,,,7.3,3.7,6.2,*06
,$GPGSV,3,1,12,01,30,259,,03,24,224,,04,02,261,,10,21,039,00,0*62
,$GPGSV,3,2,12,12,04,147,,16,02,359,,21,28,290,,22,49,233,,0*65
,$GPGSV,3,3,12,25,26,121,,26,24,014,00,31,83,302,,32,42,110,,0*6F
,$GQGSV,1,1,04,01,56,248,00,02,06,332,,03,10,323,00,07,24,298,,0*68
,$GNRMC,235133.00,V,3653.4939,S,17454.6015,E,,,150621,,,N,V*3E
,$GNVTG,,T,,M,,N,,K,N*32
,$GNZDA,235133.00,15,06,2021,,*7E
,$PSGSA,1,,,,,,,,,,,,,7.3,3.7,6.2,1014,23513300,,,1,00,3,0,B,,0,0,0,0,4,0,0,0,0,,16,1*3E
,$GPGGA,235134.00,3653.4939,S,17454.6015,E,0,00,3.7,28.1,M,28.3,M,,*41
,$GNGLL,3653.4939,S,17454.6015,E,235134.00,V,N*75
,$GNGSA,A,1,,,,,,,,,,,,,7.3,3.7,6.2,*06
,$GPGSV,3,1,12,01,30,259,,03,24,224,,04,02,261,,10,21,039,00,0*62
,$GPGSV,3,2,12,12,04,147,,16,02,359,,21,28,290,,22,49,233,,0*65
,$GPGSV,3,3,12,25,26,121,,26,24,014,00,31,83,302,,32,42,110,,0*6F
,$GQGSV,1,1,04,01,56,248,00,02,06,332,,03,10,323,00,07,24,298,,0*68
,$GNRMC,235134.00,V,3653.4939,S,17454.6015,E,,,150621,,,N,V*39
,$GNVTG,,T,,M,,N,,K,N*32
,$GNZDA,235134.00,15,06,2021,,*79
,$PSGSA,1,,,,,,,,,,,,,7.3,3.7,6.2,1014,23513400,,,1,00,3,0,B,,0,0,0,0,4,0,0,0,0,,16,1*39
,$GPGGA,235135.00,3653.4939,S,17454.6015,E,0,00,3.7,28.1,M,28.3,M,,*40
,$GNGLL,3653.4939,S,17454.6015,E,235135.00,V,N*74
,$GNGSA,A,1,,,,,,,,,,,,,7.3,3.7,6.2,*06
,$GPGSV,3,1,12,01,30,259,,03,24,224,00,04,02,261,,10,21,039,00,0*62
,$GPGSV,3,2,12,12,04,147,,16,02,359,,21,28,290,,22,49,233,,0*65
,$GPGSV,3,3,12,25,26,121,,26,24,014,00,31,83,302,,32,42,110,,0*6F
,$GQGSV,1,1,04,01,56,248,00,02,06,332,,03,10,323,,07,24,298,,0*68
,$GNRMC,235135.00,V,3653.4939,S,17454.6015,E,,,150621,,,N,V*38
,$GNVTG,,T,,M,,N,,K,N*32
,$GNZDA,235135.00,15,06,2021,,*78
,$PSGSA,1,,,,,,,,,,,,,7.3,3.7,6.2,1014,23513500,,,1,00,3,0,B,,0,0,1,0,3,0,0,0,0,,16,1*3E
,$GPGGA,235136.00,3653.4939,S,17454.6015,E,0,00,3.7,28.1,M,28.3,M,,*43
,$GNGLL,3653.4939,S,17454.6015,E,235136.00,V,N*77
,$GNGSA,A,1,,,,,,,,,,,,,7.3,3.7,6.2,*06
,$GPGSV,3,1,12,01,30,259,,03,24,224,00,04,02,261,,10,21,039,,0*62
,$GPGSV,3,2,12,12,04,147,,16,02,359,,21,28,290,,22,49,233,,0*65
,$GPGSV,3,3,12,25,26,121,,26,24,014,00,31,83,302,,32,42,110,,0*6F
,$GQGSV,1,1,04,01,56,248,00,02,06,332,,03,10,323,,07,24,298,,0*68
,$GNRMC,235136.00,V,3653.4939,S,17454.6015,E,,,150621,,,N,V*3B
,$GNVTG,,T,,M,,N,,K,N*32
,$GNZDA,235136.00,15,06,2021,,*7B
,$PSGSA,1,,,,,,,,,,,,,7.3,3.7,6.2,1014,23513600,,,1,00,3,0,B,,0,0,1,0,2,0,0,0,0,,16,1*3C
,$GPGGA,235137.00,3653.4939,S,17454.6015,E,0,00,3.7,28.1,M,28.3,M,,*42
,$GNGLL,3653.4939,S,17454.6015,E,235137.00,V,N*76
,$GNGSA,A,1,,,,,,,,,,,,,7.3,3.7,6.2,*06
,$GPGSV,3,1,12,01,30,259,,03,24,224,,04,02,261,,10,21,039,,0*62
,$GPGSV,3,2,12,12,04,147,,16,02,359,,21,28,290,,22,49,233,,0*65
,$GPGSV,3,3,12,25,26,121,,26,24,014,00,31,83,302,09,32,42,110,00,0*66
,$GQGSV,1,1,04,01,56,248,00,02,06,332,,03,10,323,,07,24,298,,0*68
,$GNRMC,235137.00,V,3653.4939,S,17454.6015,E,,,150621,,,N,V*3A
,$GNVTG,,T,,M,,N,,K,N*32
,$GNZDA,235137.00,15,06,2021,,*7A
,$PSGSA,1,,,,,,,,,,,,,7.3,3.7,6.2,1014,23513700,,,1,02,3,0,B,,0,0,2,0,2,0,0,0,0,,16,1*3C
,$GPGGA,235138.00,3653.4939,S,17454.6015,E,0,00,3.7,28.1,M,28.3,M,,*4D
,$GNGLL,3653.4939,S,17454.6015,E,235138.00,V,N*79
,$GNGSA,A,1,,,,,,,,,,,,,7.3,3.7,6.2,*06
,$GPGSV,3,1,12,01,30,259,,03,24,224,,04,02,261,,10,21,039,,0*62
,$GPGSV,3,2,12,12,04,147,,16,02,359,,21,28,290,,22,49,233,,0*65
,$GPGSV,3,3,12,25,26,121,,26,24,014,12,31,83,302,03,32,42,110,00,0*6F
,$GQGSV,1,1,04,01,56,248,00,02,06,332,,03,10,323,,07,24,298,,0*68
,$GNRMC,235138.00,V,3653.4939,S,17454.6015,E,,,150621,,,N,V*35
,$GNVTG,,T,,M,,N,,K,N*32
,$GNZDA,235138.00,15,06,2021,,*75
,$PSGSA,1,,,,,,,,,,,,,7.3,3.7,6.2,1014,23513800,,,1,03,3,0,B,,0,0,3,0,1,0,0,0,0,,16,1*30
,$GPGGA,235139.00,3653.4939,S,17454.6015,E,0,00,3.7,28.1,M,28.3,M,,*4C
,$GNGLL,3653.4939,S,17454.6015,E,235139.00,V,N*78
,$GNGSA,A,1,,,,,,,,,,,,,7.3,3.7,6.2,*06
,$GPGSV,3,1,12,01,30,259,,03,24,224,,04,02,261,,10,21,039,,0*62
,$GPGSV,3,2,12,12,04,147,,16,02,359,,21,28,290,,22,49,233,,0*65
,$GPGSV,3,3,12,25,26,121,,26,24,014,00,31,83,302,,32,42,110,,0*6F
,$GQGSV,1,1,04,01,56,248,00,02,06,332,,03,10,323,,07,24,298,,0*68
,$GNRMC,235139.00,V,3653.4939,S,17454.6015,E,,,150621,,,N,V*34
,$GNVTG,,T,,M,,N,,K,N*32
,$GNZDA,235139.00,15,06,2021,,*74
,$PSGSA,1,,,,,,,,,,,,,7.3,3.7,6.2,1014,23513900,,,1,00,3,0,B,,0,0,1,0,1,0,0,0,0,,16,1*30
,$GPGGA,235140.00,3653.4939,S,17454.6015,E,0,00,3.7,28.1,M,28.3,M,,*42
,$GNGLL,3653.4939,S,17454.6015,E,235140.00,V,N*76
,$GNGSA,A,1,,,,,,,,,,,,,7.3,3.7,6.2,*06
,$GPGSV,3,1,12,01,30,259,,03,24,224,,04,02,261,,10,21,039,,0*62
,$GPGSV,3,2,12,12,04,147,,16,02,359,,21,28,290,,22,49,233,17,0*63
,$GPGSV,3,3,12,25,26,121,,26,24,014,00,31,83,302,,32,42,110,00,0*6F
,$GQGSV,1,1,04,01,56,248,00,02,06,332,,03,10,323,,07,24,298,,0*68
,$GNRMC,235140.00,V,3653.4939,S,17454.6015,E,,,150621,,,N,V*3A
,$GNVTG,,T,,M,,N,,K,N*32
,$GNZDA,235140.00,15,06,2021,,*7A
,$PSGSA,1,,,,,,,,,,,,,7.3,3.7,6.2,1014,23514000,,,1,04,3,0,B,,0,0,2,0,2,0,0,0,0,,16,1*3A
,$GPGGA,235141.00,3653.4939,S,17454.6015,E,0,00,3.7,28.1,M,28.3,M,,*43
,$GNGLL,3653.4939,S,17454.6015,E,235141.00,V,N*77
,$GNGSA,A,1,,,,,,,,,,,,,7.3,3.7,6.2,*06
,$GPGSV,3,1,12,01,30,259,,03,24,224,00,04,02,261,,10,21,039,,0*62
,$GPGSV,3,2,12,12,04,147,,16,02,359,,21,28,290,,22,49,233,07,0*62
,$GPGSV,3,3,12,25,26,121,,26,24,014,00,31,83,302,,32,42,110,00,0*6F
,$GQGSV,1,1,04,01,56,248,00,02,06,332,,03,10,323,,07,24,298,,0*68
,$GNRMC,235141.00,V,3653.4939,S,17454.6015,E,,,150621,,,N,V*3B
,$GNVTG,,T,,M,,N,,K,N*32
,$GNZDA,235141.00,15,06,2021,,*7B
,$PSGSA,1,,,,,,,,,,,,,7.3,3.7,6.2,1014,23514100,,,1,01,3,0,B,,0,0,3,0,2,0,0,0,0,,16,1*3F
,$GPGGA,235142.00,3653.4939,S,17454.6015,E,0,00,3.7,28.1,M,28.3,M,,*40
,$GNGLL,3653.4939,S,17454.6015,E,235142.00,V,N*74
,$GNGSA,A,1,,,,,,,,,,,,,7.3,3.7,6.2,*06
,$GPGSV,3,1,12,01,30,259,,03,24,224,00,04,02,261,,10,21,039,,0*62
,$GPGSV,3,2,12,12,04,147,,16,02,359,,21,28,290,,22,49,233,,0*65
,$GPGSV,3,3,12,25,26,121,,26,24,014,12,31,83,302,,32,42,110,,0*6C
,$GQGSV,1,1,04,01,56,248,,02,06,332,,03,10,323,,07,24,298,,0*68
,$GNRMC,235142.00,V,3653.4939,S,17454.6015,E,,,150621,,,N,V*38
,$GNVTG,,T,,M,,N,,K,N*32
,$GNZDA,235142.00,15,06,2021,,*78
,$PSGSA,1,,,,,,,,,,,,,7.3,3.7,6.2,1014,23514200,,,1,03,3,0,B,,0,0,2,0,0,0,0,0,0,,16,1*3D
,$GPGGA,235143.00,3653.4939,S,17454.6015,E,0,00,3.7,28.1,M,28.3,M,,*41
,$GNGLL,3653.4939,S,17454.6015,E,235143.00,V,N*75
,$GNGSA,A,1,,,,,,,,,,,,,7.3,3.7,6.2,*06
,$GPGSV,3,1,12,01,30,259,,03,24,224,00,04,02,261,,10,21,039,,0*62
,$GPGSV,3,2,12,12,04,147,,16,02,359,,21,28,290,,22,49,233,,0*65
,$GPGSV,3,3,12,25,26,121,,26,24,014,00,31,83,302,10,32,42,110,,0*6E
,$GQGSV,1,1,04,01,56,248,,02,06,332,,03,10,323,,07,24,298,,0*68
,$GNRMC,235143.00,V,3653.4939,S,17454.6015,E,,,150621,,,N,V*39
,$GNVTG,,T,,M,,N,,K,N*32
,$GNZDA,235143.00,15,06,2021,,*79
,$PSGSA,1,,,,,,,,,,,,,7.3,3.7,6.2,1014,23514300,,,1,02,3,0,B,,0,0,3,0,0,0,0,0,0,,16,1*3C
,$GPGGA,235144.00,3653.4939,S,17454.6015,E,0,00,3.7,28.1,M,28.3,M,,*46
,$GNGLL,3653.4939,S,17454.6015,E,235144.00,V,N*72
,$GNGSA,A,1,,,,,,,,,,,,,7.3,3.7,6.2,*06
,$GPGSV,3,1,12,01,30,259,,03,24,224,,04,02,261,,10,21,039,,0*62
,$GPGSV,3,2,12,12,04,147,,16,02,359,,21,28,290,,22,49,233,,0*65
,$GPGSV,3,3,12,25,26,121,,26,24,014,08,31,83,302,00,32,42,110,,0*67
,$GQGSV,1,1,04,01,56,248,,02,06,332,,03,10,323,,07,24,298,,0*68
,$GNRMC,235144.00,V,3653.4939,S,17454.6015,E,,,150621,,,N,V*3E
,$GNVTG,,T,,M,,N,,K,N*32
,$GNZDA,235144.00,15,06,2021,,*7E
,$PSGSA,1,,,,,,,,,,,,,7.3,3.7,6.2,1014,23514400,,,1,02,3,0,B,,0,0,2,0,0,0,0,0,0,,16,1*3A
,$GPGGA,235145.00,3653.4939,S,17454.6015,E,0,00,3.7,28.1,M,28.3,M,,*47
,$GNGLL,3653.4939,S,17454.6015,E,235145.00,V,N*73
,$GNGSA,A,1,,,,,,,,,,,,,7.3,3.7,6.2,*06
,$GPGSV,3,1,12,01,30,259,,03,24,224,,04,02,261,,10,21,039,,0*62
,$GPGSV,3,2,12,12,04,147,,16,02,359,,21,28,290,,22,49,233,,0*65
,$GPGSV,3,3,12,25,26,121,,26,24,014,12,31,83,302,,32,42,110,00,0*6C
,$GQGSV,1,1,04,01,56,248,,02,06,332,,03,10,323,,07,24,298,,0*68
,$GNRMC,235145.00,V,3653.4939,S,17454.6015,E,,,150621,,,N,V*3F
,$GNVTG,,T,,M,,N,,K,N*32
,$GNZDA,235145.00,15,06,2021,,*7F
,$PSGSA,1,,,,,,,,,,,,,7.3,3.7,6.2,1014,23514500,,,1,03,3,0,B,,0,0,2,0,0,0,0,0,0,,16,1*3A
,$GPGGA,235146.00,3653.4939,S,17454.6015,E,0,00,3.7,28.1,M,28.3,M,,*44
,$GNGLL,3653.4939,S,17454.6015,E,235146.00,V,N*70
,$GNGSA,A,1,,,,,,,,,,,,,7.3,3.7,6.2,*06
,$GPGSV,3,1,12,01,30,259,,03,24,224,,04,02,261,,10,21,039,,0*62
,$GPGSV,3,2,12,12,04,147,,16,02,359,,21,28,290,,22,49,233,00,0*65
,$GPGSV,3,3,12,25,26,121,,26,24,014,03,31,83,301,,32,42,110,00,0*6F
,$GQGSV,1,1,04,01,56,248,,02,06,332,,03,10,323,,07,24,298,,0*68
,$GNRMC,235146.00,V,3653.4939,S,17454.6015,E,,,150621,,,N,V*3C
,$GNVTG,,T,,M,,N,,K,N*32
,$GNZDA,235146.00,15,06,2021,,*7C
,$PSGSA,1,,,,,,,,,,,,,7.3,3.7,6.2,1014,23514600,,,1,00,3,0,B,,0,0,3,0,0,0,0,0,0,,16,1*3B
,$GPGGA,235147.00,3653.4939,S,17454.6015,E,0,00,3.7,28.1,M,28.3,M,,*45
,$GNGLL,3653.4939,S,17454.6015,E,235147.00,V,N*71
,$GNGSA,A,1,,,,,,,,,,,,,7.3,3.7,6.2,*06
,$GPGSV,3,1,12,01,30,259,,03,24,224,,04,02,261,,10,21,039,00,0*62
,$GPGSV,3,2,12,12,04,147,,16,02,359,,21,28,290,,22,49,233,13,0*67
,$GPGSV,3,3,12,25,26,121,,26,24,014,00,31,83,301,,32,42,110,,0*6C
,$GQGSV,1,1,04,01,56,248,,02,06,332,,03,10,323,,07,24,298,,0*68
,$GNRMC,235147.00,V,3653.4939,S,17454.6015,E,,,150621,,,N,V*3D
,$GNVTG,,T,,M,,N,,K,N*32
,$GNZDA,235147.00,15,06,2021,,*7D
,$PSGSA,1,,,,,,,,,,,,,7.3,3.7,6.2,1014,23514700,,,1,03,3,0,B,,0,0,3,0,0,0,0,0,0,,16,1*39
,$GPGGA,235148.00,3653.4939,S,17454.6015,E,0,00,3.7,28.1,M,28.3,M,,*4A
,$GNGLL,3653.4939,S,17454.6015,E,235148.00,V,N*7E
,$GNGSA,A,1,,,,,,,,,,,,,7.3,3.7,6.2,*06
,$GPGSV,3,1,12,01,30,259,,03,24,224,,04,02,261,,10,21,039,00,0*62
,$GPGSV,3,2,12,12,04,147,,16,02,359,,21,28,290,,22,49,233,08,0*6D
,$GPGSV,3,3,12,25,26,121,,26,24,014,00,31,83,301,,32,42,110,,0*6C
,$GQGSV,1,1,04,01,56,248,,02,06,332,,03,10,323,,07,24,298,,0*68
,$GNRMC,235148.00,V,3653.4939,S,17454.6015,E,,,150621,,,N,V*32
,$GNVTG,,T,,M,,N,,K,N*32
,$GNZDA,235148.00,15,06,2021,,*72
,$PSGSA,1,,,,,,,,,,,,,7.3,3.7,6.2,1014,23514800,,,1,02,3,0,B,,0,0,2,0,1,0,0,0,0,,16,1*37
,$GPGGA,235149.00,3653.4939,S,17454.6015,E,0,00,3.7,28.1,M,28.3,M,,*4B
,$GNGLL,3653.4939,S,17454.6015,E,235149.00,V,N*7F
,$GNGSA,A,1,,,,,,,,,,,,,7.3,3.7,6.2,*06
,$GPGSV,3,1,12,01,30,259,,03,24,224,,04,02,261,,10,21,039,,0*62
,$GPGSV,3,2,12,12,04,147,,16,02,359,,21,28,290,,22,49,233,,0*65
,$GPGSV,3,3,12,25,26,121,,26,24,014,00,31,83,301,,32,42,110,,0*6C
,$GQGSV,1,1,04,01,56,248,,02,06,332,,03,10,323,,07,24,298,,0*68
,$GNRMC,235149.00,V,3653.4939,S,17454.6015,E,,,150621,,,N,V*33
,$GNVTG,,T,,M,,N,,K,N*32
,$GNZDA,235149.00,15,06,2021,,*73
,$PSGSA,1,,,,,,,,,,,,,7.3,3.7,6.2,1014,23514900,,,1,00,3,0,B,,0,0,0,0,1,0,0,0,0,,16,1*36
,$GPGGA,235150.00,3653.4939,S,17454.6015,E,0,00,3.7,28.1,M,28.3,M,,*43
,$GNGLL,3653.4939,S,17454.6015,E,235150.00,V,N*77
,$GNGSA,A,1,,,,,,,,,,,,,7.3,3.7,6.2,*06
,$GPGSV,3,1,12,01,30,259,,03,24,224,,04,02,261,,10,21,039,,0*62
,$GPGSV,3,2,12,12,04,147,,16,02,359,,21,28,290,,22,49,233,,0*65
,$GPGSV,3,3,12,25,26,121,,26,24,014,00,31,83,301,,32,42,110,,0*6C
,$GQGSV,1,1,04,01,56,248,,02,06,332,,03,10,323,,07,24,298,,0*68
,$GNRMC,235150.00,V,3653.4939,S,17454.6015,E,,,150621,,,N,V*3B
,$GNVTG,,T,,M,,N,,K,N*32
,$GNZDA,235150.00,15,06,2021,,*7B
,$PSGSA,1,,,,,,,,,,,,,7.3,3.7,6.2,1014,23515000,,,1,00,3,0,B,,0,0,0,0,1,0,0,0,0,,16,1*3E
,$GPGGA,235151.00,3653.4939,S,17454.6015,E,0,00,3.7,28.1,M,28.3,M,,*42
,$GNGLL,3653.4939,S,17454.6015,E,235151.00,V,N*76
,$GNGSA,A,1,,,,,,,,,,,,,7.3,3.7,6.2,*06
,$GPGSV,3,1,12,01,30,259,,03,24,224,,04,02,261,,10,21,039,,0*62
,$GPGSV,3,2,12,12,04,147,,16,02,359,,21,28,290,,22,49,233,,0*65
,$GPGSV,3,3,12,25,26,121,,26,25,014,00,31,83,301,,32,42,110,,0*6D
,$GQGSV,1,1,04,01,56,248,,02,06,332,,03,10,323,,07,24,298,,0*68
,$GNRMC,235151.00,V,3653.4939,S,17454.6015,E,,,150621,,,N,V*3A
,$GNVTG,,T,,M,,N,,K,N*32
,$GNZDA,235151.00,15,06,2021,,*7A
,$PSGSA,1,,,,,,,,,,,,,7.3,3.7,6.2,1014,23515100,,,1,00,3,0,B,,0,0,0,0,1,0,0,0,0,,16,1*3F
,$GPGGA,235152.00,3653.4939,S,17454.6015,E,0,00,3.7,28.1,M,28.3,M,,*41
,$GNGLL,3653.4939,S,17454.6015,E,235152.00,V,N*75
,$GNGSA,A,1,,,,,,,,,,,,,7.3,3.7,6.2,*06
,$GPGSV,3,1,12,01,30,259,,03,24,224,,04,02,261,,10,21,039,,0*62
,$GPGSV,3,2,12,12,04,147,,16,02,359,,21,28,290,,22,49,233,,0*65
,$GPGSV,3,3,12,25,26,121,,26,25,014,00,31,83,301,,32,42,110,,0*6D
,$GQGSV,1,1,04,01,56,248,,02,06,332,,03,10,323,,07,24,298,,0*68
,$GNRMC,235152.00,V,3653.4939,S,17454.6015,E,,,150621,,,N,V*39
,$GNVTG,,T,,M,,N,,K,N*32
,$GNZDA,235152.00,15,06,2021,,*79
,$PSGSA,1,,,,,,,,,,,,,7.3,3.7,6.2,1014,23515200,,,1,00,3,0,B,,0,0,0,0,1,0,0,0,0,,16,1*3C
,$GPGGA,235153.00,3653.4939,S,17454.6015,E,0,00,3.7,28.1,M,28.3,M,,*40
,$GNGLL,3653.4939,S,17454.6015,E,235153.00,V,N*74
,$GNGSA,A,1,,,,,,,,,,,,,7.3,3.7,6.2,*06
,$GPGSV,3,1,12,01,30,259,,03,24,224,,04,02,261,,10,21,039,,0*62
,$GPGSV,3,2,12,12,04,147,,16,02,359,,21,28,290,,22,49,233,,0*65
,$GPGSV,3,3,12,25,26,121,,26,25,014,00,31,83,301,,32,42,110,,0*6D
,$GQGSV,1,1,04,01,56,248,,02,06,332,,03,10,323,,07,24,298,,0*68
,$GNRMC,235153.00,V,3653.4939,S,17454.6015,E,,,150621,,,N,V*38
,$GNVTG,,T,,M,,N,,K,N*32
,$GNZDA,235153.00,15,06,2021,,*78
,$PSGSA,1,,,,,,,,,,,,,7.3,3.7,6.2,1014,23515300,,,1,00,3,0,B,,0,0,0,0,1,0,0,0,0,,16,1*3D
,$GPGGA,235154.00,3653.4939,S,17454.6015,E,0,00,3.7,28.1,M,28.3,M,,*47
,$GNGLL,3653.4939,S,17454.6015,E,235154.00,V,N*73
,$GNGSA,A,1,,,,,,,,,,,,,7.3,3.7,6.2,*06
,$GPGSV,3,1,12,01,30,259,,03,24,224,,04,02,261,,10,21,039,,0*62
,$GPGSV,3,2,12,12,04,147,,16,02,359,,21,28,290,,22,49,233,,0*65
,$GPGSV,3,3,12,25,26,121,,26,25,014,00,31,83,301,,32,42,110,,0*6D
,$GQGSV,1,1,04,01,56,248,,02,06,332,,03,10,323,,07,24,298,,0*68
,$GNRMC,235154.00,V,3653.4939,S,17454.6015,E,,,150621,,,N,V*3F
,$GNVTG,,T,,M,,N,,K,N*32
,$GNZDA,235154.00,15,06,2021,,*7F
,$PSGSA,1,,,,,,,,,,,,,7.3,3.7,6.2,1014,23515400,,,1,00,3,0,B,,0,0,0,0,1,0,0,0,0,,16,1*3A
,$GPGGA,235155.00,3653.4939,S,17454.6015,E,0,00,3.7,28.1,M,28.3,M,,*46
,$GNGLL,3653.4939,S,17454.6015,E,235155.00,V,N*72
,$GNGSA,A,1,,,,,,,,,,,,,7.3,3.7,6.2,*06
,$GPGSV,3,1,12,01,30,259,,03,24,224,,04,02,261,,10,21,039,,0*62
,$GPGSV,3,2,12,12,04,147,,16,02,359,,21,28,290,,22,49,233,,0*65
,$GPGSV,3,3,12,25,26,121,,26,25,014,00,31,83,301,,32,42,110,,0*6D
,$GQGSV,1,1,04,01,56,248,,02,06,332,,03,10,323,,07,24,298,,0*68
,$GNRMC,235155.00,V,3653.4939,S,17454.6015,E,,,150621,,,N,V*3E
,$GNVTG,,T,,M,,N,,K,N*32
,$GNZDA,235155.00,15,06,2021,,*7E
,$PSGSA,1,,,,,,,,,,,,,7.3,3.7,6.2,1014,23515500,,,1,00,3,0,B,,0,0,0,0,1,0,0,0,0,,16,1*3B
,$GPGGA,235156.00,3653.4939,S,17454.6015,E,0,00,3.7,28.1,M,28.3,M,,*45
,$GNGLL,3653.4939,S,17454.6015,E,235156.00,V,N*71
,$GNGSA,A,1,,,,,,,,,,,,,7.3,3.7,6.2,*06
,$GPGSV,3,1,12,01,30,259,,03,24,224,,04,02,261,,10,21,039,,0*62
,$GPGSV,3,2,12,12,04,147,,16,02,359,,21,28,290,,22,49,233,,0*65
,$GPGSV,3,3,12,25,26,121,,26,25,014,00,31,83,301,,32,42,110,,0*6D
,$GQGSV,1,1,04,01,56,248,,02,06,332,,03,10,323,,07,24,298,,0*68
,$GNRMC,235156.00,V,3653.4939,S,17454.6015,E,,,150621,,,N,V*3D
,$GNVTG,,T,,M,,N,,K,N*32
,$GNZDA,235156.00,15,06,2021,,*7D
,$PSGSA,1,,,,,,,,,,,,,7.3,3.7,6.2,1014,23515600,,,1,00,3,0,B,,0,0,0,0,1,0,0,0,0,,16,1*38
,$GPGGA,235157.00,3653.4939,S,17454.6015,E,0,00,3.7,28.1,M,28.3,M,,*44
,$GNGLL,3653.4939,S,17454.6015,E,235157.00,V,N*70
,$GNGSA,A,1,,,,,,,,,,,,,7.3,3.7,6.2,*06
,$GPGSV,3,1,12,01,30,259,,03,24,224,,04,02,261,,10,21,039,,0*62
,$GPGSV,3,2,12,12,04,147,,16,02,359,,21,28,290,,22,49,233,,0*65
,$GPGSV,3,3,12,25,26,121,,26,25,014,00,31,83,301,,32,42,110,,0*6D
,$GQGSV,1,1,04,01,56,248,,02,06,332,,03,10,323,,07,24,298,,0*68
,$GNRMC,235157.00,V,3653.4939,S,17454.6015,E,,,150621,,,N,V*3C
,$GNVTG,,T,,M,,N,,K,N*32
,$GNZDA,235157.00,15,06,2021,,*7C
,$PSGSA,1,,,,,,,,,,,,,7.3,3.7,6.2,1014,23515700,,,1,00,3,0,B,,0,0,0,0,1,0,0,0,0,,16,1*39
,$GPGGA,235158.00,3653.4939,S,17454.6015,E,0,00,3.7,28.1,M,28.3,M,,*4B
,$GNGLL,3653.4939,S,17454.6015,E,235158.00,V,N*7F
,$GNGSA,A,1,,,,,,,,,,,,,7.3,3.7,6.2,*06
,$GPGSV,3,1,12,01,30,259,,03,24,224,,04,02,261,,10,21,039,,0*62
,$GPGSV,3,2,12,12,04,147,,16,02,359,,21,28,290,,22,49,233,,0*65
,$GPGSV,3,3,12,25,26,121,,26,25,014,,31,83,301,,32,42,110,,0*6D
,$GQGSV,1,1,04,01,56,248,00,02,06,332,00,03,10,323,,07,24,298,,0*68
,$GNRMC,235158.00,V,3653.4939,S,17454.6015,E,,,150621,,,N,V*33
,$GNVTG,,T,,M,,N,,K,N*32
,$GNZDA,235158.00,15,06,2021,,*73
,$PSGSA,1,,,,,,,,,,,,,7.3,3.7,6.2,1014,23515800,,,1,00,3,0,B,,0,0,2,0,0,0,0,0,0,,16,1*35
,$GPGGA,235159.00,3653.4939,S,17454.6015,E,0,00,3.7,28.1,M,28.3,M,,*4A
,$GNGLL,3653.4939,S,17454.6015,E,235159.00,V,N*7E
,$GNGSA,A,1,,,,,,,,,,,,,7.3,3.7,6.2,*06
,$GPGSV,3,1,12,01,30,259,,03,24,224,,04,02,261,,10,21,039,,0*62
,$GPGSV,3,2,12,12,04,147,,16,02,359,,21,28,290,,22,49,233,,0*65
,$GPGSV,3,3,12,25,26,121,,26,25,014,,31,83,301,,32,42,110,,0*6D
,$GQGSV,1,1,04,01,56,248,10,02,06,332,03,03,10,323,,07,24,298,,0*6A
,$GNRMC,235159.00,V,3653.4939,S,17454.6015,E,,,150621,,,N,V*32
,$GNVTG,,T,,M,,N,,K,N*32
,$GNZDA,235159.00,15,06,2021,,*72
,$PSGSA,1,,,,,,,,,,,,,7.3,3.7,6.2,1014,23515900,,,1,03,3,0,B,,0,0,2,0,0,0,0,0,0,,16,1*37
,$GPGGA,235200.00,3653.4939,S,17454.6015,E,0,00,3.7,28.1,M,28.3,M,,*45
,$GNGLL,3653.4939,S,17454.6015,E,235200.00,V,N*71
,$GNGSA,A,1,,,,,,,,,,,,,7.3,3.7,6.2,*06
,$GPGSV,3,1,12,01,30,259,,03,24,224,,04,02,261,,10,21,039,,0*62
,$GPGSV,3,2,12,12,04,147,,16,02,359,,21,28,290,,22,49,233,,0*65
,$GPGSV,3,3,12,25,26,121,,26,25,014,,31,83,301,,32,42,110,,0*6D
,$GQGSV,1,1,04,01,56,248,,02,06,332,,03,10,323,,07,24,298,,0*68
,$GNRMC,235200.00,V,3653.4939,S,17454.6015,E,,,150621,,,N,V*3D
,$GNVTG,,T,,M,,N,,K,N*32
,$GNZDA,235200.00,15,06,2021,,*7D
,$PSGSA,1,,,,,,,,,,,,,7.3,3.7,6.2,1014,23520000,,,1,00,3,0,B,,0,0,0,0,0,0,0,0,0,,16,1*39
,$GPGGA,235201.00,3653.4939,S,17454.6015,E,0,00,3.7,28.1,M,28.3,M,,*44
,$GNGLL,3653.4939,S,17454.6015,E,235201.00,V,N*70
,$GNGSA,A,1,,,,,,,,,,,,,7.3,3.7,6.2,*06
,$GPGSV,3,1,12,01,30,259,,03,24,224,,04,02,261,,10,21,039,,0*62
,$GPGSV,3,2,12,12,04,147,,16,02,359,,21,28,290,,22,49,233,,0*65
,$GPGSV,3,3,12,25,26,121,,26,25,014,,31,83,301,,32,42,110,,0*6D
,$GQGSV,1,1,04,01,56,248,,02,06,332,,03,10,323,,07,24,298,,0*68
,$GNRMC,235201.00,V,3653.4939,S,17454.6015,E,,,150621,,,N,V*3C
,$GNVTG,,T,,M,,N,,K,N*32
,$GNZDA,235201.00,15,06,2021,,*7C
,$PSGSA,1,,,,,,,,,,,,,7.3,3.7,6.2,1014,23520100,,,1,00,3,0,B,,0,0,0,0,0,0,0,0,0,,16,1*38
,$GPGGA,235202.00,3653.4939,S,17454.6015,E,0,00,3.7,28.1,M,28.3,M,,*47
,$GNGLL,3653.4939,S,17454.6015,E,235202.00,V,N*73
,$GNGSA,A,1,,,,,,,,,,,,,7.3,3.7,6.2,*06
,$GPGSV,3,1,12,01,30,260,,03,24,224,,04,02,261,,10,21,039,,0*68
,$GPGSV,3,2,12,12,04,147,,16,02,359,,21,28,290,,22,49,233,,0*65
,$GPGSV,3,3,12,25,26,121,,26,25,014,,31,83,301,,32,42,110,,0*6D
,$GQGSV,1,1,04,01,56,248,,02,06,332,,03,10,323,,07,24,298,,0*68
,$GNRMC,235202.00,V,3653.4939,S,17454.6015,E,,,150621,,,N,V*3F
,$GNVTG,,T,,M,,N,,K,N*32
,$GNZDA,235202.00,15,06,2021,,*7F
,$PSGSA,1,,,,,,,,,,,,,7.3,3.7,6.2,1014,23520200,,,1,00,3,0,B,,0,0,0,0,0,0,0,0,0,,16,1*3B
,$GPGGA,235203.00,3653.4939,S,17454.6015,E,0,00,3.7,28.1,M,28.3,M,,*46
,$GNGLL,3653.4939,S,17454.6015,E,235203.00,V,N*72
,$GNGSA,A,1,,,,,,,,,,,,,7.3,3.7,6.2,*06
,$GPGSV,3,1,12,01,30,260,,03,24,224,,04,02,261,,10,21,039,,0*68
,$GPGSV,3,2,12,12,04,147,,16,02,359,,21,28,290,,22,49,233,,0*65
,$GPGSV,3,3,12,25,26,121,00,26,25,014,,31,83,301,,32,42,110,,0*6D
,$GQGSV,1,1,04,01,56,248,,02,06,332,,03,10,323,,07,24,298,,0*68
,$GNRMC,235203.00,V,3653.4939,S,17454.6015,E,,,150621,,,N,V*3E
,$GNVTG,,T,,M,,N,,K,N*32
,$GNZDA,235203.00,15,06,2021,,*7E
,$PSGSA,1,,,,,,,,,,,,,7.3,3.7,6.2,1014,23520300,,,1,00,3,0,B,,0,0,1,0,0,0,0,0,0,,16,1*3B
,$GPGGA,235204.00,3653.4939,S,17454.6015,E,0,00,3.7,28.1,M,28.3,M,,*41
,$GNGLL,3653.4939,S,17454.6015,E,235204.00,V,N*75
,$GNGSA,A,1,,,,,,,,,,,,,7.3,3.7,6.2,*06
,$GPGSV,3,1,12,01,30,260,,03,24,224,,04,03,261,,10,21,039,,0*69
,$GPGSV,3,2,12,12,04,147,,16,02,359,,21,28,290,,22,49,233,,0*65
,$GPGSV,3,3,12,25,26,121,10,26,25,014,,31,83,301,,32,42,110,,0*6C
,$GQGSV,1,1,04,01,56,248,,02,06,332,,03,10,323,,07,24,298,,0*68
,$GNRMC,235204.00,V,3653.4939,S,17454.6015,E,,,150621,,,N,V*39
,$GNVTG,,T,,M,,N,,K,N*32
,$GNZDA,235204.00,15,06,2021,,*79
,$PSGSA,1,,,,,,,,,,,,,7.3,3.7,6.2,1014,23520400,,,1,02,3,0,B,,0,0,1,0,0,0,0,0,0,,16,1*3E
,$GPGGA,235205.00,3653.4939,S,17454.6015,E,0,00,3.7,28.1,M,28.3,M,,*40
,$GNGLL,3653.4939,S,17454.6015,E,235205.00,V,N*74
,$GNGSA,A,1,,,,,,,,,,,,,7.3,3.7,6.2,*06
,$GPGSV,3,1,12,01,30,260,,03,24,224,,04,03,261,,10,21,039,,0*69
,$GPGSV,3,2,12,12,04,147,,16,02,359,,21,28,290,,22,49,233,,0*65
,$GPGSV,3,3,12,25,26,121,,26,25,014,,31,83,301,,32,42,110,,0*6D
,$GQGSV,1,1,04,01,56,248,,02,06,332,,03,10,323,,07,24,298,,0*68
,$GNRMC,235205.00,V,3653.4939,S,17454.6015,E,,,150621,,,N,V*38
,$GNVTG,,T,,M,,N,,K,N*32
,$GNZDA,235205.00,15,06,2021,,*78
,$PSGSA,1,,,,,,,,,,,,,7.3,3.7,6.2,1014,23520500,,,1,00,3,0,B,,0,0,0,0,0,0,0,0,0,,16,1*3C
,$GPGGA,235206.00,3653.4939,S,17454.6015,E,0,00,3.7,28.1,M,28.3,M,,*43
,$GNGLL,3653.4939,S,17454.6015,E,235206.00,V,N*77
,$GNGSA,A,1,,,,,,,,,,,,,7.3,3.7,6.2,*06
,$GPGSV,3,1,12,01,30,260,,03,24,224,,04,03,261,,10,21,039,,0*69
,$GPGSV,3,2,12,12,04,147,,16,02,359,,21,28,290,,22,49,233,,0*65
,$GPGSV,3,3,12,25,26,121,,26,25,014,,31,83,301,,32,42,110,,0*6D
,$GQGSV,1,1,04,01,56,248,,02,06,332,,03,10,323,,07,24,298,,0*68
,$GNRMC,235206.00,V,3653.4939,S,17454.6015,E,,,150621,,,N,V*3B
,$GNVTG,,T,,M,,N,,K,N*32
,$GNZDA,235206.00,15,06,2021,,*7B
,$PSGSA,1,,,,,,,,,,,,,7.3,3.7,6.2,1014,23520600,,,1,00,3,0,B,,0,0,0,0,0,0,0,0,0,,16,1*3F
,$GPGGA,235207.00,3653.4939,S,17454.6015,E,0,00,3.7,28.1,M,28.3,M,,*42
,$GNGLL,3653.4939,S,17454.6015,E,235207.00,V,N*76
,$GNGSA,A,1,,,,,,,,,,,,,7.3,3.7,6.2,*06
,$GPGSV,3,1,12,01,30,260,,03,24,224,,04,03,261,,10,21,039,,0*69
,$GPGSV,3,2,12,12,04,147,,16,02,359,,21,28,290,,22,49,233,,0*65
,$GPGSV,3,3,12,25,26,121,,26,25,014,,31,83,301,,32,42,110,,0*6D
,$GQGSV,1,1,04,01,56,248,,02,06,332,,03,10,323,,07,24,298,,0*68
,$GNRMC,235207.00,V,3653.4939,S,17454.6015,E,,,150621,,,N,V*3A
,$GNVTG,,T,,M,,N,,K,N*32
,$GNZDA,235207.00,15,06,2021,,*7A
,$PSGSA,1,,,,,,,,,,,,,7.3,3.7,6.2,1014,23520700,,,1,00,3,0,B,,0,0,0,0,0,0,0,0,0,,16,1*3E
,$GPGGA,235208.00,3653.4939,S,17454.6015,E,0,00,3.7,28.1,M,28.3,M,,*4D
,$GNGLL,3653.4939,S,17454.6015,E,235208.00,V,N*79
,$GNGSA,A,1,,,,,,,,,,,,,7.3,3.7,6.2,*06
,$GPGSV,3,1,12,01,30,260,,03,24,224,,04,03,261,,10,21,039,,0*69
,$GPGSV,3,2,12,12,04,147,,16,02,359,,21,28,290,,22,49,233,,0*65
,$GPGSV,3,3,12,25,26,121,,26,25,014,,31,83,300,,32,42,110,,0*6C
,$GQGSV,1,1,04,01,56,248,,02,06,332,,03,10,323,,07,24,298,,0*68
,$GNRMC,235208.00,V,3653.4939,S,17454.6015,E,,,150621,,,N,V*35
,$GNVTG,,T,,M,,N,,K,N*32
,$GNZDA,235208.00,15,06,2021,,*75
,$PSGSA,1,,,,,,,,,,,,,7.3,3.7,6.2,1014,23520800,,,1,00,3,0,B,,0,0,0,0,0,0,0,0,0,,16,1*31
,$GPGGA,235209.00,3653.4939,S,17454.6015,E,0,00,3.7,28.1,M,28.3,M,,*4C
,$GNGLL,3653.4939,S,17454.6015,E,235209.00,V,N*78
,$GNGSA,A,1,,,,,,,,,,,,,7.3,3.7,6.2,*06
,$GPGSV,3,1,12,01,30,260,,03,24,224,,04,03,261,,10,21,039,,0*69
,$GPGSV,3,2,12,12,04,147,,16,02,359,,21,28,290,,22,49,233,,0*65
,$GPGSV,3,3,12,25,26,121,,26,25,014,,31,83,300,,32,42,110,00,0*6C
,$GQGSV,1,1,04,01,56,248,,02,06,332,,03,10,323,,07,24,298,,0*68
,$GNRMC,235209.00,V,3653.4939,S,17454.6015,E,,,150621,,,N,V*34
,$GNVTG,,T,,M,,N,,K,N*32
,$GNZDA,235209.00,15,06,2021,,*74
,$PSGSA,1,,,,,,,,,,,,,7.3,3.7,6.2,1014,23520900,,,1,00,3,0,B,,0,0,1,0,0,0,0,0,0,,16,1*31
,$GPGGA,235210.00,3653.4939,S,17454.6015,E,0,00,3.7,28.1,M,28.3,M,,*44
,$GNGLL,3653.4939,S,17454.6015,E,235210.00,V,N*70
,$GNGSA,A,1,,,,,,,,,,,,,7.3,3.7,6.2,*06
,$GPGSV,3,1,12,01,30,260,,03,24,224,,04,03,261,,10,21,039,,0*69
,$GPGSV,3,2,12,12,04,147,,16,02,359,,21,28,290,,22,49,233,,0*65
,$GPGSV,3,3,12,25,26,121,,26,25,014,,31,83,300,,32,42,110,13,0*6E
,$GQGSV,1,1,04,01,56,248,,02,06,332,,03,10,323,,07,24,298,,0*68
,$GNRMC,235210.00,V,3653.4939,S,17454.6015,E,,,150621,,,N,V*3C
,$GNVTG,,T,,M,,N,,K,N*32
,$GNZDA,235210.00,15,06,2021,,*7C
,$PSGSA,1,,,,,,,,,,,,,7.3,3.7,6.2,1014,23521000,,,1,03,3,0,B,,0,0,1,0,0,0,0,0,0,,16,1*3A
,$GPGGA,235211.00,3653.4939,S,17454.6015,E,0,00,3.7,28.1,M,28.3,M,,*45
,$GNGLL,3653.4939,S,17454.6015,E,235211.00,V,N*71
,$GNGSA,A,1,,,,,,,,,,,,,7.3,3.7,6.2,*06
,$GPGSV,3,1,12,01,30,260,00,03,24,224,,04,03,261,,10,21,039,,0*69
,$GPGSV,3,2,12,12,04,147,,16,02,359,,21,28,290,,22,49,233,,0*65
,$GPGSV,3,3,12,25,26,121,,26,25,014,,31,83,300,,32,42,110,,0*6C
,$GQGSV,1,1,04,01,56,248,,02,06,332,,03,10,323,,07,24,298,,0*68
,$GNRMC,235211.00,V,3653.4939,S,17454.6015,E,,,150621,,,N,V*3D
,$GNVTG,,T,,M,,N,,K,N*32
,$GNZDA,235211.00,15,06,2021,,*7D
,$PSGSA,1,,,,,,,,,,,,,7.3,3.7,6.2,1014,23521100,,,1,00,3,0,B,,0,0,1,0,0,0,0,0,0,,16,1*38
,$GPGGA,235212.00,3653.4939,S,17454.6015,E,0,00,3.7,28.1,M,28.3,M,,*46
,$GNGLL,3653.4939,S,17454.6015,E,235212.00,V,N*72
,$GNGSA,A,1,,,,,,,,,,,,,7.3,3.7,6.2,*06
,$GPGSV,3,1,12,01,30,260,00,03,24,224,,04,03,261,,10,21,039,,0*69
,$GPGSV,3,2,12,12,04,147,,16,02,359,,21,28,290,,22,49,233,,0*65
,$GPGSV,3,3,12,25,26,121,,26,25,014,,31,83,300,,32,42,110,,0*6C
,$GQGSV,1,1,04,01,56,248,,02,06,332,,03,10,323,,07,24,298,,0*68
,$GNRMC,235212.00,V,3653.4939,S,17454.6015,E,,,150621,,,N,V*3E
,$GNVTG,,T,,M,,N,,K,N*32
,$GNZDA,235212.00,15,06,2021,,*7E
,$PSGSA,1,,,,,,,,,,,,,7.3,3.7,6.2,1014,23521200,,,1,00,3,0,B,,0,0,1,0,0,0,0,0,0,,16,1*3B
,$GPGGA,235213.00,3653.4939,S,17454.6015,E,0,00,3.7,28.1,M,28.3,M,,*47
,$GNGLL,3653.4939,S,17454.6015,E,235213.00,V,N*73
,$GNGSA,A,1,,,,,,,,,,,,,7.3,3.7,6.2,*06
,$GPGSV,3,1,12,01,30,260,,03,24,224,,04,03,261,,10,21,039,,0*69
,$GPGSV,3,2,12,12,04,147,,16,02,359,,21,28,290,,22,49,233,,0*65
,$GPGSV,3,3,12,25,26,121,,26,25,014,,31,83,300,,32,42,110,,0*6C
,$GQGSV,1,1,04,01,56,248,,02,06,332,,03,10,323,,07,24,298,,0*68
,$GNRMC,235213.00,V,3653.4939,S,17454.6015,E,,,150621,,,N,V*3F
,$GNVTG,,T,,M,,N,,K,N*32
,$GNZDA,235213.00,15,06,2021,,*7F
,$PSGSA,1,,,,,,,,,,,,,7.3,3.7,6.2,1014,23521300,,,1,00,3,0,B,,0,0,0,0,0,0,0,0,0,,16,1*3B
,$GPGGA,235214.00,3653.4939,S,17454.6015,E,0,00,3.7,28.1,M,28.3,M,,*40
,$GNGLL,3653.4939,S,17454.6015,E,235214.00,V,N*74
,$GNGSA,A,1,,,,,,,,,,,,,7.3,3.7,6.2,*06
,$GPGSV,3,1,12,01,30,260,,03,24,224,,04,03,261,,10,21,039,,0*69
,$GPGSV,3,2,12,12,04,147,,16,02,359,,21,28,290,12,22,49,233,00,0*66
,$GPGSV,3,3,12,25,26,121,,26,25,014,,31,83,300,,32,42,110,,0*6C
,$GQGSV,1,1,04,01,56,248,,02,06,332,,03,10,323,,07,24,298,,0*68
,$GNRMC,235214.00,V,3653.4939,S,17454.6015,E,,,150621,,,N,V*38
,$GNVTG,,T,,M,,N,,K,N*32
,$GNZDA,235214.00,15,06,2021,,*78
,$PSGSA,1,,,,,,,,,,,,,7.3,3.7,6.2,1014,23521400,,,1,03,3,0,B,,0,0,2,0,0,0,0,0,0,,16,1*3D
