,$GPGGA,000800.00,3653.7842,S,17454.4467,E,1,12,0.8,24.0,M,28.3,M,,*45
,$GNGLL,3653.7842,S,17454.4467,E,000800.00,A,A*6A
,$GNGSA,A,3,01,03,10,21,22,25,26,31,32,,,,1.5,0.8,1.2,1*3E
,$GNGSA,A,3,67,76,82,,,,,,,,,,1.5,0.8,1.2,2*37
,$GPGSV,3,1,12,01,28,268,34,03,31,224,45,04,07,256,32,10,14,036,34,0*65
,$GPGSV,3,2,12,12,00,151,,16,08,002,36,21,23,297,38,22,55,240,39,0*60
,$GPGSV,3,3,12,25,24,127,36,26,31,017,38,31,85,205,44,32,38,103,43,0*6A
,$GLGSV,2,1,08,65,22,068,25,66,64,145,37,67,29,217,44,75,19,149,,0*76
,$GLGSV,2,2,08,76,71,110,43,77,44,350,,82,09,257,34,83,07,214,33,0*78
,$GQGSV,1,1,04,01,58,248,,02,07,331,,03,08,324,,07,24,298,30,0*69
,$GNRMC,000800.00,A,3653.7842,S,17454.4467,E,0.0,349.4,160621,,,A,V*2F
,$GNVTG,349.4,T,,M,0.0,N,0.0,K,A*19
,$GNZDA,000800.00,16,06,2021,,*70
,$PSGSA,4,01,03,10,21,22,25,26,31,32,,,,1.5,0.8,1.2,4323,00080000,00,,7,44,,2,B,4,0,0,1,12,0,0,0,5,0,-0.84,16,1*30
,$PSGSA,4,67,76,82,,,,,,,,,,1.5,0.8,1.2,4323,00080000,00,,7,44,,2,B,4,0,0,1,12,0,0,0,5,0,-0.84,16,2*39
,$GPGGA,000801.00,3653.7843,S,17454.4467,E,1,12,0.8,23.9,M,28.3,M,,*4B
,$GNGLL,3653.7843,S,17454.4467,E,000801.00,A,A*6A
,$GNGSA,A,3,01,03,10,21,22,25,26,31,32,,,,1.5,0.8,1.2,1*3E
,$GNGSA,A,3,67,76,82,,,,,,,,,,1.5,0.8,1.2,2*37
,$GPGSV,3,1,12,01,28,268,33,03,31,224,45,04,07,256,32,10,14,036,32,0*64
,$GPGSV,3,2,12,12,00,151,,16,08,002,34,21,23,297,37,22,55,240,39,0*6D
,$GPGSV,3,3,12,25,24,127,38,26,31,017,39,31,85,205,44,32,38,103,44,0*62
,$GLGSV,2,1,08,65,22,068,25,66,64,145,37,67,29,217,44,75,19,149,,0*76
,$GLGSV,2,2,08,76,71,110,43,77,44,350,,82,09,257,32,83,07,214,33,0*7E
,$GQGSV,1,1,04,01,58,248,,02,07,331,,03,08,324,,07,24,298,33,0*6A
,$GNRMC,000801.00,A,3653.7843,S,17454.4467,E,0.1,349.4,160621,,,A,V*2E
,$GNVTG,349.4,T,,M,0.1,N,0.1,K,A*19
,$GNZDA,000801.00,16,06,2021,,*71
,$PSGSA,4,01,03,10,21,22,25,26,31,32,,,,1.5,0.8,1.2,4323,00080100,00,,7,44,,2,B,4,0,0,1,12,0,0,0,5,0,-0.84,16,1*31
,$PSGSA,4,67,76,82,,,,,,,,,,1.5,0.8,1.2,4323,00080100,00,,7,44,,2,B,4,0,0,1,12,0,0,0,5,0,-0.84,16,2*38
,$GPGGA,000802.00,3653.7844,S,17454.4468,E,1,12,0.8,23.9,M,28.3,M,,*40
,$GNGLL,3653.7844,S,17454.4468,E,000802.00,A,A*61
,$GNGSA,A,3,01,03,10,16,21,22,25,26,31,32,,,1.4,0.8,1.2,1*38
,$GNGSA,A,3,76,82,,,,,,,,,,,1.4,0.8,1.2,2*37
,$GPGSV,3,1,12,01,28,268,35,03,31,224,46,04,07,256,36,10,14,036,36,0*61
,$GPGSV,3,2,12,12,00,151,,16,08,002,35,21,23,297,34,22,55,240,38,0*6E
,$GPGSV,3,3,12,25,24,128,37,26,31,017,40,31,85,205,44,32,38,103,44,0*6C
,$GLGSV,2,1,08,65,22,068,28,66,64,145,38,67,29,217,43,75,19,149,,0*73
,$GLGSV,2,2,08,76,71,110,43,77,44,350,22,82,09,257,32,83,07,214,32,0*7F
,$GQGSV,1,1,04,01,58,248,,02,07,331,,03,08,324,,07,24,298,31,0*68
,$GNRMC,000802.00,A,3653.7844,S,17454.4468,E,0.0,349.4,160621,,,A,V*24
,$GNVTG,349.4,T,,M,0.0,N,0.0,K,A*19
,$GNZDA,000802.00,16,06,2021,,*72
,$PSGSA,4,01,03,10,16,21,22,25,26,31,32,,,1.4,0.8,1.2,4323,00080200,00,,7,44,,2,B,4,0,0,2,12,0,0,0,5,0,-0.84,16,1*37
,$PSGSA,4,76,82,,,,,,,,,,,1.4,0.8,1.2,4323,00080200,00,,7,44,,2,B,4,0,0,2,12,0,0,0,5,0,-0.84,16,2*38
,$GPGGA,000803.00,3653.7844,S,17454.4468,E,1,12,0.8,23.9,M,28.3,M,,*41
,$GNGLL,3653.7844,S,17454.4468,E,000803.00,A,A*60
,$GNGSA,A,3,01,03,10,16,21,22,25,26,31,32,,,1.4,0.8,1.2,1*38
,$GNGSA,A,3,76,82,,,,,,,,,,,1.4,0.8,1.2,2*37
,$GPGSV,3,1,12,01,28,268,35,03,31,224,46,04,07,256,35,10,14,036,32,0*66
,$GPGSV,3,2,12,12,00,151,,16,08,002,34,21,23,297,34,22,55,240,39,0*6E
,$GPGSV,3,3,12,25,24,128,35,26,31,017,41,31,85,205,44,32,38,103,46,0*6D
,$GLGSV,2,1,08,65,22,068,25,66,64,145,37,67,29,217,43,75,19,149,,0*71
,$GLGSV,2,2,08,76,71,110,43,77,44,350,26,82,09,257,36,83,07,214,33,0*7E
,$GQGSV,1,1,04,01,58,248,,02,07,331,,03,08,324,,07,24,298,30,0*69
,$GNRMC,000803.00,A,3653.7844,S,17454.4468,E,0.2,349.4,160621,,,A,V*27
,$GNVTG,349.4,T,,M,0.2,N,0.4,K,A*1F
,$GNZDA,000803.00,16,06,2021,,*73
,$PSGSA,4,01,03,10,16,21,22,25,26,31,32,,,1.4,0.8,1.2,4324,00080300,00,,7,44,,2,B,4,0,0,2,16,0,0,0,1,0,-0.84,16,1*31
,$PSGSA,4,76,82,,,,,,,,,,,1.4,0.8,1.2,4324,00080300,00,,7,44,,2,B,4,0,0,2,16,0,0,0,1,0,-0.84,16,2*3E
,$GPGGA,000804.00,3653.7845,S,17454.4468,E,1,12,0.8,23.8,M,28.3,M,,*46
,$GNGLL,3653.7845,S,17454.4468,E,000804.00,A,A*66
,$GNGSA,A,3,01,03,10,16,21,22,25,26,31,32,,,1.4,0.8,1.2,1*38
,$GNGSA,A,3,76,82,,,,,,,,,,,1.4,0.8,1.2,2*37
,$GPGSV,3,1,12,01,28,268,36,03,31,224,45,04,07,256,38,10,14,036,29,0*61
,$GPGSV,3,2,12,12,00,151,,16,08,002,32,21,23,297,34,22,55,240,40,0*66
,$GPGSV,3,3,12,25,24,128,35,26,31,017,39,31,85,205,43,32,38,103,46,0*65
,$GLGSV,2,1,08,65,22,068,30,66,64,145,37,67,29,217,43,75,19,149,,0*75
,$GLGSV,2,2,08,76,71,110,43,77,44,350,29,82,09,257,36,83,07,214,31,0*73
,$GQGSV,1,1,04,01,58,248,,02,07,331,,03,08,324,,07,24,298,30,0*69
,$GNRMC,000804.00,A,3653.7845,S,17454.4468,E,0.2,349.4,160621,,,A,V*21
,$GNVTG,349.4,T,,M,0.2,N,0.4,K,A*1F
,$GNZDA,000804.00,16,06,2021,,*74
,$PSGSA,4,01,03,10,16,21,22,25,26,31,32,,,1.4,0.8,1.2,4324,00080400,00,,7,44,,2,B,4,0,0,2,16,0,0,0,1,0,-0.84,16,1*36
,$PSGSA,4,76,82,,,,,,,,,,,1.4,0.8,1.2,4324,00080400,00,,7,44,,2,B,4,0,0,2,16,0,0,0,1,0,-0.84,16,2*39
,$GPGGA,000805.00,3653.7846,S,17454.4467,E,1,12,0.8,23.7,M,28.3,M,,*44
,$GNGLL,3653.7846,S,17454.4467,E,000805.00,A,A*6B
,$GNGSA,A,3,01,03,10,16,21,22,25,26,31,32,,,1.4,0.8,1.2,1*38
,$GNGSA,A,3,76,82,,,,,,,,,,,1.4,0.8,1.2,2*37
,$GPGSV,3,1,12,01,28,268,36,03,31,224,46,04,07,256,38,10,14,036,28,0*63
,$GPGSV,3,2,12,12,00,151,,16,08,002,32,21,23,297,33,22,55,240,40,0*61
,$GPGSV,3,3,12,25,24,128,28,26,31,017,40,31,85,205,43,32,38,103,46,0*67
,$GLGSV,2,1,08,65,22,068,28,66,64,145,38,67,29,217,42,75,19,149,,0*72
,$GLGSV,2,2,08,76,71,110,43,77,44,350,29,82,09,257,33,83,07,214,30,0*77
,$GQGSV,1,1,04,01,58,248,,02,07,331,,03,08,324,,07,24,298,28,0*60
,$GNRMC,000805.00,A,3653.7846,S,17454.4467,E,0.3,219.5,160621,,,A,V*28
,$GNVTG,219.5,T,,M,0.3,N,0.6,K,A*19
,$GNZDA,000805.00,16,06,2021,,*75
,$PSGSA,4,01,03,10,16,21,22,25,26,31,32,,,1.4,0.8,1.2,4324,00080500,00,,7,44,,2,B,4,0,0,2,16,0,0,0,1,0,-0.84,16,1*37
,$PSGSA,4,76,82,,,,,,,,,,,1.4,0.8,1.2,4324,00080500,00,,7,44,,2,B,4,0,0,2,16,0,0,0,1,0,-0.84,16,2*38
,$GPGGA,000806.00,3653.7847,S,17454.4465,E,1,12,0.8,23.9,M,28.3,M,,*4A
,$GNGLL,3653.7847,S,17454.4465,E,000806.00,A,A*6B
,$GNGSA,A,3,01,03,10,16,21,22,25,26,31,32,,,1.4,0.8,1.2,1*38
,$GNGSA,A,3,76,82,,,,,,,,,,,1.4,0.8,1.2,2*37
,$GPGSV,3,1,12,01,28,268,35,03,31,224,46,04,07,256,37,10,14,036,29,0*6E
,$GPGSV,3,2,12,12,00,151,,16,08,002,33,21,23,297,36,22,55,240,40,0*65
,$GPGSV,3,3,12,25,24,128,32,26,31,017,39,31,85,204,43,32,38,103,45,0*60
,$GLGSV,2,1,08,65,22,068,29,66,64,145,38,67,29,217,43,75,19,149,,0*72
,$GLGSV,2,2,08,76,71,110,42,77,44,350,30,82,09,257,36,83,07,214,30,0*7B
,$GQGSV,1,1,04,01,58,248,,02,07,331,,03,08,324,,07,24,298,29,0*61
,$GNRMC,000806.00,A,3653.7847,S,17454.4465,E,0.4,217.2,160621,,,A,V*26
,$GNVTG,217.2,T,,M,0.4,N,0.7,K,A*16
,$GNZDA,000806.00,16,06,2021,,*76
,$PSGSA,4,01,03,10,16,21,22,25,26,31,32,,,1.4,0.8,1.2,4324,00080600,00,,7,44,,2,B,4,0,0,2,16,0,0,0,1,0,-0.84,16,1*34
,$PSGSA,4,76,82,,,,,,,,,,,1.4,0.8,1.2,4324,00080600,00,,7,44,,2,B,4,0,0,2,16,0,0,0,1,0,-0.84,16,2*3B
,$GPGGA,000807.00,3653.7848,S,17454.4464,E,1,12,0.8,23.7,M,28.3,M,,*4B
,$GNGLL,3653.7848,S,17454.4464,E,000807.00,A,A*64
,$GNGSA,A,3,01,03,10,16,21,22,25,26,31,32,,,1.4,0.8,1.2,1*38
,$GNGSA,A,3,76,82,,,,,,,,,,,1.4,0.8,1.2,2*37
,$GPGSV,3,1,12,01,28,268,36,03,31,224,46,04,07,256,37,10,14,036,30,0*65
,$GPGSV,3,2,12,12,00,151,,16,08,002,31,21,23,297,34,22,55,240,40,0*65
,$GPGSV,3,3,12,25,24,128,36,26,31,017,41,31,85,204,43,32,38,103,46,0*68
,$GLGSV,2,1,08,65,22,068,27,66,64,145,39,67,29,217,43,75,19,149,,0*7D
,$GLGSV,2,2,08,76,71,110,42,77,44,350,30,82,09,257,35,83,07,214,29,0*70
,$GQGSV,1,1,04,01,58,248,,02,07,331,,03,08,324,,07,24,298,28,0*60
,$GNRMC,000807.00,A,3653.7848,S,17454.4464,E,0.4,208.0,160621,,,A,V*25
,$GNVTG,208.0,T,,M,0.4,N,0.7,K,A*1A
,$GNZDA,000807.00,16,06,2021,,*77
,$PSGSA,4,01,03,10,16,21,22,25,26,31,32,,,1.4,0.8,1.2,4324,00080700,00,,7,44,,2,B,4,0,0,2,16,0,0,0,1,0,-0.84,16,1*35
,$PSGSA,4,76,82,,,,,,,,,,,1.4,0.8,1.2,4324,00080700,00,,7,44,,2,B,4,0,0,2,16,0,0,0,1,0,-0.84,16,2*3A
,$GPGGA,000808.00,3653.7849,S,17454.4464,E,1,12,0.8,23.4,M,28.3,M,,*46
,$GNGLL,3653.7849,S,17454.4464,E,000808.00,A,A*6A
,$GNGSA,A,3,01,03,10,16,21,22,25,26,31,32,,,1.4,0.8,1.2,1*38
,$GNGSA,A,3,76,82,,,,,,,,,,,1.4,0.8,1.2,2*37
,$GPGSV,3,1,12,01,28,268,36,03,31,224,46,04,07,256,35,10,14,036,29,0*6F
,$GPGSV,3,2,12,12,00,151,,16,08,002,29,21,23,297,34,22,55,240,40,0*6C
,$GPGSV,3,3,12,25,24,128,38,26,31,017,39,31,85,204,43,32,38,103,45,0*6A
,$GLGSV,2,1,08,65,22,068,27,66,64,145,39,67,29,217,43,75,19,149,,0*7D
,$GLGSV,2,2,08,76,71,110,42,77,44,350,30,82,09,257,34,83,07,214,30,0*79
,$GQGSV,1,1,04,01,58,248,,02,07,331,,03,08,324,,07,24,298,30,0*69
,$GNRMC,000808.00,A,3653.7849,S,17454.4464,E,0.4,202.7,160621,,,A,V*26
,$GNVTG,202.7,T,,M,0.4,N,0.7,K,A*17
,$GNZDA,000808.00,16,06,2021,,*78
,$PSGSA,4,01,03,10,16,21,22,25,26,31,32,,,1.4,0.8,1.2,4324,00080800,00,,7,44,,2,B,4,0,0,2,16,0,0,0,1,0,-0.84,16,1*3A
,$PSGSA,4,76,82,,,,,,,,,,,1.4,0.8,1.2,4324,00080800,00,,7,44,,2,B,4,0,0,2,16,0,0,0,1,0,-0.84,16,2*35
,$GPGGA,000809.00,3653.7850,S,17454.4463,E,1,12,0.8,23.1,M,28.3,M,,*4D
,$GNGLL,3653.7850,S,17454.4463,E,000809.00,A,A*64
,$GNGSA,A,3,01,03,10,16,21,22,25,26,31,32,,,1.4,0.8,1.2,1*38
,$GNGSA,A,3,76,82,,,,,,,,,,,1.4,0.8,1.2,2*37
,$GPGSV,3,1,12,01,28,268,38,03,31,224,45,04,07,256,37,10,14,036,26,0*6F
,$GPGSV,3,2,12,12,00,151,,16,08,002,28,21,23,297,34,22,55,240,40,0*6D
,$GPGSV,3,3,12,25,24,128,36,26,31,017,39,31,85,204,43,32,38,103,45,0*64
,$GLGSV,2,1,08,65,22,068,26,66,64,145,38,67,29,217,43,75,19,149,,0*7D
,$GLGSV,2,2,08,76,71,110,42,77,44,350,29,82,09,257,32,83,07,214,29,0*7F
,$GQGSV,1,1,04,01,58,248,,02,07,331,,03,08,324,,07,24,298,30,0*69
,$GNRMC,000809.00,A,3653.7850,S,17454.4463,E,0.4,209.3,160621,,,A,V*27
,$GNVTG,209.3,T,,M,0.4,N,0.7,K,A*18
,$GNZDA,000809.00,16,06,2021,,*79
,$PSGSA,4,01,03,10,16,21,22,25,26,31,32,,,1.4,0.8,1.2,4324,00080900,00,,7,44,,2,B,4,0,0,2,16,0,0,0,1,0,-0.84,16,1*3B
,$PSGSA,4,76,82,,,,,,,,,,,1.4,0.8,1.2,4324,00080900,00,,7,44,,2,B,4,0,0,2,16,0,0,0,1,0,-0.84,16,2*34
,$GPGGA,000810.00,3653.7851,S,17454.4461,E,1,12,0.8,23.2,M,28.3,M,,*45
,$GNGLL,3653.7851,S,17454.4461,E,000810.00,A,A*6F
,$GNGSA,A,3,01,03,10,16,21,22,25,26,31,32,,,1.4,0.8,1.2,1*38
,$GNGSA,A,3,76,82,,,,,,,,,,,1.4,0.8,1.2,2*37
,$GPGSV,3,1,12,01,28,268,36,03,31,224,45,04,07,256,38,10,14,036,31,0*68
,$GPGSV,3,2,12,12,00,151,,16,08,002,28,21,23,297,35,22,55,240,40,0*6C
,$GPGSV,3,3,12,25,24,128,37,26,31,017,39,31,85,204,42,32,38,103,46,0*67
,$GLGSV,2,1,08,65,22,068,29,66,64,145,38,67,29,217,43,75,19,149,,0*72
,$GLGSV,2,2,08,76,71,110,42,77,44,350,29,82,09,257,34,83,07,214,29,0*79
,$GQGSV,1,1,04,01,58,248,,02,07,331,,03,08,324,,07,24,298,28,0*60
,$GNRMC,000810.00,A,3653.7851,S,17454.4461,E,0.4,215.3,160621,,,A,V*21
,$GNVTG,215.3,T,,M,0.4,N,0.8,K,A*1A
,$GNZDA,000810.00,16,06,2021,,*71
,$PSGSA,4,01,03,10,16,21,22,25,26,31,32,,,1.4,0.8,1.2,4324,00081000,00,,7,44,,2,B,4,0,0,2,16,0,0,0,1,0,-0.84,16,1*33
,$PSGSA,4,76,82,,,,,,,,,,,1.4,0.8,1.2,4324,00081000,00,,7,44,,2,B,4,0,0,2,16,0,0,0,1,0,-0.84,16,2*3C
,$GPGGA,000811.00,3653.7853,S,17454.4461,E,1,12,0.8,23.0,M,28.3,M,,*44
,$GNGLL,3653.7853,S,17454.4461,E,000811.00,A,A*6C
,$GNGSA,A,3,01,03,10,16,21,22,25,26,31,32,,,1.4,0.8,1.2,1*38
,$GNGSA,A,3,76,82,,,,,,,,,,,1.4,0.8,1.2,2*37
,$GPGSV,3,1,11,01,28,268,38,03,31,224,45,04,07,256,39,10,14,036,29,0*6D
,$GPGSV,3,2,11,16,08,002,29,21,23,297,34,22,55,240,40,25,24,128,37,0*67
,$GPGSV,3,3,11,26,31,017,42,31,85,204,41,32,38,103,45,,,,,0*56
,$GLGSV,2,1,08,65,22,068,29,66,64,145,38,67,29,217,43,75,19,149,,0*72
,$GLGSV,2,2,08,76,71,110,42,77,44,350,30,82,09,257,35,83,07,214,27,0*7E
,$GQGSV,1,1,04,01,58,248,,02,07,331,,03,08,324,,07,24,298,25,0*6D
,$GNRMC,000811.00,A,3653.7853,S,17454.4461,E,0.5,209.9,160621,,,A,V*24
,$GNVTG,209.9,T,,M,0.5,N,0.9,K,A*1D
,$GNZDA,000811.00,16,06,2021,,*70
,$PSGSA,4,01,03,10,16,21,22,25,26,31,32,,,1.4,0.8,1.2,4325,00081100,00,,7,43,,2,B,4,0,0,2,16,0,0,0,1,0,-0.84,16,1*34
,$PSGSA,4,76,82,,,,,,,,,,,1.4,0.8,1.2,4325,00081100,00,,7,43,,2,B,4,0,0,2,16,0,0,0,1,0,-0.84,16,2*3B
,$GPGGA,000812.00,3653.7854,S,17454.4461,E,1,12,0.8,22.8,M,28.3,M,,*49
,$GNGLL,3653.7854,S,17454.4461,E,000812.00,A,A*68
,$GNGSA,A,3,01,03,10,16,21,22,25,26,31,32,,,1.4,0.8,1.2,1*38
,$GNGSA,A,3,76,82,,,,,,,,,,,1.4,0.8,1.2,2*37
,$GPGSV,3,1,11,01,28,268,38,03,31,224,45,04,07,256,39,10,14,036,28,0*6C
,$GPGSV,3,2,11,16,08,002,27,21,23,297,33,22,55,240,40,25,24,128,36,0*6F
,$GPGSV,3,3,11,26,31,017,41,31,85,204,42,32,38,103,45,,,,,0*56
,$GLGSV,2,1,08,65,22,068,26,66,64,145,38,67,29,217,43,75,19,149,,0*7D
,$GLGSV,2,2,08,76,71,110,42,77,44,350,28,82,09,257,33,83,07,214,28,0*7E
,$GQGSV,1,1,04,01,58,248,,02,07,331,,03,08,324,,07,24,298,24,0*6C
,$GNRMC,000812.00,A,3653.7854,S,17454.4461,E,0.5,202.7,160621,,,A,V*25
,$GNVTG,202.7,T,,M,0.5,N,0.9,K,A*18
,$GNZDA,000812.00,16,06,2021,,*73
,$PSGSA,4,01,03,10,16,21,22,25,26,31,32,,,1.4,0.8,1.2,4325,00081200,00,,7,43,,2,B,4,0,0,2,16,0,0,0,1,0,-0.84,16,1*37
,$PSGSA,4,76,82,,,,,,,,,,,1.4,0.8,1.2,4325,00081200,00,,7,43,,2,B,4,0,0,2,16,0,0,0,1,0,-0.84,16,2*38
,$GPGGA,000813.00,3653.7855,S,17454.4460,E,1,12,0.8,22.6,M,28.3,M,,*46
,$GNGLL,3653.7855,S,17454.4460,E,000813.00,A,A*69
,$GNGSA,A,3,01,03,10,16,21,22,25,26,31,32,,,1.4,0.8,1.2,1*38
,$GNGSA,A,3,76,82,,,,,,,,,,,1.4,0.8,1.2,2*37
,$GPGSV,3,1,11,01,28,268,39,03,31,224,45,04,07,256,38,10,14,036,30,0*65
,$GPGSV,3,2,11,16,08,002,27,21,23,297,29,22,55,240,40,25,24,128,32,0*60
,$GPGSV,3,3,11,26,31,017,41,31,85,204,43,32,38,103,46,,,,,0*54
,$GLGSV,2,1,08,65,22,068,27,66,64,145,37,67,29,217,42,75,19,149,,0*72
,$GLGSV,2,2,08,76,71,110,43,77,44,350,27,82,09,257,35,83,07,214,28,0*76
,$GQGSV,1,1,04,01,58,248,,02,07,331,,03,08,324,,07,24,298,27,0*6F
,$GNRMC,000813.00,A,3653.7855,S,17454.4460,E,0.5,199.0,160621,,,A,V*22
,$GNVTG,199.0,T,,M,0.5,N,0.9,K,A*1E
,$GNZDA,000813.00,16,06,2021,,*72
,$PSGSA,4,01,03,10,16,21,22,25,26,31,32,,,1.4,0.8,1.2,4325,00081300,00,,7,44,,2,B,4,0,0,2,16,0,0,0,1,0,-0.84,16,1*31
,$PSGSA,4,76,82,,,,,,,,,,,1.4,0.8,1.2,4325,00081300,00,,7,44,,2,B,4,0,0,2,16,0,0,0,1,0,-0.84,16,2*3E
,$GPGGA,000814.00,3653.7856,S,17454.4460,E,1,12,0.8,22.3,M,28.3,M,,*47
,$GNGLL,3653.7856,S,17454.4460,E,000814.00,A,A*6D
,$GNGSA,A,3,01,03,10,16,21,22,25,26,31,32,,,1.4,0.8,1.2,1*38
,$GNGSA,A,3,76,82,,,,,,,,,,,1.4,0.8,1.2,2*37
,$GPGSV,3,1,11,01,28,268,38,03,31,224,45,04,07,256,39,10,14,036,28,0*6C
,$GPGSV,3,2,11,16,08,002,27,21,23,297,34,22,55,240,40,25,24,128,32,0*6C
,$GPGSV,3,3,11,26,31,017,40,31,85,204,44,32,38,103,46,,,,,0*52
,$GLGSV,2,1,08,65,22,068,28,66,64,145,38,67,29,217,42,75,19,149,,0*72
,$GLGSV,2,2,08,76,71,110,42,77,44,350,28,82,09,258,34,83,07,214,28,0*76
,$GQGSV,1,1,04,01,58,248,,02,07,331,,03,08,324,,07,24,298,27,0*6F
,$GNRMC,000814.00,A,3653.7856,S,17454.4460,E,0.5,205.3,160621,,,A,V*23
,$GNVTG,205.3,T,,M,0.5,N,0.9,K,A*1B
,$GNZDA,000814.00,16,06,2021,,*75
,$PSGSA,4,01,03,10,16,21,22,25,26,31,32,,,1.4,0.8,1.2,4325,00081400,00,,7,44,,2,B,4,0,0,2,16,0,0,0,1,0,-0.56,16,1*39
,$PSGSA,4,76,82,,,,,,,,,,,1.4,0.8,1.2,4325,00081400,00,,7,44,,2,B,4,0,0,2,16,0,0,0,1,0,-0.56,16,2*36
,$GPGGA,000815.00,3653.7858,S,17454.4459,E,1,12,0.8,22.2,M,28.3,M,,*43
,$GNGLL,3653.7858,S,17454.4459,E,000815.00,A,A*68
,$GNGSA,A,3,01,03,10,16,21,22,25,26,31,32,,,1.4,0.8,1.2,1*38
,$GNGSA,A,3,76,82,,,,,,,,,,,1.4,0.8,1.2,2*37
,$GPGSV,3,1,11,01,28,268,37,03,31,224,45,04,07,256,38,10,14,036,26,0*6C
,$GPGSV,3,2,11,16,08,002,29,21,23,297,29,22,55,240,40,25,24,128,34,0*68
,$GPGSV,3,3,11,26,31,017,41,31,85,204,44,32,38,103,46,,,,,0*53
,$GLGSV,2,1,08,65,22,068,27,66,64,145,38,67,29,217,43,75,19,149,,0*7C
,$GLGSV,2,2,08,76,71,110,42,77,44,350,28,82,09,258,34,83,07,214,29,0*77
,$GQGSV,1,1,04,01,58,248,,02,07,331,,03,08,324,,07,24,298,24,0*6C
,$GNRMC,000815.00,A,3653.7858,S,17454.4459,E,0.5,211.0,160621,,,A,V*20
,$GNVTG,211.0,T,,M,0.5,N,0.9,K,A*1D
,$GNZDA,000815.00,16,06,2021,,*74
,$PSGSA,4,01,03,10,16,21,22,25,26,31,32,,,1.4,0.8,1.2,4324,00081500,00,,7,44,,2,B,4,0,0,2,16,0,0,0,1,0,-0.56,16,1*39
,$PSGSA,4,76,82,,,,,,,,,,,1.4,0.8,1.2,4324,00081500,00,,7,44,,2,B,4,0,0,2,16,0,0,0,1,0,-0.56,16,2*36
,$GPGGA,000816.00,3653.7859,S,17454.4458,E,1,12,0.8,22.3,M,28.3,M,,*41
,$GNGLL,3653.7859,S,17454.4458,E,000816.00,A,A*6B
,$GNGSA,A,3,01,03,10,16,21,22,25,26,31,32,,,1.4,0.8,1.2,1*38
,$GNGSA,A,3,76,82,,,,,,,,,,,1.4,0.8,1.2,2*37
,$GPGSV,3,1,11,01,28,268,38,03,31,224,45,04,07,256,35,10,14,036,23,0*6B
,$GPGSV,3,2,11,16,08,002,27,21,23,297,32,22,55,240,40,25,24,128,35,0*6D
,$GPGSV,3,3,11,26,31,017,42,31,85,203,43,32,38,103,46,,,,,0*50
,$GLGSV,2,1,08,65,22,068,25,66,64,145,38,67,29,217,42,75,19,149,,0*7F
,$GLGSV,2,2,08,76,71,110,42,77,44,350,28,82,09,258,33,83,07,214,28,0*71
,$GQGSV,1,1,04,01,58,248,,02,07,331,,03,08,324,,07,24,298,26,0*6E
,$GNRMC,000816.00,A,3653.7859,S,17454.4458,E,0.5,209.0,160621,,,A,V*2A
,$GNVTG,209.0,T,,M,0.5,N,0.9,K,A*14
,$GNZDA,000816.00,16,06,2021,,*77
,$PSGSA,4,01,03,10,16,21,22,25,26,31,32,,,1.4,0.8,1.2,4324,00081600,00,,7,44,,2,B,4,0,0,2,16,0,0,0,1,0,-0.56,16,1*3A
,$PSGSA,4,76,82,,,,,,,,,,,1.4,0.8,1.2,4324,00081600,00,,7,44,,2,B,4,0,0,2,16,0,0,0,1,0,-0.56,16,2*35
,$GPGGA,000817.00,3653.7860,S,17454.4457,E,1,12,0.8,22.1,M,28.3,M,,*47
,$GNGLL,3653.7860,S,17454.4457,E,000817.00,A,A*6F
,$GNGSA,A,3,01,03,10,16,21,22,25,26,31,32,,,1.4,0.8,1.2,1*38
,$GNGSA,A,3,76,82,,,,,,,,,,,1.4,0.8,1.2,2*37
,$GPGSV,3,1,11,01,28,268,37,03,31,224,44,04,07,256,38,10,14,036,27,0*6C
,$GPGSV,3,2,11,16,08,002,26,21,23,297,31,22,55,240,41,25,24,128,33,0*68
,$GPGSV,3,3,11,26,31,017,42,31,85,203,43,32,38,103,46,,,,,0*50
,$GLGSV,2,1,08,65,22,068,25,66,64,145,38,67,29,217,42,75,19,149,,0*7F
,$GLGSV,2,2,08,76,71,110,42,77,44,350,26,82,09,258,36,83,07,214,27,0*75
,$GQGSV,1,1,04,01,58,248,,02,07,331,,03,08,324,,07,24,298,26,0*6E
,$GNRMC,000817.00,A,3653.7860,S,17454.4457,E,0.5,207.4,160621,,,A,V*24
,$GNVTG,207.4,T,,M,0.5,N,1.0,K,A*16
,$GNZDA,000817.00,16,06,2021,,*76
,$PSGSA,4,01,03,10,16,21,22,25,26,31,32,,,1.4,0.8,1.2,4324,00081700,00,,7,43,,2,B,4,0,0,2,16,0,0,0,1,0,-0.56,0,1*0B
,$PSGSA,4,76,82,,,,,,,,,,,1.4,0.8,1.2,4324,00081700,00,,7,43,,2,B,4,0,0,2,16,0,0,0,1,0,-0.56,0,2*04
,$GPGGA,000818.00,3653.7861,S,17454.4456,E,1,12,0.8,22.2,M,28.3,M,,*4B
,$GNGLL,3653.7861,S,17454.4456,E,000818.00,A,A*60
,$GNGSA,A,3,01,03,10,16,21,22,25,26,31,32,,,1.4,0.8,1.2,1*38
,$GNGSA,A,3,76,82,,,,,,,,,,,1.4,0.8,1.2,2*37
,$GPGSV,3,1,11,01,28,268,38,03,31,224,44,04,07,256,38,10,14,036,27,0*63
,$GPGSV,3,2,11,16,08,002,23,21,23,297,32,22,55,240,39,25,24,128,34,0*66
,$GPGSV,3,3,11,26,31,017,42,31,85,203,42,32,38,103,46,,,,,0*51
,$GLGSV,2,1,08,65,22,068,25,66,64,145,39,67,29,217,42,75,19,149,,0*7E
,$GLGSV,2,2,08,76,71,110,42,77,44,350,28,82,09,258,34,83,07,214,24,0*7A
,$GQGSV,1,1,04,01,58,248,,02,07,331,,03,08,324,,07,24,298,26,0*6E
,$GNRMC,000818.00,A,3653.7861,S,17454.4456,E,0.5,206.4,160621,,,A,V*2A
,$GNVTG,206.4,T,,M,0.5,N,1.0,K,A*17
,$GNZDA,000818.00,16,06,2021,,*79
,$PSGSA,4,01,03,10,16,21,22,25,26,31,32,,,1.4,0.8,1.2,4324,00081800,00,,7,43,,2,B,4,0,0,2,16,0,0,0,1,0,-0.56,0,1*04
,$PSGSA,4,76,82,,,,,,,,,,,1.4,0.8,1.2,4324,00081800,00,,7,43,,2,B,4,0,0,2,16,0,0,0,1,0,-0.56,0,2*0B
,$GPGGA,000819.00,3653.7862,S,17454.4455,E,1,12,0.8,22.2,M,28.3,M,,*4A
,$GNGLL,3653.7862,S,17454.4455,E,000819.00,A,A*61
,$GNGSA,A,3,01,03,10,16,21,22,25,26,31,32,,,1.4,0.8,1.2,1*38
,$GNGSA,A,3,76,82,,,,,,,,,,,1.4,0.8,1.2,2*37
,$GPGSV,3,1,11,01,28,268,36,03,31,224,45,04,07,256,35,10,14,036,27,0*61
,$GPGSV,3,2,11,16,08,002,24,21,23,297,31,22,55,240,39,25,24,128,37,0*61
,$GPGSV,3,3,11,26,31,017,42,31,85,203,43,32,38,103,46,,,,,0*50
,$GLGSV,2,1,08,65,22,068,21,66,64,145,39,67,29,217,42,75,19,149,,0*7A
,$GLGSV,2,2,08,76,71,110,41,77,44,350,29,82,09,258,33,83,07,214,27,0*7C
,$GQGSV,1,1,04,01,58,248,,02,07,331,,03,08,324,,07,24,298,28,0*60
,$GNRMC,000819.00,A,3653.7862,S,17454.4455,E,0.5,209.8,160621,,,A,V*28
,$GNVTG,209.8,T,,M,0.5,N,1.0,K,A*14
,$GNZDA,000819.00,16,06,2021,,*78
,$PSGSA,4,01,03,10,16,21,22,25,26,31,32,,,1.4,0.8,1.2,4325,00081900,00,,7,44,,2,B,4,0,0,2,16,0,0,0,1,0,-0.56,0,1*03
,$PSGSA,4,76,82,,,,,,,,,,,1.4,0.8,1.2,4325,00081900,00,,7,44,,2,B,4,0,0,2,16,0,0,0,1,0,-0.56,0,2*0C
,$GPGGA,000820.00,3653.7863,S,17454.4455,E,1,12,0.8,22.3,M,28.3,M,,*40
,$GNGLL,3653.7863,S,17454.4455,E,000820.00,A,A*6A
,$GNGSA,A,3,01,03,10,16,21,22,25,26,31,32,,,1.4,0.8,1.2,1*38
,$GNGSA,A,3,76,82,,,,,,,,,,,1.4,0.8,1.2,2*37
,$GPGSV,3,1,11,01,28,268,37,03,31,224,45,04,07,256,35,10,14,036,31,0*67
,$GPGSV,3,2,11,16,08,002,28,21,23,297,32,22,55,240,40,25,24,128,35,0*62
,$GPGSV,3,3,11,26,32,017,42,31,85,203,43,32,38,103,46,,,,,0*53
,$GLGSV,2,1,08,65,22,068,26,66,64,145,39,67,29,217,42,75,19,149,,0*7D
,$GLGSV,2,2,08,76,71,110,41,77,44,350,29,82,09,258,34,83,07,214,28,0*74
,$GQGSV,1,1,04,01,58,248,,02,07,331,,03,08,324,,07,24,298,27,0*6F
,$GNRMC,000820.00,A,3653.7863,S,17454.4455,E,0.0,209.8,160621,,,A,V*26
,$GNVTG,209.8,T,,M,0.0,N,0.0,K,A*10
,$GNZDA,000820.00,16,06,2021,,*72
,$PSGSA,4,01,03,10,16,21,22,25,26,31,32,,,1.4,0.8,1.2,4325,00082000,00,,7,44,,2,B,4,0,0,2,16,0,0,0,1,0,-0.56,0,1*09
,$PSGSA,4,76,82,,,,,,,,,,,1.4,0.8,1.2,4325,00082000,00,,7,44,,2,B,4,0,0,2,16,0,0,0,1,0,-0.56,0,2*06
,$GPGGA,000821.00,3653.7863,S,17454.4455,E,1,12,0.8,22.4,M,28.3,M,,*46
,$GNGLL,3653.7863,S,17454.4455,E,000821.00,A,A*6B
,$GNGSA,A,3,01,03,10,16,21,22,25,26,31,32,,,1.4,0.8,1.2,1*38
,$GNGSA,A,3,76,82,,,,,,,,,,,1.4,0.8,1.2,2*37
,$GPGSV,3,1,11,01,28,268,37,03,31,224,44,04,07,256,37,10,14,036,26,0*62
,$GPGSV,3,2,11,16,08,002,28,21,23,297,29,22,55,240,40,25,24,128,29,0*65
,$GPGSV,3,3,11,26,32,017,41,31,85,203,43,32,38,103,45,,,,,0*53
,$GLGSV,2,1,08,65,22,068,25,66,64,145,38,67,29,217,42,75,19,149,,0*7F
,$GLGSV,2,2,08,76,71,110,42,77,44,350,28,82,09,258,31,83,07,214,25,0*7E
,$GQGSV,1,1,04,01,58,248,,02,07,331,,03,08,324,,07,24,298,25,0*6D
,$GNRMC,000821.00,A,3653.7863,S,17454.4455,E,0.0,209.8,160621,,,A,V*27
,$GNVTG,209.8,T,,M,0.0,N,0.0,K,A*10
,$GNZDA,000821.00,16,06,2021,,*73
,$PSGSA,4,01,03,10,16,21,22,25,26,31,32,,,1.4,0.8,1.2,4325,00082100,00,,7,43,,2,B,4,0,0,2,16,0,0,0,1,0,-0.56,0,1*0F
,$PSGSA,4,76,82,,,,,,,,,,,1.4,0.8,1.2,4325,00082100,00,,7,43,,2,B,4,0,0,2,16,0,0,0,1,0,-0.56,0,2*00
,$GPGGA,000822.00,3653.7863,S,17454.4455,E,1,12,0.8,22.5,M,28.3,M,,*44
,$GNGLL,3653.7863,S,17454.4455,E,000822.00,A,A*68
,$GNGSA,A,3,01,03,10,16,21,22,25,26,31,32,,,1.4,0.8,1.2,1*38
,$GNGSA,A,3,76,82,,,,,,,,,,,1.4,0.8,1.2,2*37
,$GPGSV,3,1,11,01,28,268,37,03,31,224,44,04,07,256,37,10,14,036,25,0*61
,$GPGSV,3,2,11,16,08,002,23,21,23,297,33,22,55,240,41,25,24,128,34,0*68
,$GPGSV,3,3,11,26,32,017,41,31,85,203,43,32,38,103,45,,,,,0*53
,$GLGSV,2,1,08,65,22,068,23,66,64,145,39,67,29,217,42,75,19,149,,0*78
,$GLGSV,2,2,08,76,71,111,42,77,44,350,29,82,09,258,32,83,07,214,25,0*7D
,$GQGSV,1,1,04,01,58,248,,02,07,331,,03,08,324,,07,24,298,29,0*61
,$GNRMC,000822.00,A,3653.7863,S,17454.4455,E,0.5,209.8,160621,,,A,V*21
,$GNVTG,209.8,T,,M,0.5,N,0.9,K,A*1C
,$GNZDA,000822.00,16,06,2021,,*70
,$PSGSA,4,01,03,10,16,21,22,25,26,31,32,,,1.4,0.8,1.2,4325,00082200,00,,7,43,,2,B,4,0,0,2,16,0,0,0,1,0,-0.56,0,1*0C
,$PSGSA,4,76,82,,,,,,,,,,,1.4,0.8,1.2,4325,00082200,00,,7,43,,2,B,4,0,0,2,16,0,0,0,1,0,-0.56,0,2*03
,$GPGGA,000823.00,3653.7862,S,17454.4455,E,1,12,0.8,22.7,M,28.3,M,,*46
,$GNGLL,3653.7862,S,17454.4455,E,000823.00,A,A*68
,$GNGSA,A,3,01,03,10,16,21,22,25,26,31,32,,,1.4,0.8,1.2,1*38
,$GNGSA,A,3,76,82,,,,,,,,,,,1.4,0.8,1.2,2*37
,$GPGSV,3,1,11,01,28,268,38,03,31,224,44,04,07,256,36,10,14,036,21,0*6B
,$GPGSV,3,2,11,16,08,002,22,21,23,297,34,22,56,240,41,25,24,128,35,0*6C
,$GPGSV,3,3,11,26,32,017,42,31,85,203,42,32,37,103,45,,,,,0*5E
,$GLGSV,2,1,08,65,22,068,27,66,64,145,38,67,29,217,42,75,19,149,,0*7D
,$GLGSV,2,2,08,76,71,111,42,77,45,350,29,82,09,258,33,83,07,214,24,0*7C
,$GQGSV,1,1,04,01,58,248,,02,07,331,,03,08,324,,07,24,298,28,0*60
,$GNRMC,000823.00,A,3653.7862,S,17454.4455,E,0.5,209.8,160621,,,A,V*21
,$GNVTG,209.8,T,,M,0.5,N,0.9,K,A*1C
,$GNZDA,000823.00,16,06,2021,,*71
,$PSGSA,4,01,03,10,16,21,22,25,26,31,32,,,1.4,0.8,1.2,4325,00082300,00,,7,43,,2,B,4,0,0,2,16,0,0,0,1,0,-0.56,16,1*3A
,$PSGSA,4,76,82,,,,,,,,,,,1.4,0.8,1.2,4325,00082300,00,,7,43,,2,B,4,0,0,2,16,0,0,0,1,0,-0.56,16,2*35
,$GPGGA,000824.00,3653.7861,S,17454.4455,E,1,12,0.8,22.8,M,28.3,M,,*4D
,$GNGLL,3653.7861,S,17454.4455,E,000824.00,A,A*6C
,$GNGSA,A,3,01,03,10,16,21,22,25,26,31,32,,,1.4,0.8,1.2,1*38
,$GNGSA,A,3,76,82,,,,,,,,,,,1.4,0.8,1.2,2*37
,$GPGSV,3,1,11,01,28,268,38,03,31,224,44,04,07,256,34,10,14,036,28,0*60
,$GPGSV,3,2,11,16,08,002,29,21,23,297,32,22,56,240,40,25,24,128,27,0*63
,$GPGSV,3,3,11,26,32,017,41,31,85,203,42,32,37,103,44,,,,,0*5C
,$GLGSV,2,1,08,65,22,068,25,66,64,145,39,67,29,217,43,75,19,149,,0*7F
,$GLGSV,2,2,08,76,71,111,41,77,45,350,31,82,09,258,34,83,07,214,23,0*76
,$GQGSV,1,1,04,01,58,248,,02,07,331,,03,08,324,,07,24,298,26,0*6E
,$GNRMC,000824.00,A,3653.7861,S,17454.4455,E,0.5,209.8,160621,,,A,V*25
,$GNVTG,209.8,T,,M,0.5,N,0.9,K,A*1C
,$GNZDA,000824.00,16,06,2021,,*76
,$PSGSA,4,01,03,10,16,21,22,25,26,31,32,,,1.4,0.8,1.2,4324,00082400,00,,7,43,,2,B,4,0,0,2,16,0,0,0,1,0,-0.56,16,1*3C
,$PSGSA,4,76,82,,,,,,,,,,,1.4,0.8,1.2,4324,00082400,00,,7,43,,2,B,4,0,0,2,16,0,0,0,1,0,-0.56,16,2*33
,$GPGGA,000825.00,3653.7861,S,17454.4456,E,1,12,0.8,22.9,M,28.3,M,,*4E
,$GNGLL,3653.7861,S,17454.4456,E,000825.00,A,A*6E
,$GNGSA,A,3,01,03,10,16,21,22,25,26,31,32,,,1.4,0.8,1.2,1*38
,$GNGSA,A,3,76,82,,,,,,,,,,,1.4,0.8,1.2,2*37
,$GPGSV,3,1,11,01,28,268,37,03,31,224,43,04,07,256,38,10,14,035,27,0*68
,$GPGSV,3,2,11,16,08,002,24,21,23,297,34,22,56,240,41,25,24,128,28,0*66
,$GPGSV,3,3,11,26,32,017,41,31,85,203,43,32,37,103,44,,,,,0*5D
,$GLGSV,2,1,08,65,22,068,24,66,64,145,38,67,29,217,42,75,19,149,,0*7E
,$GLGSV,2,2,08,76,71,111,41,77,45,350,32,82,09,258,37,83,07,214,25,0*70
,$GQGSV,1,1,04,01,58,248,,02,07,331,,03,08,324,,07,24,298,26,0*6E
,$GNRMC,000825.00,A,3653.7861,S,17454.4456,E,0.4,209.8,160621,,,A,V*26
,$GNVTG,209.8,T,,M,0.4,N,0.7,K,A*13
,$GNZDA,000825.00,16,06,2021,,*77
,$PSGSA,4,01,03,10,16,21,22,25,26,31,32,,,1.4,0.8,1.2,4324,00082500,00,,7,43,,2,B,4,0,0,2,16,0,0,0,1,0,-0.56,16,1*3D
,$PSGSA,4,76,82,,,,,,,,,,,1.4,0.8,1.2,4324,00082500,00,,7,43,,2,B,4,0,0,2,16,0,0,0,1,0,-0.56,16,2*32
,$GPGGA,000826.00,3653.7861,S,17454.4457,E,1,12,0.8,23.0,M,28.3,M,,*44
,$GNGLL,3653.7861,S,17454.4457,E,000826.00,A,A*6C
,$GNGSA,A,3,01,03,10,16,21,22,25,26,31,32,,,1.4,0.8,1.2,1*38
,$GNGSA,A,3,76,82,,,,,,,,,,,1.4,0.8,1.2,2*37
,$GPGSV,3,1,11,01,28,268,39,03,31,224,44,04,07,256,33,10,14,035,23,0*6E
,$GPGSV,3,2,11,16,08,002,22,21,23,297,35,22,56,240,41,25,24,128,34,0*6C
,$GPGSV,3,3,11,26,32,017,41,31,85,203,42,32,37,103,45,,,,,0*5D
,$GLGSV,2,1,08,65,22,068,26,66,64,145,38,67,29,217,42,75,19,149,,0*7C
,$GLGSV,2,2,08,76,71,111,41,77,45,350,33,82,09,258,36,83,07,214,21,0*74
,$GQGSV,1,1,04,01,58,248,,02,07,331,,03,08,324,,07,24,298,27,0*6F
,$GNRMC,000826.00,A,3653.7861,S,17454.4457,E,0.0,209.8,160621,,,A,V*20
,$GNVTG,209.8,T,,M,0.0,N,0.0,K,A*10
,$GNZDA,000826.00,16,06,2021,,*74
,$PSGSA,4,01,03,10,16,21,22,25,26,31,32,,,1.4,0.8,1.2,4324,00082600,00,,7,43,,2,B,4,0,0,2,16,0,0,0,1,0,-0.56,16,1*3E
,$PSGSA,4,76,82,,,,,,,,,,,1.4,0.8,1.2,4324,00082600,00,,7,43,,2,B,4,0,0,2,16,0,0,0,1,0,-0.56,16,2*31
,$GPGGA,000827.00,3653.7860,S,17454.4458,E,1,12,0.8,23.1,M,28.3,M,,*4A
,$GNGLL,3653.7860,S,17454.4458,E,000827.00,A,A*63
,$GNGSA,A,3,01,03,10,16,21,22,25,26,31,32,,,1.4,0.8,1.2,1*38
,$GNGSA,A,3,76,82,,,,,,,,,,,1.4,0.8,1.2,2*37
,$GPGSV,3,1,11,01,28,268,39,03,31,224,43,04,07,256,38,10,14,035,24,0*65
,$GPGSV,3,2,11,16,08,002,22,21,23,297,34,22,56,240,41,25,23,128,34,0*6A
,$GPGSV,3,3,11,26,32,017,41,31,85,202,43,32,37,103,45,,,,,0*5D
,$GLGSV,2,1,08,65,22,068,26,66,64,145,38,67,29,217,42,75,19,149,,0*7C
,$GLGSV,2,2,08,76,71,111,41,77,45,350,30,82,09,258,31,83,07,214,24,0*75
,$GQGSV,1,1,04,01,58,248,,02,07,331,,03,08,324,,07,24,298,27,0*6F
,$GNRMC,000827.00,A,3653.7860,S,17454.4458,E,0.0,209.8,160621,,,A,V*2F
,$GNVTG,209.8,T,,M,0.0,N,0.0,K,A*10
,$GNZDA,000827.00,16,06,2021,,*75
,$PSGSA,4,01,03,10,16,21,22,25,26,31,32,,,1.4,0.8,1.2,4325,00082700,00,,7,43,,2,B,4,0,0,2,16,0,0,0,1,0,-0.56,16,1*3E
,$PSGSA,4,76,82,,,,,,,,,,,1.4,0.8,1.2,4325,00082700,00,,7,43,,2,B,4,0,0,2,16,0,0,0,1,0,-0.56,16,2*31
,$GPGGA,000828.00,3653.7859,S,17454.4459,E,1,12,0.8,23.3,M,28.3,M,,*4C
,$GNGLL,3653.7859,S,17454.4459,E,000828.00,A,A*67
,$GNGSA,A,3,01,03,10,16,21,22,25,26,31,32,,,1.4,0.8,1.2,1*38
,$GNGSA,A,3,76,82,,,,,,,,,,,1.4,0.8,1.2,2*37
,$GPGSV,3,1,11,01,28,268,38,03,31,224,43,04,07,256,38,10,14,035,24,0*64
,$GPGSV,3,2,11,16,08,002,24,21,23,297,28,22,56,240,40,25,23,128,31,0*65
,$GPGSV,3,3,11,26,32,017,41,31,85,202,43,32,37,103,44,,,,,0*5C
,$GLGSV,2,1,08,65,22,068,27,66,64,145,38,67,29,217,42,75,19,149,,0*7D
,$GLGSV,2,2,08,76,71,111,41,77,45,350,33,82,09,258,32,83,07,214,25,0*74
,$GQGSV,1,1,04,01,58,248,,02,07,331,,03,08,324,,07,24,298,26,0*6E
,$GNRMC,000828.00,A,3653.7859,S,17454.4459,E,0.3,209.8,160621,,,A,V*28
,$GNVTG,209.8,T,,M,0.3,N,0.5,K,A*16
,$GNZDA,000828.00,16,06,2021,,*7A
,$PSGSA,4,01,03,10,21,22,25,26,31,32,,,,1.4,0.8,1.2,4326,00082800,00,,7,43,,2,B,4,0,0,2,16,0,0,0,1,0,-0.56,16,1*35
,$PSGSA,4,76,82,,,,,,,,,,,1.4,0.8,1.2,4326,00082800,00,,7,43,,2,B,4,0,0,2,16,0,0,0,1,0,-0.56,16,2*3D
,$GPGGA,000829.00,3653.7858,S,17454.4459,E,1,12,0.8,23.2,M,28.3,M,,*4D
,$GNGLL,3653.7858,S,17454.4459,E,000829.00,A,A*67
,$GNGSA,A,3,01,03,10,16,21,22,25,26,31,32,,,1.4,0.8,1.2,1*38
,$GNGSA,A,3,76,82,,,,,,,,,,,1.4,0.8,1.2,2*37
,$GPGSV,3,1,11,01,28,268,38,03,31,224,44,04,07,256,39,10,14,035,25,0*63
,$GPGSV,3,2,11,16,09,002,28,21,23,297,27,22,56,240,40,25,23,128,33,0*65
,$GPGSV,3,3,11,26,32,017,40,31,85,202,43,32,37,103,44,,,,,0*5D
,$GLGSV,2,1,08,65,22,068,28,66,64,145,37,67,29,217,42,75,19,149,,0*7D
,$GLGSV,2,2,08,76,71,111,41,77,45,350,33,82,09,258,33,83,07,214,24,0*74
,$GQGSV,1,1,04,01,58,248,,02,07,331,,03,08,324,,07,24,298,21,0*69
,$GNRMC,000829.00,A,3653.7858,S,17454.4459,E,0.3,209.8,160621,,,A,V*28
,$GNVTG,209.8,T,,M,0.3,N,0.5,K,A*16
,$GNZDA,000829.00,16,06,2021,,*7B
,$PSGSA,4,01,03,10,16,21,22,25,26,31,32,,,1.4,0.8,1.2,4327,00082900,00,,7,43,,2,B,4,0,0,2,16,0,0,0,1,0,-0.56,16,1*32
,$PSGSA,4,76,82,,,,,,,,,,,1.4,0.8,1.2,4327,00082900,00,,7,43,,2,B,4,0,0,2,16,0,0,0,1,0,-0.56,16,2*3D
,$GPGGA,000830.00,3653.7857,S,17454.4460,E,1,12,0.8,23.3,M,28.3,M,,*41
,$GNGLL,3653.7857,S,17454.4460,E,000830.00,A,A*6A
,$GNGSA,A,3,01,03,10,16,21,22,25,26,31,32,,,1.4,0.8,1.2,1*38
,$GNGSA,A,3,76,82,,,,,,,,,,,1.4,0.8,1.2,2*37
,$GPGSV,3,1,11,01,28,268,39,03,31,224,43,04,07,256,40,10,14,035,25,0*6B
,$GPGSV,3,2,11,16,09,002,27,21,23,297,32,22,56,240,40,25,23,128,34,0*69
,$GPGSV,3,3,11,26,32,017,40,31,85,202,42,32,37,103,45,,,,,0*5D
,$GLGSV,2,1,08,65,22,068,26,66,64,145,38,67,29,217,42,75,19,149,,0*7C
,$GLGSV,2,2,08,76,71,111,41,77,45,350,32,82,09,258,36,83,07,214,24,0*70
,$GQGSV,1,1,04,01,58,248,,02,07,331,,03,08,324,,07,24,298,24,0*6C
,$GNRMC,000830.00,A,3653.7857,S,17454.4460,E,0.3,209.8,160621,,,A,V*25
,$GNVTG,209.8,T,,M,0.3,N,0.5,K,A*16
,$GNZDA,000830.00,16,06,2021,,*73
,$PSGSA,4,01,03,10,16,21,22,25,26,31,32,,,1.4,0.8,1.2,4327,00083000,00,,7,43,,2,B,4,0,0,2,16,0,0,0,1,0,-0.56,16,1*3A
,$PSGSA,4,76,82,,,,,,,,,,,1.4,0.8,1.2,4327,00083000,00,,7,43,,2,B,4,0,0,2,16,0,0,0,1,0,-0.56,16,2*35
,$GPGGA,000831.00,3653.7857,S,17454.4460,E,1,12,0.8,23.3,M,28.3,M,,*40
,$GNGLL,3653.7857,S,17454.4460,E,000831.00,A,A*6B
,$GNGSA,A,3,01,03,10,16,21,22,25,26,31,32,,,1.4,0.8,1.2,1*38
,$GNGSA,A,3,76,82,,,,,,,,,,,1.4,0.8,1.2,2*37
,$GPGSV,3,1,11,01,28,268,38,03,31,224,43,04,07,256,38,10,14,035,28,0*68
,$GPGSV,3,2,11,16,09,002,25,21,23,297,36,22,56,240,41,25,23,128,36,0*6C
,$GPGSV,3,3,11,26,32,017,40,31,85,202,42,32,37,103,45,,,,,0*5D
,$GLGSV,2,1,08,65,22,068,26,66,64,145,38,67,29,217,42,75,19,149,,0*7C
,$GLGSV,2,2,08,76,71,111,41,77,45,350,32,82,09,258,34,83,07,214,21,0*77
,$GQGSV,1,1,04,01,58,248,,02,07,331,,03,08,324,,07,24,298,25,0*6D
,$GNRMC,000831.00,A,3653.7857,S,17454.4460,E,0.0,209.8,160621,,,A,V*27
,$GNVTG,209.8,T,,M,0.0,N,0.0,K,A*10
,$GNZDA,000831.00,16,06,2021,,*72
,$PSGSA,4,01,03,10,16,21,22,25,26,31,32,,,1.4,0.8,1.2,4326,00083100,00,,7,43,,2,B,4,0,0,2,16,0,0,0,1,0,-0.56,16,1*3A
,$PSGSA,4,76,82,,,,,,,,,,,1.4,0.8,1.2,4326,00083100,00,,7,43,,2,B,4,0,0,2,16,0,0,0,1,0,-0.56,16,2*35
,$GPGGA,000832.00,3653.7857,S,17454.4461,E,1,12,0.8,23.1,M,28.3,M,,*40
,$GNGLL,3653.7857,S,17454.4461,E,000832.00,A,A*69
,$GNGSA,A,3,01,03,10,16,21,22,25,26,31,32,,,1.4,0.8,1.2,1*38
,$GNGSA,A,3,76,82,,,,,,,,,,,1.4,0.8,1.2,2*37
,$GPGSV,3,1,11,01,28,268,39,03,31,224,43,04,07,256,37,10,14,035,30,0*6F
,$GPGSV,3,2,11,16,09,002,26,21,23,297,36,22,56,240,42,25,23,128,36,0*6C
,$GPGSV,3,3,11,26,32,017,40,31,85,202,42,32,37,103,43,,,,,0*5B
,$GLGSV,2,1,08,65,22,068,25,66,64,145,38,67,29,217,42,75,19,149,,0*7F
,$GLGSV,2,2,08,76,71,111,41,77,45,350,32,82,09,258,29,83,07,214,24,0*7E
,$GQGSV,1,1,04,01,58,248,,02,07,331,,03,08,324,,07,24,298,27,0*6F
,$GNRMC,000832.00,A,3653.7857,S,17454.4461,E,0.0,209.8,160621,,,A,V*25
,$GNVTG,209.8,T,,M,0.0,N,0.0,K,A*10
,$GNZDA,000832.00,16,06,2021,,*71
,$PSGSA,4,01,03,10,16,21,22,25,26,31,32,,,1.4,0.8,1.2,4326,00083200,00,,7,42,,2,B,4,0,0,2,16,0,0,0,1,0,-0.56,16,1*38
,$PSGSA,4,76,82,,,,,,,,,,,1.4,0.8,1.2,4326,00083200,00,,7,42,,2,B,4,0,0,2,16,0,0,0,1,0,-0.56,16,2*37
,$GPGGA,000833.00,3653.7857,S,17454.4462,E,1,12,0.8,23.1,M,28.3,M,,*42
,$GNGLL,3653.7857,S,17454.4462,E,000833.00,A,A*6B
,$GNGSA,A,3,01,03,10,16,21,22,25,26,31,32,,,1.4,0.8,1.2,1*38
,$GNGSA,A,3,76,82,,,,,,,,,,,1.4,0.8,1.2,2*37
,$GPGSV,3,1,11,01,28,268,39,03,31,224,42,04,07,256,37,10,14,035,27,0*68
,$GPGSV,3,2,11,16,09,002,24,21,23,297,29,22,56,240,41,25,23,128,37,0*62
,$GPGSV,3,3,11,26,32,017,41,31,85,202,42,32,37,103,42,,,,,0*5B
,$GLGSV,2,1,08,65,22,068,29,66,64,145,39,67,29,217,42,75,19,149,,0*72
,$GLGSV,2,2,08,76,71,111,41,77,45,350,33,82,09,258,30,83,07,214,23,0*70
,$GQGSV,1,1,04,01,58,248,,02,07,331,,03,08,324,,07,24,298,29,0*61
,$GNRMC,000833.00,A,3653.7857,S,17454.4462,E,0.0,209.8,160621,,,A,V*27
,$GNVTG,209.8,T,,M,0.0,N,0.0,K,A*10
,$GNZDA,000833.00,16,06,2021,,*70
,$PSGSA,4,01,03,10,16,21,22,25,26,31,32,,,1.4,0.8,1.2,4326,00083300,00,,7,42,,2,B,4,0,0,1,17,0,0,0,1,0,-0.56,16,1*3B
,$PSGSA,4,76,82,,,,,,,,,,,1.4,0.8,1.2,4326,00083300,00,,7,42,,2,B,4,0,0,1,17,0,0,0,1,0,-0.56,16,2*34
,$GPGGA,000834.00,3653.7857,S,17454.4463,E,1,12,0.8,23.2,M,28.3,M,,*47
,$GNGLL,3653.7857,S,17454.4463,E,000834.00,A,A*6D
,$GNGSA,A,3,01,03,10,16,21,22,25,26,31,32,,,1.4,0.8,1.2,1*38
,$GNGSA,A,3,76,82,,,,,,,,,,,1.4,0.8,1.2,2*37
,$GPGSV,3,1,11,01,28,268,40,03,31,224,43,04,07,256,39,10,14,035,28,0*66
,$GPGSV,3,2,11,16,09,002,27,21,23,297,34,22,56,240,41,25,23,128,38,0*62
,$GPGSV,3,3,11,26,32,017,40,31,85,202,43,32,37,103,43,,,,,0*5A
,$GLGSV,2,1,08,65,22,068,28,66,64,145,38,67,29,217,43,75,19,149,,0*73
,$GLGSV,2,2,08,76,71,111,41,77,45,350,32,82,09,258,34,83,07,214,23,0*75
,$GQGSV,1,1,04,01,58,248,,02,07,331,,03,08,324,,07,24,298,27,0*6F
,$GNRMC,000834.00,A,3653.7857,S,17454.4463,E,0.3,209.8,160621,,,A,V*22
,$GNVTG,209.8,T,,M,0.3,N,0.5,K,A*16
,$GNZDA,000834.00,16,06,2021,,*77
,$PSGSA,4,01,03,10,16,21,22,25,26,31,32,,,1.4,0.8,1.2,4326,00083400,00,,7,43,,2,B,4,0,0,1,17,0,0,0,1,0,-0.56,16,1*3D
,$PSGSA,4,76,82,,,,,,,,,,,1.4,0.8,1.2,4326,00083400,00,,7,43,,2,B,4,0,0,1,17,0,0,0,1,0,-0.56,16,2*32
,$GPGGA,000835.00,3653.7856,S,17454.4463,E,1,12,0.8,23.2,M,28.3,M,,*47
,$GNGLL,3653.7856,S,17454.4463,E,000835.00,A,A*6D
,$GNGSA,A,3,01,03,10,16,21,22,25,26,31,32,,,1.4,0.8,1.2,1*38
,$GNGSA,A,3,76,82,,,,,,,,,,,1.4,0.8,1.2,2*37
,$GPGSV,3,1,11,01,28,268,40,03,31,224,42,04,07,256,40,10,14,035,29,0*68
,$GPGSV,3,2,11,16,09,002,27,21,23,297,36,22,56,240,41,25,23,128,39,0*61
,$GPGSV,3,3,11,26,32,017,39,31,85,202,43,32,37,103,44,,,,,0*53
,$GLGSV,2,1,08,65,22,068,28,66,64,145,38,67,29,217,42,75,19,149,,0*72
,$GLGSV,2,2,08,76,71,111,41,77,45,350,31,82,09,258,30,83,07,214,26,0*77
,$GQGSV,1,1,04,01,58,248,,02,07,331,,03,08,324,,07,24,298,25,0*6D
,$GNRMC,000835.00,A,3653.7856,S,17454.4463,E,0.3,209.8,160621,,,A,V*22
,$GNVTG,209.8,T,,M,0.3,N,0.5,K,A*16
,$GNZDA,000835.00,16,06,2021,,*76
,$PSGSA,4,01,03,10,16,21,22,25,26,31,32,,,1.4,0.8,1.2,4327,00083500,00,,7,42,,2,B,4,0,0,1,17,0,0,0,1,0,-0.56,16,1*3C
,$PSGSA,4,76,82,,,,,,,,,,,1.4,0.8,1.2,4327,00083500,00,,7,42,,2,B,4,0,0,1,17,0,0,0,1,0,-0.56,16,2*33
,$GPGGA,000836.00,3653.7855,S,17454.4463,E,1,12,0.8,23.1,M,28.3,M,,*44
,$GNGLL,3653.7855,S,17454.4463,E,000836.00,A,A*6D
,$GNGSA,A,3,01,03,10,16,21,22,25,26,31,32,,,1.5,0.8,1.3,1*38
,$GNGSA,A,3,67,76,,,,,,,,,,,1.5,0.8,1.3,2*3C
,$GPGSV,3,1,11,01,28,268,39,03,31,224,42,04,07,256,41,10,14,035,31,0*6E
,$GPGSV,3,2,11,16,09,002,30,21,23,297,30,22,56,240,41,25,23,128,38,0*60
,$GPGSV,3,3,11,26,32,017,39,31,85,202,43,32,37,103,44,,,,,0*53
,$GLGSV,2,1,08,65,22,068,29,66,64,145,38,67,29,217,42,75,19,149,,0*73
,$GLGSV,2,2,08,76,71,111,40,77,45,350,32,82,09,258,29,83,07,215,26,0*7C
,$GQGSV,1,1,04,01,58,248,,02,07,331,,03,08,324,,07,24,298,25,0*6D
,$GNRMC,000836.00,A,3653.7855,S,17454.4463,E,0.3,209.8,160621,,,A,V*22
,$GNVTG,209.8,T,,M,0.3,N,0.5,K,A*16
,$GNZDA,000836.00,16,06,2021,,*75
,$PSGSA,4,01,03,10,16,21,22,25,26,31,32,,,1.5,0.8,1.3,4327,00083600,00,,7,42,,2,B,4,0,0,1,17,0,0,0,1,0,-0.56,16,1*3F
,$PSGSA,4,67,76,,,,,,,,,,,1.5,0.8,1.3,4327,00083600,00,,7,42,,2,B,4,0,0,1,17,0,0,0,1,0,-0.56,16,2*3B
,$GPGGA,000837.00,3653.7854,S,17454.4463,E,1,12,0.8,23.0,M,28.3,M,,*45
,$GNGLL,3653.7854,S,17454.4463,E,000837.00,A,A*6D
,$GNGSA,A,3,01,03,10,16,21,22,25,26,31,32,,,1.5,0.8,1.2,1*39
,$GNGSA,A,3,66,82,,,,,,,,,,,1.5,0.8,1.2,2*37
,$GPGSV,3,1,11,01,28,268,37,03,31,224,43,04,07,256,41,10,14,035,29,0*68
,$GPGSV,3,2,11,16,09,002,32,21,23,297,28,22,56,240,42,25,23,128,35,0*65
,$GPGSV,3,3,11,26,32,017,41,31,85,202,42,32,37,103,45,,,,,0*5C
,$GLGSV,2,1,08,65,22,068,27,66,64,145,39,67,29,217,43,75,19,149,,0*7D
,$GLGSV,2,2,08,76,71,111,40,77,45,350,33,82,09,258,28,83,07,215,27,0*7D
,$GQGSV,1,1,04,01,58,248,,02,07,331,,03,08,324,,07,24,298,18,0*63
,$GNRMC,000837.00,A,3653.7854,S,17454.4463,E,0.0,209.8,160621,,,A,V*21
,$GNVTG,209.8,T,,M,0.0,N,0.0,K,A*10
,$GNZDA,000837.00,16,06,2021,,*74
,$PSGSA,4,01,03,10,16,21,22,25,26,31,32,,,1.5,0.8,1.2,4328,00083700,00,,7,43,,2,B,4,0,0,1,17,0,0,0,1,0,-0.56,16,1*31
,$PSGSA,4,66,82,,,,,,,,,,,1.5,0.8,1.2,4328,00083700,00,,7,43,,2,B,4,0,0,1,17,0,0,0,1,0,-0.56,16,2*3F
,$GPGGA,000838.00,3653.7854,S,17454.4464,E,1,12,0.8,22.6,M,28.3,M,,*4A
,$GNGLL,3653.7854,S,17454.4464,E,000838.00,A,A*65
,$GNGSA,A,3,01,03,10,16,21,22,25,26,31,32,,,1.4,0.8,1.2,1*38
,$GNGSA,A,3,76,82,,,,,,,,,,,1.4,0.8,1.2,2*37
,$GPGSV,3,1,11,01,28,268,37,03,31,224,43,04,07,256,40,10,14,035,31,0*60
,$GPGSV,3,2,11,16,09,002,33,21,23,297,28,22,56,240,42,25,23,128,36,0*67
,$GPGSV,3,3,11,26,32,017,37,31,85,202,42,32,37,103,45,,,,,0*5D
,$GLGSV,2,1,08,65,22,068,27,66,64,145,37,67,29,217,43,75,19,149,,0*73
,$GLGSV,2,2,08,76,71,111,40,77,45,350,34,82,09,258,31,83,07,215,29,0*7C
,$GQGSV,1,1,04,01,58,248,,02,07,331,,03,08,324,,07,24,298,20,0*68
,$GNRMC,000838.00,A,3653.7854,S,17454.4464,E,0.0,209.8,160621,,,A,V*29
,$GNVTG,209.8,T,,M,0.0,N,0.0,K,A*10
,$GNZDA,000838.00,16,06,2021,,*7B
,$PSGSA,4,01,03,10,16,21,22,25,26,31,32,,,1.4,0.8,1.2,4328,00083800,00,,7,43,,2,B,4,0,0,1,17,0,0,0,1,0,-0.56,16,1*3F
,$PSGSA,4,76,82,,,,,,,,,,,1.4,0.8,1.2,4328,00083800,00,,7,43,,2,B,4,0,0,1,17,0,0,0,1,0,-0.56,16,2*30
,$GPGGA,000839.00,3653.7853,S,17454.4465,E,1,12,0.8,22.6,M,28.3,M,,*4D
,$GNGLL,3653.7853,S,17454.4465,E,000839.00,A,A*62
,$GNGSA,A,3,01,03,10,16,21,22,25,26,31,32,,,1.4,0.8,1.2,1*38
,$GNGSA,A,3,76,82,,,,,,,,,,,1.4,0.8,1.2,2*37
,$GPGSV,3,1,11,01,28,268,39,03,31,224,44,04,07,256,40,10,14,035,28,0*61
,$GPGSV,3,2,11,16,09,002,34,21,23,297,26,22,56,240,42,25,23,128,38,0*60
,$GPGSV,3,3,11,26,32,017,38,31,85,201,42,32,37,103,45,,,,,0*51
,$GLGSV,2,1,08,65,22,068,26,66,64,145,35,67,29,217,43,75,19,149,,0*70
,$GLGSV,2,2,08,76,71,111,41,77,45,350,33,82,09,258,32,83,07,215,28,0*78
,$GQGSV,1,1,04,01,58,248,,02,07,331,,03,08,324,,07,24,298,23,0*6B
,$GNRMC,000839.00,A,3653.7853,S,17454.4465,E,0.0,209.8,160621,,,A,V*2E
,$GNVTG,209.8,T,,M,0.0,N,0.0,K,A*10
,$GNZDA,000839.00,16,06,2021,,*7A
,$PSGSA,4,01,03,10,16,22,25,26,31,32,,,,1.4,0.8,1.2,4327,00083900,00,,7,43,,2,B,4,0,0,2,17,0,0,0,0,0,-0.56,16,1*30
,$PSGSA,4,76,82,,,,,,,,,,,1.4,0.8,1.2,4327,00083900,00,,7,43,,2,B,4,0,0,2,17,0,0,0,0,0,-0.56,16,2*3C
,$GPGGA,000840.00,3653.7852,S,17454.4465,E,1,12,0.8,22.9,M,28.3,M,,*4D
,$GNGLL,3653.7852,S,17454.4465,E,000840.00,A,A*6D
,$GNGSA,A,3,01,03,10,16,21,22,25,26,31,32,,,1.4,0.8,1.2,1*38
,$GNGSA,A,3,76,82,,,,,,,,,,,1.4,0.8,1.2,2*37
,$GPGSV,3,1,11,01,28,268,40,03,31,224,43,04,07,256,40,10,14,035,25,0*65
,$GPGSV,3,2,11,16,09,002,34,21,23,297,30,22,56,240,42,25,23,128,34,0*6B
,$GPGSV,3,3,11,26,32,017,38,31,85,201,42,32,37,103,45,,,,,0*51
,$GLGSV,2,1,08,65,22,067,26,66,64,145,37,67,29,217,43,75,19,149,,0*7D
,$GLGSV,2,2,08,76,71,111,41,77,45,350,33,82,09,258,31,83,07,215,25,0*76
,$GQGSV,1,1,04,01,58,248,,02,07,331,,03,08,324,,07,24,298,24,0*6C
,$GNRMC,000840.00,A,3653.7852,S,17454.4465,E,0.3,209.8,160621,,,A,V*22
,$GNVTG,209.8,T,,M,0.3,N,0.5,K,A*16
,$GNZDA,000840.00,16,06,2021,,*74
,$PSGSA,4,01,03,10,16,21,22,25,26,31,32,,,1.4,0.8,1.2,4327,00084000,00,,7,43,,2,B,4,0,0,1,17,0,0,0,1,0,-0.56,16,1*3F
,$PSGSA,4,76,82,,,,,,,,,,,1.4,0.8,1.2,4327,00084000,00,,7,43,,2,B,4,0,0,1,17,0,0,0,1,0,-0.56,16,2*30
,$GPGGA,000841.00,3653.7851,S,17454.4466,E,1,12,0.8,22.7,M,28.3,M,,*42
,$GNGLL,3653.7851,S,17454.4466,E,000841.00,A,A*6C
,$GNGSA,A,3,01,03,10,16,21,22,25,26,31,32,,,1.4,0.8,1.2,1*38
,$GNGSA,A,3,76,82,,,,,,,,,,,1.4,0.8,1.2,2*37
,$GPGSV,3,1,11,01,28,268,40,03,31,224,43,04,07,256,39,10,14,035,30,0*6F
,$GPGSV,3,2,11,16,09,002,32,21,23,297,30,22,56,240,42,25,23,128,35,0*6C
,$GPGSV,3,3,11,26,32,017,38,31,85,201,43,32,37,103,43,,,,,0*56
,$GLGSV,2,1,08,65,22,067,23,66,64,145,38,67,29,217,43,75,19,149,,0*77
,$GLGSV,2,2,08,76,71,111,41,77,45,350,33,82,09,258,33,83,07,215,25,0*74
,$GQGSV,1,1,04,01,58,248,,02,07,331,,03,08,324,,07,24,298,23,0*6B
,$GNRMC,000841.00,A,3653.7851,S,17454.4466,E,0.3,10.0,160621,,,A,V*11
,$GNVTG,10.0,T,,M,0.3,N,0.5,K,A*24
,$GNZDA,000841.00,16,06,2021,,*75
,$PSGSA,4,01,03,10,16,21,22,25,26,31,32,,,1.4,0.8,1.2,4327,00084100,00,,7,43,,2,B,4,0,0,2,17,0,0,0,0,0,-0.56,16,1*3C
,$PSGSA,4,76,82,,,,,,,,,,,1.4,0.8,1.2,4327,00084100,00,,7,43,,2,B,4,0,0,2,17,0,0,0,0,0,-0.56,16,2*33
,$GPGGA,000842.00,3653.7850,S,17454.4466,E,1,12,0.8,22.5,M,28.3,M,,*42
,$GNGLL,3653.7850,S,17454.4466,E,000842.00,A,A*6E
,$GNGSA,A,3,01,03,10,16,21,22,25,26,31,32,,,1.4,0.8,1.2,1*38
,$GNGSA,A,3,76,82,,,,,,,,,,,1.4,0.8,1.2,2*37
,$GPGSV,3,1,11,01,28,268,39,03,31,224,43,04,07,256,41,10,14,035,31,0*6F
,$GPGSV,3,2,11,16,09,002,33,21,23,297,34,22,56,240,41,25,23,128,37,0*68
,$GPGSV,3,3,11,26,32,017,38,31,85,201,43,32,37,103,44,,,,,0*51
,$GLGSV,2,1,08,65,22,067,28,66,64,145,37,67,29,217,43,75,19,149,,0*73
,$GLGSV,2,2,08,76,71,111,41,77,45,350,32,82,09,258,35,83,07,215,25,0*73
,$GQGSV,1,1,04,01,58,248,,02,07,331,,03,08,324,,07,24,298,25,0*6D
,$GNRMC,000842.00,A,3653.7850,S,17454.4466,E,0.0,10.0,160621,,,A,V*10
,$GNVTG,10.0,T,,M,0.0,N,0.0,K,A*22
,$GNZDA,000842.00,16,06,2021,,*76
,$PSGSA,4,01,03,10,16,21,22,25,26,31,32,,,1.4,0.8,1.2,4327,00084200,00,,7,43,,2,B,4,0,0,2,17,0,0,0,0,0,-0.56,16,1*3F
,$PSGSA,4,76,82,,,,,,,,,,,1.4,0.8,1.2,4327,00084200,00,,7,43,,2,B,4,0,0,2,17,0,0,0,0,0,-0.56,16,2*30
,$GPGGA,000843.00,3653.7849,S,17454.4467,E,1,12,0.8,22.3,M,28.3,M,,*4C
,$GNGLL,3653.7849,S,17454.4467,E,000843.00,A,A*66
,$GNGSA,A,3,01,03,10,16,21,22,25,26,31,32,,,1.4,0.8,1.2,1*38
,$GNGSA,A,3,76,82,,,,,,,,,,,1.4,0.8,1.2,2*37
,$GPGSV,3,1,11,01,28,268,39,03,31,224,43,04,07,256,41,10,14,035,30,0*6E
,$GPGSV,3,2,11,16,09,002,34,21,23,297,29,22,56,240,42,25,23,128,37,0*60
,$GPGSV,3,3,11,26,32,017,39,31,85,201,42,32,37,103,43,,,,,0*56
,$GLGSV,2,1,08,65,22,067,27,66,64,145,37,67,29,217,43,75,19,149,,0*7C
,$GLGSV,2,2,08,76,71,111,40,77,45,350,33,82,09,258,33,83,07,215,26,0*76
,$GQGSV,1,1,04,01,58,248,,02,07,331,,03,08,324,,07,24,298,21,0*69
,$GNRMC,000843.00,A,3653.7849,S,17454.4467,E,0.3,10.0,160621,,,A,V*1B
,$GNVTG,10.0,T,,M,0.3,N,0.5,K,A*24
,$GNZDA,000843.00,16,06,2021,,*77
,$PSGSA,4,01,03,10,16,21,22,25,26,31,32,,,1.4,0.8,1.2,4327,00084300,00,,7,42,,2,B,4,0,0,2,17,0,0,0,0,0,-0.56,16,1*3F
,$PSGSA,4,76,82,,,,,,,,,,,1.4,0.8,1.2,4327,00084300,00,,7,42,,2,B,4,0,0,2,17,0,0,0,0,0,-0.56,16,2*30
,$GPGGA,000844.00,3653.7847,S,17454.4468,E,1,12,0.8,22.5,M,28.3,M,,*4C
,$GNGLL,3653.7847,S,17454.4468,E,000844.00,A,A*60
,$GNGSA,A,3,01,03,10,16,21,22,25,26,31,32,,,1.4,0.8,1.2,1*38
,$GNGSA,A,3,76,82,,,,,,,,,,,1.4,0.8,1.2,2*37
,$GPGSV,3,1,11,01,28,268,39,03,31,224,42,04,07,256,41,10,14,035,30,0*6F
,$GPGSV,3,2,11,16,09,002,35,21,23,297,27,22,56,240,42,25,23,128,34,0*6C
,$GPGSV,3,3,11,26,32,017,38,31,85,201,42,32,37,103,44,,,,,0*50
,$GLGSV,2,1,08,65,22,067,29,66,64,145,37,67,29,217,43,75,19,149,,0*72
,$GLGSV,2,2,08,76,71,111,41,77,45,350,33,82,09,258,31,83,07,215,26,0*75
,$GQGSV,1,1,04,01,58,248,,02,07,331,,03,08,324,,07,24,298,21,0*69
,$GNRMC,000844.00,A,3653.7847,S,17454.4468,E,0.3,10.0,160621,,,A,V*1D
,$GNVTG,10.0,T,,M,0.3,N,0.6,K,A*27
,$GNZDA,000844.00,16,06,2021,,*70
,$PSGSA,4,01,03,10,16,21,22,25,26,31,32,,,1.4,0.8,1.2,4328,00084400,00,,7,42,,2,B,4,0,0,1,17,0,0,0,1,0,-0.56,16,1*35
,$PSGSA,4,76,82,,,,,,,,,,,1.4,0.8,1.2,4328,00084400,00,,7,42,,2,B,4,0,0,1,17,0,0,0,1,0,-0.56,16,2*3A
,$GPGGA,000845.00,3653.7846,S,17454.4468,E,1,12,0.8,22.5,M,28.3,M,,*4C
,$GNGLL,3653.7846,S,17454.4468,E,000845.00,A,A*60
,$GNGSA,A,3,01,03,10,16,21,22,25,26,31,32,,,1.4,0.8,1.2,1*38
,$GNGSA,A,3,76,82,,,,,,,,,,,1.4,0.8,1.2,2*37
,$GPGSV,3,1,11,01,28,268,38,03,31,224,43,04,07,256,40,10,14,035,32,0*6C
,$GPGSV,3,2,11,16,09,002,36,21,23,297,29,22,56,240,41,25,23,128,38,0*6E
,$GPGSV,3,3,11,26,32,017,38,31,85,201,43,32,37,102,45,,,,,0*51
,$GLGSV,2,1,08,65,22,067,30,66,64,145,37,67,29,217,43,75,19,149,,0*7A
,$GLGSV,2,2,08,76,71,111,41,77,45,348,33,82,09,258,28,83,07,215,28,0*7A
,$GQGSV,1,1,04,01,58,248,,02,07,331,,03,08,324,,07,24,298,21,0*69
,$GNRMC,000845.00,A,3653.7846,S,17454.4468,E,0.3,10.0,160621,,,A,V*1D
,$GNVTG,10.0,T,,M,0.3,N,0.6,K,A*27
,$GNZDA,000845.00,16,06,2021,,*71
,$PSGSA,4,01,03,10,16,21,22,25,26,31,32,,,1.4,0.8,1.2,4328,00084500,00,,7,43,,2,B,4,0,0,2,17,0,0,0,0,0,-0.56,16,1*37
,$PSGSA,4,76,82,,,,,,,,,,,1.4,0.8,1.2,4328,00084500,00,,7,43,,2,B,4,0,0,2,17,0,0,0,0,0,-0.56,16,2*38
,$GPGGA,000846.00,3653.7846,S,17454.4469,E,1,12,0.8,22.3,M,28.3,M,,*48
,$GNGLL,3653.7846,S,17454.4469,E,000846.00,A,A*62
,$GNGSA,A,3,01,03,10,16,21,22,25,26,31,32,,,1.5,0.8,1.3,1*38
,$GNGSA,A,3,76,77,,,,,,,,,,,1.5,0.8,1.3,2*3D
,$GPGSV,3,1,11,01,28,268,38,03,31,224,44,04,07,256,40,10,14,035,28,0*60
,$GPGSV,3,2,11,16,09,002,37,21,23,297,25,22,56,240,42,25,23,128,38,0*60
,$GPGSV,3,3,11,26,32,017,40,31,85,201,42,32,37,102,45,,,,,0*5F
,$GLGSV,2,1,08,65,22,067,29,66,64,145,37,67,29,217,43,75,19,149,,0*72
,$GLGSV,2,2,08,76,71,111,41,77,45,348,32,82,09,258,29,83,07,215,27,0*75
,$GQGSV,1,1,04,01,58,248,,02,07,331,,03,08,324,,07,24,298,21,0*69
,$GNRMC,000846.00,A,3653.7846,S,17454.4469,E,0.3,10.0,160621,,,A,V*1F
,$GNVTG,10.0,T,,M,0.3,N,0.6,K,A*27
,$GNZDA,000846.00,16,06,2021,,*72
,$PSGSA,4,01,03,10,16,21,22,25,26,31,32,,,1.5,0.8,1.3,4328,00084600,00,,7,43,,2,B,4,0,0,2,17,0,0,0,0,0,-0.56,16,1*34
,$PSGSA,4,76,77,,,,,,,,,,,1.5,0.8,1.3,4328,00084600,00,,7,43,,2,B,4,0,0,2,17,0,0,0,0,0,-0.56,16,2*31
,$GPGGA,000847.00,3653.7845,S,17454.4470,E,1,12,0.8,22.2,M,28.3,M,,*43
,$GNGLL,3653.7845,S,17454.4470,E,000847.00,A,A*68
,$GNGSA,A,3,01,03,10,16,21,22,25,26,31,32,,,1.5,0.8,1.3,1*38
,$GNGSA,A,3,67,76,,,,,,,,,,,1.5,0.8,1.3,2*3C
,$GPGSV,3,1,11,01,28,268,37,03,31,224,44,04,07,256,40,10,14,035,27,0*60
,$GPGSV,3,2,11,16,09,002,37,21,23,297,27,22,56,240,41,25,23,128,35,0*6C
,$GPGSV,3,3,11,26,32,017,40,31,85,201,42,32,37,102,45,,,,,0*5F
,$GLGSV,2,1,08,65,22,067,31,66,64,145,38,67,29,217,43,75,19,149,,0*74
,$GLGSV,2,2,08,76,71,111,41,77,45,348,30,82,09,258,27,83,07,215,29,0*77
,$GQGSV,1,1,04,01,58,248,,02,07,331,,03,08,324,,07,24,298,22,0*6A
,$GNRMC,000847.00,A,3653.7845,S,17454.4470,E,0.3,10.0,160621,,,A,V*15
,$GNVTG,10.0,T,,M,0.3,N,0.6,K,A*27
,$GNZDA,000847.00,16,06,2021,,*73
,$PSGSA,4,01,03,10,16,21,22,25,26,31,32,,,1.5,0.8,1.3,4327,00084700,00,,7,43,,2,B,4,0,0,1,17,0,0,0,1,0,-0.56,16,1*38
,$PSGSA,4,67,76,,,,,,,,,,,1.5,0.8,1.3,4327,00084700,00,,7,43,,2,B,4,0,0,1,17,0,0,0,1,0,-0.56,16,2*3C
,$GPGGA,000848.00,3653.7844,S,17454.4471,E,1,12,0.8,22.0,M,28.3,M,,*4E
,$GNGLL,3653.7844,S,17454.4471,E,000848.00,A,A*67
,$GNGSA,A,3,01,03,10,16,21,22,25,26,31,32,,,1.5,0.8,1.3,1*38
,$GNGSA,A,3,76,77,,,,,,,,,,,1.5,0.8,1.3,2*3D
,$GPGSV,3,1,11,01,28,268,38,03,31,224,43,04,07,256,40,10,14,035,30,0*6E
,$GPGSV,3,2,11,16,09,002,36,21,23,297,29,22,56,240,40,25,23,128,38,0*6F
,$GPGSV,3,3,11,26,32,017,40,31,85,201,43,32,37,102,45,,,,,0*5E
,$GLGSV,2,1,08,65,22,067,29,66,64,145,37,67,29,217,44,75,19,149,,0*75
,$GLGSV,2,2,08,76,71,111,41,77,45,348,32,82,09,258,28,83,07,215,27,0*74
,$GQGSV,1,1,04,01,58,248,,02,07,331,,03,08,324,,07,24,298,24,0*6C
,$GNRMC,000848.00,A,3653.7844,S,17454.4471,E,0.3,10.0,160621,,,A,V*1A
,$GNVTG,10.0,T,,M,0.3,N,0.6,K,A*27
,$GNZDA,000848.00,16,06,2021,,*7C
,$PSGSA,4,01,03,10,16,21,22,25,26,31,32,,,1.5,0.8,1.3,4327,00084800,00,,7,43,,2,B,4,0,0,1,17,0,0,0,1,0,-0.56,16,1*37
,$PSGSA,4,76,77,,,,,,,,,,,1.5,0.8,1.3,4327,00084800,00,,7,43,,2,B,4,0,0,1,17,0,0,0,1,0,-0.56,16,2*32
,$GPGGA,000849.00,3653.7843,S,17454.4472,E,1,12,0.8,21.9,M,28.3,M,,*41
,$GNGLL,3653.7843,S,17454.4472,E,000849.00,A,A*62
,$GNGSA,A,3,01,03,10,16,21,22,25,26,31,32,,,1.5,0.8,1.3,1*38
,$GNGSA,A,3,76,77,,,,,,,,,,,1.5,0.8,1.3,2*3D
,$GPGSV,3,1,11,01,28,268,36,03,31,224,42,04,07,256,40,10,14,035,31,0*60
,$GPGSV,3,2,11,16,09,002,35,21,23,297,28,22,56,240,40,25,23,128,40,0*62
,$GPGSV,3,3,11,26,32,017,41,31,85,201,43,32,37,102,46,,,,,0*5C
,$GLGSV,2,1,08,65,22,067,28,66,64,145,39,67,29,217,43,75,19,149,,0*7D
,$GLGSV,2,2,08,76,71,111,41,77,45,348,32,82,09,258,29,83,07,215,28,0*7A
,$GQGSV,1,1,04,01,58,248,,02,07,331,,03,08,324,,07,24,298,24,0*6C
,$GNRMC,000849.00,A,3653.7843,S,17454.4472,E,0.3,10.0,160621,,,A,V*1F
,$GNVTG,10.0,T,,M,0.3,N,0.6,K,A*27
,$GNZDA,000849.00,16,06,2021,,*7D
,$PSGSA,4,01,03,10,16,21,22,25,26,31,32,,,1.5,0.8,1.3,4327,00084900,00,,7,43,,2,B,4,0,0,2,17,0,0,0,0,0,-0.56,16,1*34
,$PSGSA,4,76,77,,,,,,,,,,,1.5,0.8,1.3,4327,00084900,00,,7,43,,2,B,4,0,0,2,17,0,0,0,0,0,-0.56,16,2*31
,$GPGGA,000850.00,3653.7842,S,17454.4472,E,1,12,0.8,22.1,M,28.3,M,,*43
,$GNGLL,3653.7842,S,17454.4472,E,000850.00,A,A*6B
,$GNGSA,A,3,01,03,10,16,21,22,25,26,31,32,,,1.6,0.8,1.3,1*3B
,$GNGSA,A,3,66,77,,,,,,,,,,,1.6,0.8,1.3,2*3F
,$GPGSV,3,1,11,01,28,268,33,03,31,224,43,04,07,256,39,10,14,035,32,0*69
,$GPGSV,3,2,11,16,09,002,36,21,23,297,30,22,56,240,40,25,23,128,38,0*67
,$GPGSV,3,3,11,26,32,017,38,31,85,201,42,32,37,102,46,,,,,0*53
,$GLGSV,2,1,08,65,22,067,29,66,64,144,40,67,29,217,43,75,19,149,,0*73
,$GLGSV,2,2,08,76,71,111,40,77,45,348,33,82,09,258,29,83,07,215,28,0*7A
,$GQGSV,1,1,04,01,58,248,,02,07,331,,03,08,324,,07,24,298,26,0*6E
,$GNRMC,000850.00,A,3653.7842,S,17454.4472,E,0.3,10.0,160621,,,A,V*16
,$GNVTG,10.0,T,,M,0.3,N,0.6,K,A*27
,$GNZDA,000850.00,16,06,2021,,*75
,$PSGSA,4,01,03,10,16,21,22,25,26,31,32,,,1.6,0.8,1.3,4327,00085000,00,,7,43,,2,B,4,0,0,2,17,0,0,0,0,0,-0.56,16,1*3F
,$PSGSA,4,66,77,,,,,,,,,,,1.6,0.8,1.3,4327,00085000,00,,7,43,,2,B,4,0,0,2,17,0,0,0,0,0,-0.56,16,2*3B
,$GPGGA,000851.00,3653.7841,S,17454.4473,E,1,12,0.8,22.1,M,28.3,M,,*40
,$GNGLL,3653.7841,S,17454.4473,E,000851.00,A,A*68
,$GNGSA,A,3,01,03,10,16,21,22,25,26,31,32,,,1.5,0.8,1.2,1*39
,$GNGSA,A,3,66,82,,,,,,,,,,,1.5,0.8,1.2,2*37
,$GPGSV,3,1,11,01,28,268,31,03,31,224,43,04,07,256,36,10,14,035,25,0*62
,$GPGSV,3,2,11,16,09,002,38,21,23,297,26,22,56,240,40,25,23,128,35,0*63
,$GPGSV,3,3,11,26,32,017,39,31,85,200,42,32,37,102,45,,,,,0*50
,$GLGSV,2,1,08,65,22,067,28,66,64,144,40,67,29,217,44,75,19,149,,0*75
,$GLGSV,2,2,08,76,71,111,39,77,45,348,32,82,09,258,32,83,07,215,29,0*7E
,$GQGSV,1,1,04,01,58,248,,02,07,331,,03,08,324,,07,24,298,24,0*6C
,$GNRMC,000851.00,A,3653.7841,S,17454.4473,E,0.3,10.0,160621,,,A,V*15
,$GNVTG,10.0,T,,M,0.3,N,0.6,K,A*27
,$GNZDA,000851.00,16,06,2021,,*74
,$PSGSA,4,01,03,10,16,21,22,25,26,31,32,,,1.5,0.8,1.2,4327,00085100,00,,7,43,,2,B,4,0,0,2,17,0,0,0,0,0,-0.56,16,1*3C
,$PSGSA,4,66,82,,,,,,,,,,,1.5,0.8,1.2,4327,00085100,00,,7,43,,2,B,4,0,0,2,17,0,0,0,0,0,-0.56,16,2*32
,$GPGGA,000852.00,3653.7840,S,17454.4474,E,1,12,0.8,22.1,M,28.3,M,,*45
,$GNGLL,3653.7840,S,17454.4474,E,000852.00,A,A*6D
,$GNGSA,A,3,01,03,10,16,22,25,26,31,32,,,,1.4,0.8,1.2,1*3B
,$GNGSA,A,3,66,77,82,,,,,,,,,,1.4,0.8,1.2,2*36
,$GPGSV,3,1,11,01,28,268,31,03,31,224,42,04,07,256,38,10,14,035,26,0*6E
,$GPGSV,3,2,11,16,09,002,39,21,23,297,24,22,56,240,40,25,23,128,35,0*60
,$GPGSV,3,3,11,26,32,017,39,31,85,200,43,32,37,102,45,,,,,0*51
,$GLGSV,2,1,08,65,22,067,29,66,64,144,40,67,29,217,43,75,19,149,,0*73
,$GLGSV,2,2,08,76,71,111,39,77,45,348,32,82,09,258,34,83,07,215,30,0*70
,$GQGSV,1,1,04,01,58,248,,02,07,331,,03,08,324,,07,24,298,20,0*68
,$GNRMC,000852.00,A,3653.7840,S,17454.4474,E,0.3,10.0,160621,,,A,V*10
,$GNVTG,10.0,T,,M,0.3,N,0.6,K,A*27
,$GNZDA,000852.00,16,06,2021,,*77
,$PSGSA,4,01,03,10,16,22,25,26,31,32,,,,1.4,0.8,1.2,4327,00085200,00,,7,43,,2,B,4,0,0,2,17,0,0,0,0,0,-0.56,16,1*3D
,$PSGSA,4,66,77,82,,,,,,,,,,1.4,0.8,1.2,4327,00085200,00,,7,43,,2,B,4,0,0,2,17,0,0,0,0,0,-0.56,16,2*30
,$GPGGA,000853.00,3653.7840,S,17454.4476,E,1,12,0.8,22.2,M,28.3,M,,*45
,$GNGLL,3653.7840,S,17454.4476,E,000853.00,A,A*6E
,$GNGSA,A,3,01,03,10,16,21,22,25,26,31,32,,,1.4,0.8,1.2,1*38
,$GNGSA,A,3,76,82,,,,,,,,,,,1.4,0.8,1.2,2*37
,$GPGSV,3,1,11,01,28,268,37,03,31,224,43,04,07,256,37,10,14,035,23,0*63
,$GPGSV,3,2,11,16,09,002,37,21,23,297,30,22,56,240,39,25,23,128,33,0*63
,$GPGSV,3,3,11,26,32,017,38,31,85,200,43,32,37,102,44,,,,,0*51
,$GLGSV,2,1,08,65,22,067,28,66,64,144,38,67,29,217,43,75,18,149,,0*7C
,$GLGSV,2,2,08,76,71,112,40,77,45,348,33,82,09,258,32,83,07,215,29,0*72
,$GQGSV,1,1,04,01,58,248,,02,07,331,,03,08,324,,07,24,298,17,0*6C
,$GNRMC,000853.00,A,3653.7840,S,17454.4476,E,0.0,10.0,160621,,,A,V*10
,$GNVTG,10.0,T,,M,0.0,N,0.0,K,A*22
,$GNZDA,000853.00,16,06,2021,,*76
,$PSGSA,4,01,03,10,16,21,22,25,26,31,32,,,1.4,0.8,1.2,4327,00085300,00,,7,43,,2,B,4,0,0,2,17,0,0,0,0,0,-0.56,16,1*3F
,$PSGSA,4,76,82,,,,,,,,,,,1.4,0.8,1.2,4327,00085300,00,,7,43,,2,B,4,0,0,2,17,0,0,0,0,0,-0.56,16,2*30
,$GPGGA,000854.00,3653.7841,S,17454.4476,E,1,12,0.8,22.4,M,28.3,M,,*45
,$GNGLL,3653.7841,S,17454.4476,E,000854.00,A,A*68
,$GNGSA,A,3,01,03,10,16,21,22,25,26,31,32,,,1.4,0.8,1.2,1*38
,$GNGSA,A,3,76,82,,,,,,,,,,,1.4,0.8,1.2,2*37
,$GPGSV,3,1,11,01,28,268,38,03,31,224,42,04,07,256,39,10,14,035,27,0*67
,$GPGSV,3,2,11,16,09,002,36,21,23,297,33,22,56,240,41,25,23,128,34,0*69
,$GPGSV,3,3,11,26,32,017,38,31,85,200,42,32,37,102,44,,,,,0*50
,$GLGSV,2,1,08,65,22,067,29,66,64,144,38,67,29,217,43,75,18,149,,0*7D
,$GLGSV,2,2,08,76,71,112,40,77,45,348,32,82,09,258,35,83,07,215,26,0*7B
,$GQGSV,1,1,04,01,58,248,,02,07,331,,03,08,324,,07,24,298,26,0*6E
,$GNRMC,000854.00,A,3653.7841,S,17454.4476,E,0.0,10.0,160621,,,A,V*16
,$GNVTG,10.0,T,,M,0.0,N,0.0,K,A*22
,$GNZDA,000854.00,16,06,2021,,*71
,$PSGSA,4,01,03,10,16,21,22,25,26,31,32,,,1.4,0.8,1.2,4327,00085400,00,,7,42,,2,B,4,0,0,1,17,0,0,0,1,0,-0.56,16,1*3B
,$PSGSA,4,76,82,,,,,,,,,,,1.4,0.8,1.2,4327,00085400,00,,7,42,,2,B,4,0,0,1,17,0,0,0,1,0,-0.56,16,2*34
,$GPGGA,000855.00,3653.7842,S,17454.4475,E,1,12,0.8,22.4,M,28.3,M,,*44
,$GNGLL,3653.7842,S,17454.4475,E,000855.00,A,A*69
,$GNGSA,A,3,01,03,10,16,21,22,25,26,31,32,,,1.4,0.8,1.2,1*38
,$GNGSA,A,3,76,82,,,,,,,,,,,1.4,0.8,1.2,2*37
,$GPGSV,3,1,11,01,28,268,38,03,31,224,44,04,07,256,41,10,14,035,25,0*6C
,$GPGSV,3,2,11,16,09,002,35,21,23,297,31,22,56,240,40,25,23,128,32,0*6F
,$GPGSV,3,3,11,26,32,017,38,31,85,200,42,32,37,102,45,,,,,0*51
,$GLGSV,2,1,08,65,22,067,30,66,64,144,38,67,29,217,43,75,18,149,,0*75
,$GLGSV,2,2,08,76,71,112,41,77,45,348,32,82,09,258,33,83,07,215,21,0*7B
,$GQGSV,1,1,04,01,58,248,,02,07,331,,03,08,324,,07,24,298,26,0*6E
,$GNRMC,000855.00,A,3653.7842,S,17454.4475,E,0.3,208.7,160621,,,A,V*28
,$GNVTG,208.7,T,,M,0.3,N,0.6,K,A*1B
,$GNZDA,000855.00,16,06,2021,,*70
,$PSGSA,4,01,03,10,16,21,22,25,26,31,32,,,1.4,0.8,1.2,4328,00085500,00,,7,43,,2,B,4,0,0,1,17,0,0,0,1,0,-0.56,16,1*34
,$PSGSA,4,76,82,,,,,,,,,,,1.4,0.8,1.2,4328,00085500,00,,7,43,,2,B,4,0,0,1,17,0,0,0,1,0,-0.56,16,2*3B
,$GPGGA,000856.00,3653.7842,S,17454.4474,E,1,12,0.8,22.2,M,28.3,M,,*40
,$GNGLL,3653.7842,S,17454.4474,E,000856.00,A,A*6B
,$GNGSA,A,3,01,03,10,16,21,22,25,26,31,32,,,1.4,0.8,1.2,1*38
,$GNGSA,A,3,76,82,,,,,,,,,,,1.4,0.8,1.2,2*37
,$GPGSV,3,1,11,01,28,268,39,03,31,224,44,04,07,256,41,10,14,035,29,0*61
,$GPGSV,3,2,11,16,09,002,36,21,23,297,31,22,56,240,41,25,23,128,32,0*6D
,$GPGSV,3,3,11,26,32,017,39,31,85,200,42,32,37,102,44,,,,,0*51
,$GLGSV,2,1,08,65,22,067,28,66,64,144,37,67,29,217,42,75,18,149,,0*72
,$GLGSV,2,2,08,76,71,112,41,77,45,348,33,82,09,258,32,83,07,215,22,0*78
,$GQGSV,1,1,04,01,58,248,,02,07,331,,03,08,324,,07,24,298,26,0*6E
,$GNRMC,000856.00,A,3653.7842,S,17454.4474,E,0.3,208.2,160621,,,A,V*2F
,$GNVTG,208.2,T,,M,0.3,N,0.6,K,A*1E
,$GNZDA,000856.00,16,06,2021,,*73
,$PSGSA,4,01,03,10,16,21,22,25,26,31,32,,,1.4,0.8,1.2,4328,00085600,00,,7,43,,2,B,4,0,0,2,17,0,0,0,0,0,-0.56,16,1*35
,$PSGSA,4,76,82,,,,,,,,,,,1.4,0.8,1.2,4328,00085600,00,,7,43,,2,B,4,0,0,2,17,0,0,0,0,0,-0.56,16,2*3A
,$GPGGA,000857.00,3653.7843,S,17454.4473,E,1,12,0.8,22.1,M,28.3,M,,*44
,$GNGLL,3653.7843,S,17454.4473,E,000857.00,A,A*6C
,$GNGSA,A,3,01,03,10,16,21,22,25,26,31,32,,,1.5,0.8,1.3,1*38
,$GNGSA,A,3,67,76,,,,,,,,,,,1.5,0.8,1.3,2*3C
,$GPGSV,3,1,11,01,28,268,38,03,31,224,44,04,07,256,41,10,14,035,24,0*6D
,$GPGSV,3,2,11,16,09,002,36,21,23,297,27,22,56,240,40,25,23,128,29,0*61
,$GPGSV,3,3,11,26,32,017,38,31,85,200,42,32,37,102,45,,,,,0*51
,$GLGSV,2,1,08,65,22,067,29,66,64,144,37,67,29,217,43,75,18,149,,0*72
,$GLGSV,2,2,08,76,71,112,42,77,45,348,31,82,09,258,30,83,07,215,25,0*7C
,$GQGSV,1,1,04,01,58,248,,02,07,331,,03,08,324,,07,24,298,24,0*6C
,$GNRMC,000857.00,A,3653.7843,S,17454.4473,E,0.4,203.5,160621,,,A,V*23
,$GNVTG,203.5,T,,M,0.4,N,0.7,K,A*14
,$GNZDA,000857.00,16,06,2021,,*72
,$PSGSA,4,01,03,10,16,21,22,25,26,31,32,,,1.5,0.8,1.3,4328,00085700,00,,7,43,,2,B,4,0,0,2,17,0,0,0,0,0,-0.56,16,1*34
,$PSGSA,4,67,76,,,,,,,,,,,1.5,0.8,1.3,4328,00085700,00,,7,43,,2,B,4,0,0,2,17,0,0,0,0,0,-0.56,16,2*30
,$GPGGA,000858.00,3653.7845,S,17454.4472,E,1,12,0.8,22.0,M,28.3,M,,*4D
,$GNGLL,3653.7845,S,17454.4472,E,000858.00,A,A*64
,$GNGSA,A,3,01,03,10,16,21,22,25,26,31,32,,,1.4,0.8,1.2,1*38
,$GNGSA,A,3,76,82,,,,,,,,,,,1.4,0.8,1.2,2*37
,$GPGSV,3,1,11,01,28,268,38,03,31,224,44,04,07,256,41,10,14,035,28,0*61
,$GPGSV,3,2,11,16,09,002,36,21,23,297,30,22,56,240,42,25,23,128,34,0*69
,$GPGSV,3,3,11,26,32,017,39,31,85,200,43,32,37,102,44,,,,,0*50
,$GLGSV,2,1,08,65,22,067,29,66,64,144,37,67,29,217,42,75,18,149,,0*73
,$GLGSV,2,2,08,76,71,112,41,77,45,348,31,82,09,258,29,83,07,215,25,0*77
,$GQGSV,1,1,04,01,58,248,,02,07,331,,03,08,324,,07,24,298,23,0*6B
,$GNRMC,000858.00,A,3653.7845,S,17454.4472,E,0.4,212.4,160621,,,A,V*2A
,$GNVTG,212.4,T,,M,0.4,N,0.7,K,A*15
,$GNZDA,000858.00,16,06,2021,,*7D
,$PSGSA,4,01,03,10,16,21,22,25,26,31,32,,,1.4,0.8,1.2,4327,00085800,00,,7,43,,2,B,4,0,0,2,17,0,0,0,0,0,-0.56,16,1*34
,$PSGSA,4,76,82,,,,,,,,,,,1.4,0.8,1.2,4327,00085800,00,,7,43,,2,B,4,0,0,2,17,0,0,0,0,0,-0.56,16,2*3B
