,$GPGGA,220800.00,3653.4932,S,17454.6107,E,1,08,1.2,30.2,M,28.3,M,,*46
,$GNGLL,3653.4932,S,17454.6107,E,220800.00,A,A*6E
,$GNGSA,A,3,10,12,23,25,31,32,,,,,,,2.2,1.2,1.8,1*3C
,$GNGSA,A,3,01,03,,,,,,,,,,,2.2,1.2,1.8,5*3D
,$GPGSV,3,1,11,01,13,217,17,08,02,277,,10,60,083,37,12,12,107,30,0*63
,$GPGSV,3,2,11,21,28,233,31,22,08,232,18,23,29,065,26,24,07,138,00,0*69
,$GPGSV,3,3,11,25,18,072,29,31,34,342,34,32,69,189,43,,,,,0*5B
,$GQGSV,1,1,03,01,44,261,36,03,26,319,29,07,24,298,17,,,,,0*55
,$GNRMC,220800.00,A,3653.4932,S,17454.6107,E,0.8,330.4,150621,,,A,V*2E
,$GNVTG,330.4,T,,M,0.8,N,1.4,K,A*1A
,$GNZDA,220800.00,15,06,2021,,*73
,$PSGSA,4,10,12,23,25,31,32,,,,,,,2.2,1.2,1.8,305,22080000,00,,7,37,,2,B,4,0,0,3,9,1,0,0,0,0,,16,1*05
,$PSGSA,4,01,03,,,,,,,,,,,2.2,1.2,1.8,305,22080000,00,,7,37,,2,B,4,0,0,3,9,1,0,0,0,0,,16,5*04
,$GPGGA,220801.00,3653.4930,S,17454.6106,E,1,08,1.2,30.4,M,28.3,M,,*42
,$GNGLL,3653.4930,S,17454.6106,E,220801.00,A,A*6C
,$GNGSA,A,3,10,12,23,25,31,32,,,,,,,2.2,1.2,1.8,1*3C
,$GNGSA,A,3,01,03,,,,,,,,,,,2.2,1.2,1.8,5*3D
,$GPGSV,3,1,11,01,13,217,14,08,02,277,,10,60,083,39,12,12,107,30,0*6E
,$GPGSV,3,2,11,21,28,233,30,22,08,232,15,23,29,065,31,24,07,138,00,0*63
,$GPGSV,3,3,11,25,18,072,24,31,34,342,30,32,69,189,41,,,,,0*50
,$GQGSV,1,1,03,01,44,261,38,03,26,319,25,07,24,298,17,,,,,0*57
,$GNRMC,220801.00,A,3653.4930,S,17454.6106,E,0.8,325.2,150621,,,A,V*2E
,$GNVTG,325.2,T,,M,0.8,N,1.4,K,A*18
,$GNZDA,220801.00,15,06,2021,,*72
,$PSGSA,4,10,12,23,25,31,32,,,,,,,2.2,1.2,1.8,305,22080100,00,,7,37,,2,B,4,0,0,3,9,1,0,0,0,0,,16,1*04
,$PSGSA,4,01,03,,,,,,,,,,,2.2,1.2,1.8,305,22080100,00,,7,37,,2,B,4,0,0,3,9,1,0,0,0,0,,16,5*05
,$GPGGA,220802.00,3653.4929,S,17454.6105,E,1,08,1.2,30.1,M,28.3,M,,*4F
,$GNGLL,3653.4929,S,17454.6105,E,220802.00,A,A*64
,$GNGSA,A,3,10,12,23,25,31,32,,,,,,,2.2,1.2,1.8,1*3C
,$GNGSA,A,3,01,03,,,,,,,,,,,2.2,1.2,1.8,5*3D
,$GPGSV,3,1,11,01,13,217,18,08,02,277,,10,60,083,40,12,12,107,28,0*65
,$GPGSV,3,2,11,21,28,233,30,22,08,232,15,23,29,065,31,24,07,138,00,0*63
,$GPGSV,3,3,11,25,18,072,26,31,34,342,30,32,69,189,41,,,,,0*52
,$GQGSV,1,1,03,01,44,261,39,03,26,319,24,07,24,298,18,,,,,0*58
,$GNRMC,220802.00,A,3653.4929,S,17454.6105,E,0.8,303.3,150621,,,A,V*23
,$GNVTG,303.3,T,,M,0.8,N,1.4,K,A*1D
,$GNZDA,220802.00,15,06,2021,,*71
,$PSGSA,4,10,12,23,25,31,32,,,,,,,2.2,1.2,1.8,306,22080200,00,,7,37,,2,B,4,0,0,3,9,1,0,0,0,0,,16,1*04
,$PSGSA,4,01,03,,,,,,,,,,,2.2,1.2,1.8,306,22080200,00,,7,37,,2,B,4,0,0,3,9,1,0,0,0,0,,16,5*05
,$GPGGA,220803.00,3653.4928,S,17454.6103,E,1,08,1.2,30.0,M,28.3,M,,*48
,$GNGLL,3653.4928,S,17454.6103,E,220803.00,A,A*62
,$GNGSA,A,3,10,12,23,25,31,32,,,,,,,2.2,1.2,1.8,1*3C
,$GNGSA,A,3,01,03,,,,,,,,,,,2.2,1.2,1.8,5*3D
,$GPGSV,3,1,11,01,13,217,18,08,02,277,,10,60,083,40,12,12,107,29,0*64
,$GPGSV,3,2,11,21,28,233,29,22,08,232,11,23,29,065,34,24,07,138,00,0*6A
,$GPGSV,3,3,11,25,18,072,27,31,34,342,29,32,69,189,40,,,,,0*5A
,$GQGSV,1,1,03,01,44,261,38,03,26,319,29,07,24,298,21,,,,,0*5E
,$GNRMC,220803.00,A,3653.4928,S,17454.6103,E,0.7,291.4,150621,,,A,V*27
,$GNVTG,291.4,T,,M,0.7,N,1.3,K,A*18
,$GNZDA,220803.00,15,06,2021,,*70
,$PSGSA,4,10,12,23,25,31,32,,,,,,,2.2,1.2,1.8,306,22080300,00,,7,38,,2,B,4,0,0,3,9,1,0,0,0,0,,16,1*0A
,$PSGSA,4,01,03,,,,,,,,,,,2.2,1.2,1.8,306,22080300,00,,7,38,,2,B,4,0,0,3,9,1,0,0,0,0,,16,5*0B
,$GPGGA,220804.00,3653.4929,S,17454.6102,E,1,08,1.2,29.8,M,28.3,M,,*4F
,$GNGLL,3653.4929,S,17454.6102,E,220804.00,A,A*65
,$GNGSA,A,3,10,12,23,25,31,32,,,,,,,2.2,1.2,1.8,1*3C
,$GNGSA,A,3,01,03,,,,,,,,,,,2.2,1.2,1.8,5*3D
,$GPGSV,3,1,11,01,13,217,21,08,02,277,,10,60,083,40,12,12,107,32,0*64
,$GPGSV,3,2,11,21,28,233,27,22,08,232,17,23,29,065,36,24,07,138,11,0*60
,$GPGSV,3,3,11,25,18,072,26,31,34,342,30,32,69,189,39,,,,,0*5D
,$GQGSV,1,1,03,01,44,261,38,03,26,319,26,07,24,298,20,,,,,0*50
,$GNRMC,220804.00,A,3653.4929,S,17454.6102,E,0.7,279.5,150621,,,A,V*27
,$GNVTG,279.5,T,,M,0.7,N,1.3,K,A*1F
,$GNZDA,220804.00,15,06,2021,,*77
,$PSGSA,4,10,12,23,25,31,32,,,,,,,2.2,1.2,1.8,306,22080400,00,,7,38,,2,B,4,0,0,4,9,0,0,0,0,0,,16,1*0B
,$PSGSA,4,01,03,,,,,,,,,,,2.2,1.2,1.8,306,22080400,00,,7,38,,2,B,4,0,0,4,9,0,0,0,0,0,,16,5*0A
,$GPGGA,220805.00,3653.4930,S,17454.6101,E,1,08,1.2,29.2,M,28.3,M,,*4F
,$GNGLL,3653.4930,S,17454.6101,E,220805.00,A,A*6F
,$GNGSA,A,3,10,12,23,25,31,32,,,,,,,2.2,1.2,1.8,1*3C
,$GNGSA,A,3,01,03,,,,,,,,,,,2.2,1.2,1.8,5*3D
,$GPGSV,3,1,11,01,13,217,15,08,02,277,,10,60,083,41,12,12,107,31,0*61
,$GPGSV,3,2,11,21,28,233,27,22,08,232,14,23,29,065,36,24,07,138,00,0*63
,$GPGSV,3,3,11,25,18,072,20,31,34,342,26,32,69,189,40,,,,,0*52
,$GQGSV,1,1,03,01,44,261,35,03,26,319,21,07,24,298,16,,,,,0*5F
,$GNRMC,220805.00,A,3653.4930,S,17454.6101,E,0.7,278.0,150621,,,A,V*29
,$GNVTG,278.0,T,,M,0.7,N,1.3,K,A*1B
,$GNZDA,220805.00,15,06,2021,,*76
,$PSGSA,4,10,12,23,31,32,,,,,,,,2.2,1.2,1.8,306,22080500,00,,7,38,,2,B,4,0,0,4,9,0,0,0,0,0,,16,1*0D
,$PSGSA,4,01,,,,,,,,,,,,2.2,1.2,1.8,306,22080500,00,,7,38,,2,B,4,0,0,4,9,0,0,0,0,0,,16,5*08
,$GPGGA,220806.00,3653.4930,S,17454.6099,E,1,08,1.2,29.0,M,28.3,M,,*4E
,$GNGLL,3653.4930,S,17454.6099,E,220806.00,A,A*6C
,$GNGSA,A,3,10,12,23,25,31,32,,,,,,,2.2,1.2,1.8,1*3C
,$GNGSA,A,3,01,03,,,,,,,,,,,2.2,1.2,1.8,5*3D
,$GPGSV,3,1,11,01,13,217,20,08,02,277,,10,60,083,42,12,12,107,32,0*67
,$GPGSV,3,2,11,21,29,233,25,22,08,232,15,23,29,065,36,24,07,138,10,0*60
,$GPGSV,3,3,11,25,18,072,24,31,34,342,26,32,69,189,40,,,,,0*56
,$GQGSV,1,1,03,01,45,261,33,03,26,319,27,07,24,298,12,,,,,0*5A
,$GNRMC,220806.00,A,3653.4930,S,17454.6099,E,0.7,274.9,150621,,,A,V*2F
,$GNVTG,274.9,T,,M,0.7,N,1.3,K,A*1E
,$GNZDA,220806.00,15,06,2021,,*75
,$PSGSA,4,10,12,23,31,32,,,,,,,,2.2,1.2,1.8,306,22080600,00,,7,37,,2,B,4,0,0,4,9,0,0,0,0,0,,16,1*01
,$PSGSA,4,01,03,,,,,,,,,,,2.2,1.2,1.8,306,22080600,00,,7,37,,2,B,4,0,0,4,9,0,0,0,0,0,,16,5*07
,$GPGGA,220807.00,3653.4931,S,17454.6098,E,1,08,1.2,28.9,M,28.3,M,,*47
,$GNGLL,3653.4931,S,17454.6098,E,220807.00,A,A*6D
,$GNGSA,A,3,10,12,23,25,31,32,,,,,,,2.2,1.2,1.8,1*3C
,$GNGSA,A,3,01,03,,,,,,,,,,,2.2,1.2,1.8,5*3D
,$GPGSV,3,1,11,01,13,217,19,08,02,277,,10,60,083,42,12,12,107,30,0*6F
,$GPGSV,3,2,11,21,29,233,24,22,08,232,11,23,29,065,37,24,07,138,00,0*65
,$GPGSV,3,3,11,25,18,072,27,31,34,342,27,32,69,189,41,,,,,0*55
,$GQGSV,1,1,03,01,45,261,27,03,26,319,20,07,24,298,16,,,,,0*5C
,$GNRMC,220807.00,A,3653.4931,S,17454.6098,E,0.7,263.2,150621,,,A,V*23
,$GNVTG,263.2,T,,M,0.7,N,1.3,K,A*13
,$GNZDA,220807.00,15,06,2021,,*74
,$PSGSA,4,10,12,23,25,31,32,,,,,,,2.2,1.2,1.8,307,22080700,00,,7,37,,2,B,4,0,0,4,9,0,0,0,0,0,,16,1*06
,$PSGSA,4,01,,,,,,,,,,,,2.2,1.2,1.8,307,22080700,00,,7,37,,2,B,4,0,0,4,9,0,0,0,0,0,,16,5*04
,$GPGGA,220808.00,3653.4932,S,17454.6098,E,1,08,1.2,28.5,M,28.3,M,,*47
,$GNGLL,3653.4932,S,17454.6098,E,220808.00,A,A*61
,$GNGSA,A,3,10,12,23,25,31,32,,,,,,,2.2,1.2,1.8,1*3C
,$GNGSA,A,3,01,03,,,,,,,,,,,2.2,1.2,1.8,5*3D
,$GPGSV,3,1,11,01,13,217,14,08,02,277,,10,60,083,42,12,12,107,26,0*65
,$GPGSV,3,2,11,21,29,233,22,22,08,232,08,23,29,065,38,24,07,138,00,0*64
,$GPGSV,3,3,11,25,18,072,28,31,34,342,22,32,69,189,41,,,,,0*5F
,$GQGSV,1,1,03,01,45,261,25,03,26,319,25,07,24,298,16,,,,,0*5B
,$GNRMC,220808.00,A,3653.4932,S,17454.6098,E,0.7,208.7,150621,,,A,V*27
,$GNVTG,208.7,T,,M,0.7,N,1.2,K,A*1A
,$GNZDA,220808.00,15,06,2021,,*7B
,$PSGSA,4,10,12,23,25,31,32,,,,,,,2.2,1.2,1.8,307,22080800,00,,7,37,,2,B,4,0,0,3,9,1,0,0,0,0,,16,1*0F
,$PSGSA,4,01,03,,,,,,,,,,,2.2,1.2,1.8,307,22080800,00,,7,37,,2,B,4,0,0,3,9,1,0,0,0,0,,16,5*0E
,$GPGGA,220809.00,3653.4933,S,17454.6098,E,1,08,1.2,28.5,M,28.3,M,,*47
,$GNGLL,3653.4933,S,17454.6098,E,220809.00,A,A*61
,$GNGSA,A,3,10,12,23,25,31,32,,,,,,,2.2,1.2,1.8,1*3C
,$GNGSA,A,3,01,03,,,,,,,,,,,2.2,1.2,1.8,5*3D
,$GPGSV,3,1,11,01,13,217,17,08,02,277,,10,60,083,42,12,12,107,20,0*60
,$GPGSV,3,2,11,21,29,233,25,22,08,232,12,23,29,065,37,24,07,138,00,0*67
,$GPGSV,3,3,11,25,18,072,30,31,34,342,31,32,69,189,41,,,,,0*54
,$GQGSV,1,1,03,01,45,261,24,03,26,319,26,07,24,298,12,,,,,0*5D
,$GNRMC,220809.00,A,3653.4933,S,17454.6098,E,0.7,251.2,150621,,,A,V*2E
,$GNVTG,251.2,T,,M,0.7,N,1.3,K,A*12
,$GNZDA,220809.00,15,06,2021,,*7A
,$PSGSA,4,10,12,23,25,31,32,,,,,,,2.2,1.2,1.8,307,22080900,00,,7,37,,2,B,4,0,0,3,9,1,0,0,0,0,,16,1*0E
,$PSGSA,4,01,03,,,,,,,,,,,2.2,1.2,1.8,307,22080900,00,,7,37,,2,B,4,0,0,3,9,1,0,0,0,0,,16,5*0F
,$GPGGA,220810.00,3653.4934,S,17454.6097,E,1,08,1.2,28.5,M,28.3,M,,*47
,$GNGLL,3653.4934,S,17454.6097,E,220810.00,A,A*61
,$GNGSA,A,3,10,12,23,25,31,32,,,,,,,2.2,1.2,1.8,1*3C
,$GNGSA,A,3,01,03,,,,,,,,,,,2.2,1.2,1.8,5*3D
,$GPGSV,3,1,11,01,13,217,15,08,02,277,,10,60,083,42,12,12,107,22,0*60
,$GPGSV,3,2,11,21,29,233,23,22,08,232,11,23,29,065,33,24,07,138,00,0*66
,$GPGSV,3,3,11,25,18,072,31,31,34,342,31,32,69,189,42,,,,,0*56
,$GQGSV,1,1,03,01,45,261,23,03,26,319,27,07,24,298,16,,,,,0*5F
,$GNRMC,220810.00,A,3653.4934,S,17454.6097,E,0.7,246.9,150621,,,A,V*23
,$GNVTG,246.9,T,,M,0.7,N,1.2,K,A*1E
,$GNZDA,220810.00,15,06,2021,,*72
,$PSGSA,4,10,12,23,25,31,32,,,,,,,2.2,1.2,1.8,307,22081000,00,,7,37,,2,B,4,0,0,3,9,1,0,0,0,0,,16,1*06
,$PSGSA,4,01,03,,,,,,,,,,,2.2,1.2,1.8,307,22081000,00,,7,37,,2,B,4,0,0,3,9,1,0,0,0,0,,16,5*07
,$GPGGA,220811.00,3653.4934,S,17454.6096,E,1,08,1.2,28.4,M,28.3,M,,*46
,$GNGLL,3653.4934,S,17454.6096,E,220811.00,A,A*61
,$GNGSA,A,3,10,12,23,25,31,32,,,,,,,2.2,1.2,1.8,1*3C
,$GNGSA,A,3,01,03,,,,,,,,,,,2.2,1.2,1.8,5*3D
,$GPGSV,3,1,11,01,13,217,15,08,02,277,,10,60,083,41,12,12,107,21,0*60
,$GPGSV,3,2,11,21,29,233,21,22,08,232,18,23,29,065,34,24,07,138,00,0*6A
,$GPGSV,3,3,11,25,18,072,30,31,34,342,34,32,69,189,43,,,,,0*53
,$GQGSV,1,1,03,01,45,261,21,03,26,319,27,07,24,298,11,,,,,0*5A
,$GNRMC,220811.00,A,3653.4934,S,17454.6096,E,0.7,273.6,150621,,,A,V*2A
,$GNVTG,273.6,T,,M,0.7,N,1.2,K,A*17
,$GNZDA,220811.00,15,06,2021,,*73
,$PSGSA,4,10,12,23,25,31,32,,,,,,,2.2,1.2,1.8,307,22081100,00,,7,38,,2,B,4,0,0,3,9,1,0,0,0,0,,16,1*08
,$PSGSA,4,01,03,,,,,,,,,,,2.2,1.2,1.8,307,22081100,00,,7,38,,2,B,4,0,0,3,9,1,0,0,0,0,,16,5*09
,$GPGGA,220812.00,3653.4934,S,17454.6095,E,1,08,1.2,28.7,M,28.3,M,,*45
,$GNGLL,3653.4934,S,17454.6095,E,220812.00,A,A*61
,$GNGSA,A,3,10,12,23,25,31,32,,,,,,,2.2,1.2,1.8,1*3C
,$GNGSA,A,3,01,03,,,,,,,,,,,2.2,1.2,1.8,5*3D
,$GPGSV,3,1,11,01,13,217,17,08,02,277,,10,60,083,40,12,12,107,23,0*61
,$GPGSV,3,2,11,21,29,233,24,22,08,232,11,23,29,065,36,24,07,138,00,0*64
,$GPGSV,3,3,11,25,18,072,29,31,34,342,37,32,69,189,42,,,,,0*59
,$GQGSV,1,1,03,01,45,261,22,03,26,319,30,07,24,298,19,,,,,0*57
,$GNRMC,220812.00,A,3653.4934,S,17454.6095,E,0.6,236.9,150621,,,A,V*25
,$GNVTG,236.9,T,,M,0.6,N,1.2,K,A*18
,$GNZDA,220812.00,15,06,2021,,*70
,$PSGSA,4,10,12,23,25,31,32,,,,,,,2.2,1.2,1.8,307,22081200,00,,7,38,,2,B,4,0,0,3,9,1,0,0,0,0,,16,1*0B
,$PSGSA,4,01,03,,,,,,,,,,,2.2,1.2,1.8,307,22081200,00,,7,38,,2,B,4,0,0,3,9,1,0,0,0,0,,16,5*0A
,$GPGGA,220813.00,3653.4935,S,17454.6095,E,1,08,1.2,29.0,M,28.3,M,,*43
,$GNGLL,3653.4935,S,17454.6095,E,220813.00,A,A*61
,$GNGSA,A,3,10,12,23,25,31,32,,,,,,,2.2,1.2,1.8,1*3C
,$GNGSA,A,3,01,03,,,,,,,,,,,2.2,1.2,1.8,5*3D
,$GPGSV,3,1,11,01,13,217,18,08,02,277,,10,60,083,40,12,12,107,22,0*6F
,$GPGSV,3,2,11,21,29,233,21,22,08,232,00,23,29,065,37,24,07,138,00,0*60
,$GPGSV,3,3,11,25,18,072,31,31,34,342,38,32,69,189,42,,,,,0*5F
,$GQGSV,1,1,03,01,45,261,20,03,26,319,27,07,24,298,16,,,,,0*5C
,$GNRMC,220813.00,A,3653.4935,S,17454.6095,E,0.6,213.8,150621,,,A,V*23
,$GNVTG,213.8,T,,M,0.6,N,1.2,K,A*1E
,$GNZDA,220813.00,15,06,2021,,*71
,$PSGSA,4,10,12,23,25,31,32,,,,,,,2.2,1.2,1.8,307,22081300,00,,7,39,,2,B,4,0,0,3,9,1,0,0,0,0,,16,1*0B
,$PSGSA,4,01,03,,,,,,,,,,,2.2,1.2,1.8,307,22081300,00,,7,39,,2,B,4,0,0,3,9,1,0,0,0,0,,16,5*0A
,$GPGGA,220814.00,3653.4936,S,17454.6095,E,1,08,1.2,28.9,M,28.3,M,,*4F
,$GNGLL,3653.4936,S,17454.6095,E,220814.00,A,A*65
,$GNGSA,A,3,10,12,23,25,31,32,,,,,,,2.2,1.2,1.8,1*3C
,$GNGSA,A,3,01,03,,,,,,,,,,,2.2,1.2,1.8,5*3D
,$GPGSV,3,1,11,01,13,217,12,08,02,277,,10,60,083,40,12,12,107,19,0*6D
,$GPGSV,3,2,11,21,29,233,24,22,08,232,15,23,29,065,34,24,07,138,00,0*62
,$GPGSV,3,3,11,25,18,072,28,31,34,342,37,32,69,188,40,,,,,0*5B
,$GQGSV,1,1,03,01,45,261,16,03,26,319,29,07,24,298,15,,,,,0*54
,$GNRMC,220814.00,A,3653.4936,S,17454.6095,E,0.6,195.8,150621,,,A,V*2A
,$GNVTG,195.8,T,,M,0.6,N,1.2,K,A*13
,$GNZDA,220814.00,15,06,2021,,*76
,$PSGSA,4,10,12,23,25,31,32,,,,,,,2.2,1.2,1.8,308,22081400,00,,7,37,,2,B,4,0,0,3,9,1,0,0,0,0,,16,1*0D
,$PSGSA,4,03,,,,,,,,,,,,2.2,1.2,1.8,308,22081400,00,,7,37,,2,B,4,0,0,3,9,1,0,0,0,0,,16,5*0D
,$GPGGA,220815.00,3653.4938,S,17454.6095,E,1,08,1.2,28.8,M,28.3,M,,*41
,$GNGLL,3653.4938,S,17454.6095,E,220815.00,A,A*6A
,$GNGSA,A,3,10,12,23,25,31,32,,,,,,,2.2,1.2,1.8,1*3C
,$GNGSA,A,3,01,03,,,,,,,,,,,2.2,1.2,1.8,5*3D
,$GPGSV,3,1,11,01,13,217,17,08,02,277,,10,60,083,38,12,12,107,22,0*6F
,$GPGSV,3,2,11,21,29,233,22,22,08,232,11,23,29,065,35,24,07,138,00,0*61
,$GPGSV,3,3,11,25,18,072,29,31,34,342,34,32,69,188,40,,,,,0*59
,$GQGSV,1,1,03,01,45,261,18,03,26,319,26,07,24,298,14,,,,,0*54
,$GNRMC,220815.00,A,3653.4938,S,17454.6095,E,0.6,183.5,150621,,,A,V*2F
,$GNVTG,183.5,T,,M,0.6,N,1.2,K,A*19
,$GNZDA,220815.00,15,06,2021,,*77
,$PSGSA,4,10,12,23,25,31,32,,,,,,,2.2,1.2,1.8,308,22081500,00,,7,36,,2,B,4,0,0,3,9,1,0,0,0,0,,16,1*0D
,$PSGSA,4,03,,,,,,,,,,,,2.2,1.2,1.8,308,22081500,00,,7,36,,2,B,4,0,0,3,9,1,0,0,0,0,,16,5*0D
,$GPGGA,220816.00,3653.4939,S,17454.6095,E,1,08,1.2,28.6,M,28.3,M,,*4D
,$GNGLL,3653.4939,S,17454.6095,E,220816.00,A,A*68
,$GNGSA,A,3,10,12,23,25,31,32,,,,,,,2.2,1.2,1.8,1*3C
,$GNGSA,A,3,01,03,,,,,,,,,,,2.2,1.2,1.8,5*3D
,$GPGSV,3,1,11,01,13,217,20,08,02,277,,10,60,083,39,12,12,107,24,0*6C
,$GPGSV,3,2,11,21,29,233,16,22,08,232,19,23,29,065,35,24,07,138,00,0*6E
,$GPGSV,3,3,11,25,18,072,26,31,34,342,37,32,69,188,40,,,,,0*55
,$GQGSV,1,1,03,01,45,261,18,03,26,319,23,07,24,298,04,,,,,0*50
,$GNRMC,220816.00,A,3653.4939,S,17454.6095,E,0.7,182.6,150621,,,A,V*2E
,$GNVTG,182.6,T,,M,0.7,N,1.2,K,A*1A
,$GNZDA,220816.00,15,06,2021,,*74
,$PSGSA,4,10,12,23,25,31,32,,,,,,,2.2,1.2,1.8,309,22081600,00,,7,37,,2,B,4,0,0,3,9,1,0,0,0,0,,16,1*0E
,$PSGSA,4,01,03,,,,,,,,,,,2.2,1.2,1.8,309,22081600,00,,7,37,,2,B,4,0,0,3,9,1,0,0,0,0,,16,5*0F
,$GPGGA,220817.00,3653.4943,S,17454.6096,E,1,08,1.2,27.7,M,28.3,M,,*4C
,$GNGLL,3653.4943,S,17454.6096,E,220817.00,A,A*67
,$GNGSA,A,3,10,12,23,25,31,32,,,,,,,2.2,1.2,1.8,1*3C
,$GNGSA,A,3,01,03,,,,,,,,,,,2.2,1.2,1.8,5*3D
,$GPGSV,3,1,11,01,13,217,22,08,02,277,,10,60,083,39,12,12,107,23,0*69
,$GPGSV,3,2,11,21,29,233,15,22,08,232,19,23,29,065,33,24,07,138,00,0*6B
,$GPGSV,3,3,11,25,18,072,26,31,34,342,39,32,69,188,42,,,,,0*59
,$GQGSV,1,1,03,01,45,261,17,03,26,319,25,07,24,298,07,,,,,0*5A
,$GNRMC,220817.00,A,3653.4943,S,17454.6096,E,0.7,157.4,150621,,,A,V*2B
,$GNVTG,157.4,T,,M,0.7,N,1.2,K,A*10
,$GNZDA,220817.00,15,06,2021,,*75
,$PSGSA,4,10,12,23,25,31,32,,,,,,,2.2,1.2,1.8,311,22081700,00,,7,38,,2,B,4,0,0,3,9,1,0,0,0,0,,16,1*09
,$PSGSA,4,03,,,,,,,,,,,,2.2,1.2,1.8,311,22081700,00,,7,38,,2,B,4,0,0,3,9,1,0,0,0,0,,16,5*09
,$GPGGA,220818.00,3653.4946,S,17454.6098,E,1,08,1.2,26.9,M,28.3,M,,*47
,$GNGLL,3653.4946,S,17454.6098,E,220818.00,A,A*63
,$GNGSA,A,3,10,12,23,25,31,32,,,,,,,2.2,1.2,1.8,1*3C
,$GNGSA,A,3,01,03,,,,,,,,,,,2.2,1.2,1.8,5*3D
,$GPGSV,3,1,11,01,13,217,23,08,02,277,,10,60,083,38,12,12,107,21,0*6B
,$GPGSV,3,2,11,21,29,233,18,22,08,232,17,23,29,065,32,24,07,138,,0*69
,$GPGSV,3,3,11,25,18,072,25,31,34,342,37,32,69,188,42,,,,,0*54
,$GQGSV,1,1,03,01,45,261,16,03,26,319,22,07,24,298,14,,,,,0*5E
,$GNRMC,220818.00,A,3653.4946,S,17454.6098,E,0.7,154.6,150621,,,A,V*2E
,$GNVTG,154.6,T,,M,0.7,N,1.2,K,A*11
,$GNZDA,220818.00,15,06,2021,,*7A
,$PSGSA,4,10,12,23,25,31,32,,,,,,,2.2,1.2,1.8,311,22081800,00,,7,37,,2,B,4,0,0,3,9,0,0,0,0,0,,16,1*08
,$PSGSA,4,03,,,,,,,,,,,,2.2,1.2,1.8,311,22081800,00,,7,37,,2,B,4,0,0,3,9,0,0,0,0,0,,16,5*08
,$GPGGA,220819.00,3653.4947,S,17454.6099,E,1,08,1.2,27.0,M,28.3,M,,*4E
,$GNGLL,3653.4947,S,17454.6099,E,220819.00,A,A*62
,$GNGSA,A,3,10,12,23,25,31,32,,,,,,,2.2,1.2,1.8,1*3C
,$GNGSA,A,3,01,03,,,,,,,,,,,2.2,1.2,1.8,5*3D
,$GPGSV,3,1,11,01,13,217,22,08,02,277,,10,60,083,40,12,12,107,23,0*67
,$GPGSV,3,2,11,21,29,233,16,22,08,232,15,23,29,065,31,24,07,138,,0*66
,$GPGSV,3,3,11,25,18,073,28,31,34,342,35,32,69,188,41,,,,,0*59
,$GQGSV,1,1,03,01,45,261,18,03,26,319,18,07,24,298,10,,,,,0*5D
,$GNRMC,220819.00,A,3653.4947,S,17454.6099,E,0.0,154.6,150621,,,A,V*28
,$GNVTG,154.6,T,,M,0.0,N,0.0,K,A*15
,$GNZDA,220819.00,15,06,2021,,*7B
,$PSGSA,4,10,12,23,25,31,32,,,,,,,2.2,1.2,1.8,311,22081900,00,,7,36,,2,B,4,0,0,3,9,0,0,0,0,0,,16,1*08
,$PSGSA,4,03,,,,,,,,,,,,2.2,1.2,1.8,311,22081900,00,,7,36,,2,B,4,0,0,3,9,0,0,0,0,0,,16,5*08
,$GPGGA,220820.00,3653.4947,S,17454.6099,E,1,08,1.2,27.5,M,28.3,M,,*41
,$GNGLL,3653.4947,S,17454.6099,E,220820.00,A,A*68
,$GNGSA,A,3,10,12,23,25,31,32,,,,,,,2.2,1.2,1.8,1*3C
,$GNGSA,A,3,01,03,,,,,,,,,,,2.2,1.2,1.8,5*3D
,$GPGSV,3,1,11,01,13,217,18,08,02,277,,10,60,083,42,12,12,107,24,0*6B
,$GPGSV,3,2,11,21,29,233,16,22,08,232,16,23,29,065,32,24,07,138,,0*66
,$GPGSV,3,3,11,25,18,073,27,31,34,342,33,32,69,188,40,,,,,0*51
,$GQGSV,1,1,03,01,45,261,19,03,26,319,18,07,24,298,00,,,,,0*5D
,$GNRMC,220820.00,A,3653.4947,S,17454.6099,E,0.0,154.6,150621,,,A,V*22
,$GNVTG,154.6,T,,M,0.0,N,0.0,K,A*15
,$GNZDA,220820.00,15,06,2021,,*71
,$PSGSA,4,10,12,23,25,31,32,,,,,,,2.2,1.2,1.8,311,22082000,00,,7,36,,2,B,4,0,0,3,9,0,0,0,0,0,,16,1*02
,$PSGSA,4,,,,,,,,,,,,,2.2,1.2,1.8,311,22082000,00,,7,36,,2,B,4,0,0,3,9,0,0,0,0,0,,16,5*01
,$GPGGA,220821.00,3653.4948,S,17454.6101,E,1,08,1.2,27.7,M,28.3,M,,*4D
,$GNGLL,3653.4948,S,17454.6101,E,220821.00,A,A*66
,$GNGSA,A,3,10,12,23,25,31,32,,,,,,,2.2,1.2,1.8,1*3C
,$GNGSA,A,3,01,03,,,,,,,,,,,2.2,1.2,1.8,5*3D
,$GPGSV,3,1,11,01,13,217,24,08,02,277,,10,60,083,43,12,12,107,20,0*61
,$GPGSV,3,2,11,21,29,233,19,22,08,232,20,23,29,065,33,24,07,138,00,0*6D
,$GPGSV,3,3,11,25,18,073,29,31,34,342,35,32,69,188,40,,,,,0*59
,$GQGSV,1,1,03,01,45,261,21,03,26,319,20,07,24,298,00,,,,,0*5D
,$GNRMC,220821.00,A,3653.4948,S,17454.6101,E,0.6,154.6,150621,,,A,V*2A
,$GNVTG,154.6,T,,M,0.6,N,1.1,K,A*13
,$GNZDA,220821.00,15,06,2021,,*70
,$PSGSA,4,10,12,23,25,31,32,,,,,,,2.2,1.2,1.8,311,22082100,00,,7,37,,2,B,4,0,0,4,9,0,0,0,0,0,,16,1*05
,$PSGSA,4,01,03,,,,,,,,,,,2.2,1.2,1.8,311,22082100,00,,7,37,,2,B,4,0,0,4,9,0,0,0,0,0,,16,5*04
,$GPGGA,220822.00,3653.4948,S,17454.6102,E,1,08,1.2,27.9,M,28.3,M,,*43
,$GNGLL,3653.4948,S,17454.6102,E,220822.00,A,A*66
,$GNGSA,A,3,10,12,23,25,31,32,,,,,,,2.2,1.2,1.8,1*3C
,$GNGSA,A,3,01,03,,,,,,,,,,,2.2,1.2,1.8,5*3D
,$GPGSV,3,1,11,01,13,217,21,08,02,277,,10,60,083,44,12,12,107,24,0*67
,$GPGSV,3,2,11,21,29,233,19,22,08,232,20,23,29,065,32,24,07,138,07,0*6B
,$GPGSV,3,3,11,25,18,073,31,31,34,342,34,32,69,188,40,,,,,0*51
,$GQGSV,1,1,03,01,45,261,23,03,26,319,24,07,24,298,13,,,,,0*59
,$GNRMC,220822.00,A,3653.4948,S,17454.6102,E,0.5,80.3,150621,,,A,V*14
,$GNVTG,80.3,T,,M,0.5,N,1.0,K,A*2C
,$GNZDA,220822.00,15,06,2021,,*73
,$PSGSA,4,10,12,23,25,31,32,,,,,,,2.2,1.2,1.8,310,22082200,00,,7,37,,2,B,4,0,0,4,9,0,0,0,0,0,,16,1*07
,$PSGSA,4,01,03,,,,,,,,,,,2.2,1.2,1.8,310,22082200,00,,7,37,,2,B,4,0,0,4,9,0,0,0,0,0,,16,5*06
,$GPGGA,220823.00,3653.4948,S,17454.6103,E,1,08,1.2,28.3,M,28.3,M,,*46
,$GNGLL,3653.4948,S,17454.6103,E,220823.00,A,A*66
,$GNGSA,A,3,10,12,23,25,31,32,,,,,,,2.2,1.2,1.8,1*3C
,$GNGSA,A,3,01,03,,,,,,,,,,,2.2,1.2,1.8,5*3D
,$GPGSV,3,1,11,01,13,217,18,08,02,277,,10,60,083,43,12,12,107,23,0*6D
,$GPGSV,3,2,11,21,29,233,19,22,08,232,19,23,29,065,30,24,07,138,07,0*63
,$GPGSV,3,3,11,25,18,073,32,31,34,342,34,32,69,188,39,,,,,0*5C
,$GQGSV,1,1,03,01,45,261,25,03,26,319,21,07,24,298,00,,,,,0*58
,$GNRMC,220823.00,A,3653.4948,S,17454.6103,E,0.6,54.5,150621,,,A,V*18
,$GNVTG,54.5,T,,M,0.6,N,1.1,K,A*21
,$GNZDA,220823.00,15,06,2021,,*72
,$PSGSA,4,10,12,23,25,31,32,,,,,,,2.2,1.2,1.8,309,22082300,00,,7,37,,2,B,4,0,0,4,9,0,0,0,0,0,,16,1*0E
,$PSGSA,4,01,03,,,,,,,,,,,2.2,1.2,1.8,309,22082300,00,,7,37,,2,B,4,0,0,4,9,0,0,0,0,0,,16,5*0F
,$GPGGA,220824.00,3653.4947,S,17454.6105,E,1,08,1.2,28.4,M,28.3,M,,*4F
,$GNGLL,3653.4947,S,17454.6105,E,220824.00,A,A*68
,$GNGSA,A,3,10,12,23,25,31,32,,,,,,,2.2,1.2,1.8,1*3C
,$GNGSA,A,3,01,03,,,,,,,,,,,2.2,1.2,1.8,5*3D
,$GPGSV,3,1,11,01,13,217,24,08,02,277,,10,60,083,43,12,12,107,25,0*64
,$GPGSV,3,2,11,21,29,233,23,22,08,232,14,23,29,065,30,24,07,138,00,0*60
,$GPGSV,3,3,11,25,18,073,25,31,34,342,36,32,69,188,39,,,,,0*58
,$GQGSV,1,1,03,01,45,261,27,03,26,319,24,07,24,298,10,,,,,0*5E
,$GNRMC,220824.00,A,3653.4947,S,17454.6105,E,0.6,93.0,150621,,,A,V*18
,$GNVTG,93.0,T,,M,0.6,N,1.1,K,A*2F
,$GNZDA,220824.00,15,06,2021,,*75
,$PSGSA,4,10,12,23,25,31,32,,,,,,,2.2,1.2,1.8,309,22082400,00,,7,37,,2,B,4,0,0,4,9,0,0,0,0,0,,16,1*09
,$PSGSA,4,01,,,,,,,,,,,,2.2,1.2,1.8,309,22082400,00,,7,37,,2,B,4,0,0,4,9,0,0,0,0,0,,16,5*0B
,$GPGGA,220825.00,3653.4947,S,17454.6107,E,1,08,1.2,28.5,M,28.3,M,,*4D
,$GNGLL,3653.4947,S,17454.6107,E,220825.00,A,A*6B
,$GNGSA,A,3,10,12,23,25,31,32,,,,,,,2.2,1.2,1.8,1*3C
,$GNGSA,A,3,01,03,,,,,,,,,,,2.2,1.2,1.8,5*3D
,$GPGSV,3,1,11,01,13,217,20,08,02,277,,10,60,083,42,12,12,107,23,0*67
,$GPGSV,3,2,11,21,29,233,23,22,08,232,14,23,29,065,29,24,07,138,10,0*69
,$GPGSV,3,3,11,25,18,073,26,31,34,342,34,32,69,188,39,,,,,0*59
,$GQGSV,1,1,03,01,45,261,30,03,26,319,30,07,24,298,10,,,,,0*5D
,$GNRMC,220825.00,A,3653.4947,S,17454.6107,E,0.6,73.3,150621,,,A,V*16
,$GNVTG,73.3,T,,M,0.6,N,1.1,K,A*22
,$GNZDA,220825.00,15,06,2021,,*74
,$PSGSA,4,10,12,23,25,31,32,,,,,,,2.2,1.2,1.8,309,22082500,00,,7,36,,2,B,4,0,0,4,9,0,0,0,0,0,,16,1*09
,$PSGSA,4,01,03,,,,,,,,,,,2.2,1.2,1.8,309,22082500,00,,7,36,,2,B,4,0,0,4,9,0,0,0,0,0,,16,5*08
,$GPGGA,220826.00,3653.4948,S,17454.6108,E,1,08,1.2,28.6,M,28.3,M,,*4D
,$GNGLL,3653.4948,S,17454.6108,E,220826.00,A,A*68
,$GNGSA,A,3,10,12,23,25,31,32,,,,,,,2.2,1.2,1.8,1*3C
,$GNGSA,A,3,01,03,,,,,,,,,,,2.2,1.2,1.8,5*3D
,$GPGSV,3,1,11,01,13,217,19,08,02,277,,10,60,083,40,12,12,107,26,0*6A
,$GPGSV,3,2,11,21,29,233,25,22,08,232,15,23,29,065,30,24,07,138,00,0*67
,$GPGSV,3,3,11,25,18,073,27,31,34,342,34,32,69,188,39,,,,,0*58
,$GQGSV,1,1,03,01,45,261,34,03,26,319,30,07,24,298,06,,,,,0*5E
,$GNRMC,220826.00,A,3653.4948,S,17454.6108,E,0.6,84.5,150621,,,A,V*1B
,$GNVTG,84.5,T,,M,0.6,N,1.2,K,A*2F
,$GNZDA,220826.00,15,06,2021,,*77
,$PSGSA,4,10,12,23,25,31,32,,,,,,,2.2,1.2,1.8,309,22082600,00,,7,36,,2,B,4,0,0,4,9,0,0,0,0,0,,16,1*0A
,$PSGSA,4,01,03,,,,,,,,,,,2.2,1.2,1.8,309,22082600,00,,7,36,,2,B,4,0,0,4,9,0,0,0,0,0,,16,5*0B
,$GPGGA,220827.00,3653.4947,S,17454.6110,E,1,08,1.2,28.4,M,28.3,M,,*48
,$GNGLL,3653.4947,S,17454.6110,E,220827.00,A,A*6F
,$GNGSA,A,3,10,12,23,25,31,32,,,,,,,2.2,1.2,1.8,1*3C
,$GNGSA,A,3,01,03,,,,,,,,,,,2.2,1.2,1.8,5*3D
,$GPGSV,3,1,11,01,13,217,23,08,02,277,,10,60,083,37,12,12,107,24,0*61
,$GPGSV,3,2,11,21,29,233,23,22,08,232,15,23,29,065,27,24,07,138,07,0*60
,$GPGSV,3,3,11,25,18,073,22,31,34,342,34,32,69,188,40,,,,,0*53
,$GQGSV,1,1,03,01,45,261,36,03,26,319,30,07,24,298,07,,,,,0*5D
,$GNRMC,220827.00,A,3653.4947,S,17454.6110,E,0.6,91.8,150621,,,A,V*15
,$GNVTG,91.8,T,,M,0.6,N,1.2,K,A*26
,$GNZDA,220827.00,15,06,2021,,*76
,$PSGSA,4,10,12,23,25,31,32,,,,,,,2.2,1.2,1.8,310,22082700,00,,7,36,,2,B,4,0,0,4,9,0,0,0,0,0,,16,1*03
,$PSGSA,4,01,03,,,,,,,,,,,2.2,1.2,1.8,310,22082700,00,,7,36,,2,B,4,0,0,4,9,0,0,0,0,0,,16,5*02
,$GPGGA,220828.00,3653.4947,S,17454.6112,E,1,08,1.2,28.2,M,28.3,M,,*43
,$GNGLL,3653.4947,S,17454.6112,E,220828.00,A,A*62
,$GNGSA,A,3,10,12,23,25,31,32,,,,,,,2.2,1.2,1.8,1*3C
,$GNGSA,A,3,01,03,,,,,,,,,,,2.2,1.2,1.8,5*3D
,$GPGSV,3,1,11,01,13,217,21,08,02,277,,10,60,083,36,12,12,107,25,0*63
,$GPGSV,3,2,11,21,29,233,28,22,08,232,15,23,29,065,25,24,07,138,00,0*6E
,$GPGSV,3,3,11,25,18,073,26,31,34,342,39,32,69,188,41,,,,,0*5B
,$GQGSV,1,1,03,01,45,261,37,03,26,319,31,07,24,298,12,,,,,0*59
,$GNRMC,220828.00,A,3653.4947,S,17454.6112,E,0.6,64.9,150621,,,A,V*13
,$GNVTG,64.9,T,,M,0.6,N,1.2,K,A*2D
,$GNZDA,220828.00,15,06,2021,,*79
,$PSGSA,4,10,12,23,25,31,32,,,,,,,2.2,1.2,1.8,309,22082800,00,,7,38,,2,B,4,0,0,4,9,0,0,0,0,0,,16,1*0A
,$PSGSA,4,01,03,,,,,,,,,,,2.2,1.2,1.8,309,22082800,00,,7,38,,2,B,4,0,0,4,9,0,0,0,0,0,,16,5*0B
,$GPGGA,220829.00,3653.4948,S,17454.6112,E,1,08,1.2,28.1,M,28.3,M,,*4E
,$GNGLL,3653.4948,S,17454.6112,E,220829.00,A,A*6C
,$GNGSA,A,3,10,12,23,25,31,32,,,,,,,2.2,1.2,1.8,1*3C
,$GNGSA,A,3,01,03,,,,,,,,,,,2.2,1.2,1.8,5*3D
,$GPGSV,3,1,11,01,13,217,22,08,02,277,,10,60,083,28,12,12,107,22,0*68
,$GPGSV,3,2,11,21,29,233,31,22,08,232,16,23,29,065,26,24,07,138,00,0*66
,$GPGSV,3,3,11,25,18,073,28,31,34,342,36,32,69,188,40,,,,,0*5B
,$GQGSV,1,1,03,01,45,261,35,03,26,319,32,07,24,298,12,,,,,0*58
,$GNRMC,220829.00,A,3653.4948,S,17454.6112,E,0.6,35.7,150621,,,A,V*17
,$GNVTG,35.7,T,,M,0.6,N,1.2,K,A*27
,$GNZDA,220829.00,15,06,2021,,*78
,$PSGSA,4,10,12,23,25,31,32,,,,,,,2.2,1.2,1.8,309,22082900,00,,7,35,,2,B,4,0,0,4,9,0,0,0,0,0,,16,1*06
,$PSGSA,4,01,03,,,,,,,,,,,2.2,1.2,1.8,309,22082900,00,,7,35,,2,B,4,0,0,4,9,0,0,0,0,0,,16,5*07
,$GPGGA,220830.00,3653.4947,S,17454.6113,E,1,08,1.2,27.8,M,28.3,M,,*4E
,$GNGLL,3653.4947,S,17454.6113,E,220830.00,A,A*6A
,$GNGSA,A,3,10,12,23,25,31,32,,,,,,,2.2,1.2,1.8,1*3C
,$GNGSA,A,3,01,03,,,,,,,,,,,2.2,1.2,1.8,5*3D
,$GPGSV,3,1,11,01,13,217,22,08,02,277,,10,60,083,27,12,12,107,21,0*64
,$GPGSV,3,2,11,21,29,233,33,22,08,232,19,23,29,065,26,24,07,138,06,0*6D
,$GPGSV,3,3,11,25,18,073,30,31,34,342,39,32,69,188,39,,,,,0*53
,$GQGSV,1,1,03,01,45,261,35,03,26,319,33,07,24,298,13,,,,,0*58
,$GNRMC,220830.00,A,3653.4947,S,17454.6113,E,0.6,36.0,150621,,,A,V*15
,$GNVTG,36.0,T,,M,0.6,N,1.2,K,A*23
,$GNZDA,220830.00,15,06,2021,,*70
,$PSGSA,4,10,12,23,25,31,32,,,,,,,2.2,1.2,1.8,309,22083000,00,,7,36,,2,B,4,0,0,4,9,0,0,0,0,0,,16,1*0D
,$PSGSA,4,01,03,,,,,,,,,,,2.2,1.2,1.8,309,22083000,00,,7,36,,2,B,4,0,0,4,9,0,0,0,0,0,,16,5*0C
,$GPGGA,220831.00,3653.4946,S,17454.6113,E,1,08,1.2,27.4,M,28.3,M,,*42
,$GNGLL,3653.4946,S,17454.6113,E,220831.00,A,A*6A
,$GNGSA,A,3,10,12,23,25,31,32,,,,,,,2.2,1.2,1.8,1*3C
,$GNGSA,A,3,01,03,,,,,,,,,,,2.2,1.2,1.8,5*3D
,$GPGSV,3,1,11,01,13,217,22,08,02,277,,10,60,083,30,12,12,107,21,0*62
,$GPGSV,3,2,11,21,29,233,34,22,08,232,18,23,29,065,22,24,07,138,08,0*61
,$GPGSV,3,3,11,25,18,073,28,31,34,342,37,32,69,188,39,,,,,0*54
,$GQGSV,1,1,03,01,45,261,35,03,26,319,35,07,24,298,18,,,,,0*55
,$GNRMC,220831.00,A,3653.4946,S,17454.6113,E,0.6,35.8,150621,,,A,V*1E
,$GNVTG,35.8,T,,M,0.6,N,1.2,K,A*28
,$GNZDA,220831.00,15,06,2021,,*71
,$PSGSA,4,10,12,23,25,31,32,,,,,,,2.2,1.2,1.8,309,22083100,00,,7,36,,2,B,4,0,0,4,9,0,0,0,0,0,,16,1*0C
,$PSGSA,4,01,03,,,,,,,,,,,2.2,1.2,1.8,309,22083100,00,,7,36,,2,B,4,0,0,4,9,0,0,0,0,0,,16,5*0D
,$GPGGA,220832.00,3653.4947,S,17454.6115,E,1,08,1.2,26.8,M,28.3,M,,*4B
,$GNGLL,3653.4947,S,17454.6115,E,220832.00,A,A*6E
,$GNGSA,A,3,10,12,23,25,31,32,,,,,,,2.2,1.2,1.8,1*3C
,$GNGSA,A,3,01,03,,,,,,,,,,,2.2,1.2,1.8,5*3D
,$GPGSV,3,1,11,01,13,217,20,08,02,277,,10,60,083,34,12,12,107,20,0*65
,$GPGSV,3,2,11,21,29,233,32,22,08,232,17,23,29,065,21,24,07,138,06,0*65
,$GPGSV,3,3,11,25,18,073,26,31,34,342,37,32,69,188,39,,,,,0*5A
,$GQGSV,1,1,03,01,45,261,34,03,26,319,31,07,24,298,15,,,,,0*5D
,$GNRMC,220832.00,A,3653.4947,S,17454.6115,E,0.6,35.8,150621,,,A,V*1A
,$GNVTG,35.8,T,,M,0.6,N,1.2,K,A*28
,$GNZDA,220832.00,15,06,2021,,*72
,$PSGSA,4,10,23,25,31,32,,,,,,,,2.2,1.2,1.8,309,22083200,00,,7,36,,2,B,4,0,0,4,9,0,0,0,0,0,,16,1*0C
,$PSGSA,4,01,03,,,,,,,,,,,2.2,1.2,1.8,309,22083200,00,,7,36,,2,B,4,0,0,4,9,0,0,0,0,0,,16,5*0E
,$GPGGA,220833.00,3653.4947,S,17454.6116,E,1,08,1.2,26.3,M,28.3,M,,*42
,$GNGLL,3653.4947,S,17454.6116,E,220833.00,A,A*6C
,$GNGSA,A,3,10,12,23,25,31,32,,,,,,,2.2,1.2,1.8,1*3C
,$GNGSA,A,3,01,03,,,,,,,,,,,2.2,1.2,1.8,5*3D
,$GPGSV,3,1,11,01,13,217,23,08,02,277,,10,60,083,35,12,12,107,19,0*6D
,$GPGSV,3,2,11,21,29,233,31,22,08,232,18,23,29,065,26,24,07,138,00,0*68
,$GPGSV,3,3,11,25,18,073,23,31,34,342,40,32,69,188,39,,,,,0*5F
,$GQGSV,1,1,03,01,45,261,35,03,26,319,33,07,24,298,15,,,,,0*5E
,$GNRMC,220833.00,A,3653.4947,S,17454.6116,E,0.6,32.5,150621,,,A,V*12
,$GNVTG,32.5,T,,M,0.6,N,1.2,K,A*22
,$GNZDA,220833.00,15,06,2021,,*73
,$PSGSA,4,10,12,23,25,31,32,,,,,,,2.2,1.2,1.8,309,22083300,00,,7,37,,2,B,4,0,0,4,9,0,0,0,0,0,,16,1*0F
,$PSGSA,4,01,03,,,,,,,,,,,2.2,1.2,1.8,309,22083300,00,,7,37,,2,B,4,0,0,4,9,0,0,0,0,0,,16,5*0E
,$GPGGA,220834.00,3653.4946,S,17454.6117,E,1,08,1.2,26.1,M,28.3,M,,*47
,$GNGLL,3653.4946,S,17454.6117,E,220834.00,A,A*6B
,$GNGSA,A,3,10,12,23,25,31,32,,,,,,,2.2,1.2,1.8,1*3C
,$GNGSA,A,3,01,03,,,,,,,,,,,2.2,1.2,1.8,5*3D
,$GPGSV,3,1,11,01,13,217,18,08,02,277,,10,60,083,39,12,12,107,21,0*62
,$GPGSV,3,2,11,21,29,233,34,22,08,232,19,23,29,065,25,24,07,138,00,0*6F
,$GPGSV,3,3,11,25,18,073,24,31,34,342,34,32,69,188,39,,,,,0*5B
,$GQGSV,1,1,03,01,45,261,34,03,26,319,31,07,24,298,10,,,,,0*58
,$GNRMC,220834.00,A,3653.4946,S,17454.6117,E,0.6,21.4,150621,,,A,V*16
,$GNVTG,21.4,T,,M,0.6,N,1.2,K,A*21
,$GNZDA,220834.00,15,06,2021,,*74
,$PSGSA,4,10,12,23,25,31,32,,,,,,,2.2,1.2,1.8,308,22083400,00,,7,36,,2,B,4,0,0,4,9,0,0,0,0,0,,16,1*08
,$PSGSA,4,01,03,,,,,,,,,,,2.2,1.2,1.8,308,22083400,00,,7,36,,2,B,4,0,0,4,9,0,0,0,0,0,,16,5*09
,$GPGGA,220835.00,3653.4943,S,17454.6117,E,1,08,1.2,26.6,M,28.3,M,,*44
,$GNGLL,3653.4943,S,17454.6117,E,220835.00,A,A*6F
,$GNGSA,A,3,10,12,23,25,31,32,,,,,,,2.2,1.2,1.8,1*3C
,$GNGSA,A,3,01,03,,,,,,,,,,,2.2,1.2,1.8,5*3D
,$GPGSV,3,1,11,01,13,217,18,08,02,277,,10,60,083,36,12,12,107,21,0*6D
,$GPGSV,3,2,11,21,29,233,31,22,08,232,14,23,29,065,25,24,07,138,00,0*67
,$GPGSV,3,3,11,25,18,073,24,31,34,342,31,32,69,188,37,,,,,0*50
,$GQGSV,1,1,03,01,45,261,35,03,26,319,32,07,24,298,00,,,,,0*5B
,$GNRMC,220835.00,A,3653.4943,S,17454.6117,E,0.7,346.5,150621,,,A,V*20
,$GNVTG,346.5,T,,M,0.7,N,1.2,K,A*13
,$GNZDA,220835.00,15,06,2021,,*75
,$PSGSA,4,10,12,23,25,31,32,,,,,,,2.2,1.2,1.8,307,22083500,00,,7,35,,2,B,4,0,0,3,9,1,0,0,0,0,,16,1*03
,$PSGSA,4,01,03,,,,,,,,,,,2.2,1.2,1.8,307,22083500,00,,7,35,,2,B,4,0,0,3,9,1,0,0,0,0,,16,5*02
,$GPGGA,220836.00,3653.4943,S,17454.6117,E,1,08,1.2,26.8,M,28.3,M,,*49
,$GNGLL,3653.4943,S,17454.6117,E,220836.00,A,A*6C
,$GNGSA,A,3,10,12,23,25,31,32,,,,,,,2.2,1.2,1.8,1*3C
,$GNGSA,A,3,01,03,,,,,,,,,,,2.2,1.2,1.8,5*3D
,$GPGSV,3,1,11,01,13,217,17,08,02,277,,10,60,083,37,12,12,107,25,0*67
,$GPGSV,3,2,11,21,29,233,33,22,08,232,19,23,29,065,28,24,07,138,00,0*65
,$GPGSV,3,3,11,25,18,073,22,31,34,342,35,32,69,188,39,,,,,0*5C
,$GQGSV,1,1,03,01,45,261,34,03,26,319,35,07,24,298,18,,,,,0*54
,$GNRMC,220836.00,A,3653.4943,S,17454.6117,E,0.6,358.7,150621,,,A,V*2F
,$GNVTG,358.7,T,,M,0.6,N,1.2,K,A*1F
,$GNZDA,220836.00,15,06,2021,,*76
,$PSGSA,4,10,12,23,25,31,32,,,,,,,2.2,1.2,1.8,307,22083600,00,,7,36,,2,B,4,0,0,3,9,1,0,0,0,0,,16,1*03
,$PSGSA,4,01,03,,,,,,,,,,,2.2,1.2,1.8,307,22083600,00,,7,36,,2,B,4,0,0,3,9,1,0,0,0,0,,16,5*02
,$GPGGA,220837.00,3653.4942,S,17454.6117,E,1,08,1.2,26.8,M,28.3,M,,*49
,$GNGLL,3653.4942,S,17454.6117,E,220837.00,A,A*6C
,$GNGSA,A,3,10,12,23,25,31,32,,,,,,,2.2,1.2,1.8,1*3C
,$GNGSA,A,3,01,03,,,,,,,,,,,2.2,1.2,1.8,5*3D
,$GPGSV,3,1,11,01,13,217,21,08,02,277,,10,60,083,37,12,12,107,26,0*61
,$GPGSV,3,2,11,21,29,233,29,22,08,232,19,23,29,065,27,24,07,138,00,0*61
,$GPGSV,3,3,11,25,18,073,24,31,34,342,36,32,69,188,42,,,,,0*55
,$GQGSV,1,1,03,01,45,261,35,03,26,319,35,07,24,298,19,,,,,0*54
,$GNRMC,220837.00,A,3653.4942,S,17454.6117,E,0.5,8.1,150621,,,A,V*2C
,$GNVTG,8.1,T,,M,0.5,N,1.0,K,A*1E
,$GNZDA,220837.00,15,06,2021,,*77
,$PSGSA,4,10,12,23,25,31,32,,,,,,,2.2,1.2,1.8,307,22083700,00,,7,37,,2,B,4,0,0,3,9,1,0,0,0,0,,16,1*03
,$PSGSA,4,01,03,,,,,,,,,,,2.2,1.2,1.8,307,22083700,00,,7,37,,2,B,4,0,0,3,9,1,0,0,0,0,,16,5*02
,$GPGGA,220838.00,3653.4940,S,17454.6116,E,1,08,1.2,27.1,M,28.3,M,,*4D
,$GNGLL,3653.4940,S,17454.6116,E,220838.00,A,A*60
,$GNGSA,A,3,10,12,23,25,31,32,,,,,,,2.2,1.2,1.8,1*3C
,$GNGSA,A,3,01,03,,,,,,,,,,,2.2,1.2,1.8,5*3D
,$GPGSV,3,1,11,01,13,217,22,08,02,277,,10,60,083,39,12,12,107,27,0*6D
,$GPGSV,3,2,11,21,29,233,33,22,08,232,18,23,29,065,31,24,07,138,00,0*6C
,$GPGSV,3,3,11,25,18,073,25,31,34,342,36,32,69,188,43,,,,,0*55
,$GQGSV,1,1,03,01,45,261,35,03,26,319,32,07,24,298,19,,,,,0*53
,$GNRMC,220838.00,A,3653.4940,S,17454.6116,E,0.5,338.0,150621,,,A,V*21
,$GNVTG,338.0,T,,M,0.5,N,1.0,K,A*1F
,$GNZDA,220838.00,15,06,2021,,*78
,$PSGSA,4,10,12,23,25,31,32,,,,,,,2.2,1.2,1.8,307,22083800,00,,7,38,,2,B,4,0,0,3,9,1,0,0,0,0,,16,1*03
,$PSGSA,4,01,03,,,,,,,,,,,2.2,1.2,1.8,307,22083800,00,,7,38,,2,B,4,0,0,3,9,1,0,0,0,0,,16,5*02
,$GPGGA,220839.00,3653.4939,S,17454.6116,E,1,08,1.2,27.0,M,28.3,M,,*43
,$GNGLL,3653.4939,S,17454.6116,E,220839.00,A,A*6F
,$GNGSA,A,3,10,12,23,25,31,32,,,,,,,2.2,1.2,1.8,1*3C
,$GNGSA,A,3,01,03,,,,,,,,,,,2.2,1.2,1.8,5*3D
,$GPGSV,3,1,11,01,13,217,20,08,02,277,,10,60,083,37,12,12,107,28,0*6E
,$GPGSV,3,2,11,21,29,233,31,22,08,232,17,23,29,065,30,24,07,138,00,0*60
,$GPGSV,3,3,11,25,18,073,24,31,34,342,35,32,69,188,43,,,,,0*57
,$GQGSV,1,1,03,01,45,261,35,03,26,319,30,07,24,298,19,,,,,0*51
,$GNRMC,220839.00,A,3653.4939,S,17454.6116,E,0.5,331.6,150621,,,A,V*21
,$GNVTG,331.6,T,,M,0.5,N,1.0,K,A*10
,$GNZDA,220839.00,15,06,2021,,*79
,$PSGSA,4,10,12,23,25,31,32,,,,,,,2.2,1.2,1.8,307,22083900,00,,7,37,,2,B,4,0,0,3,9,1,0,0,0,0,,16,1*0D
,$PSGSA,4,01,03,,,,,,,,,,,2.2,1.2,1.8,307,22083900,00,,7,37,,2,B,4,0,0,3,9,1,0,0,0,0,,16,5*0C
,$GPGGA,220840.00,3653.4938,S,17454.6116,E,1,08,1.2,26.7,M,28.3,M,,*4A
,$GNGLL,3653.4938,S,17454.6116,E,220840.00,A,A*60
,$GNGSA,A,3,10,12,23,25,31,32,,,,,,,2.2,1.2,1.8,1*3C
,$GNGSA,A,3,01,03,,,,,,,,,,,2.2,1.2,1.8,5*3D
,$GPGSV,3,1,11,01,13,217,20,08,02,277,,10,60,083,38,12,12,107,31,0*69
,$GPGSV,3,2,11,21,29,233,32,22,08,232,20,23,29,065,32,24,07,138,00,0*65
,$GPGSV,3,3,11,25,18,073,27,31,34,342,32,32,69,188,42,,,,,0*52
,$GQGSV,1,1,03,01,45,261,37,03,26,319,28,07,24,298,18,,,,,0*5B
,$GNRMC,220840.00,A,3653.4938,S,17454.6116,E,0.4,308.0,150621,,,A,V*23
,$GNVTG,308.0,T,,M,0.4,N,0.8,K,A*14
,$GNZDA,220840.00,15,06,2021,,*77
,$PSGSA,4,10,12,23,25,31,32,,,,,,,2.2,1.2,1.8,307,22084000,00,,7,37,,2,B,4,0,0,3,9,1,0,0,0,0,,16,1*03
,$PSGSA,4,01,03,,,,,,,,,,,2.2,1.2,1.8,307,22084000,00,,7,37,,2,B,4,0,0,3,9,1,0,0,0,0,,16,5*02
,$GPGGA,220841.00,3653.4937,S,17454.6114,E,1,08,1.2,26.7,M,28.3,M,,*46
,$GNGLL,3653.4937,S,17454.6114,E,220841.00,A,A*6C
,$GNGSA,A,3,10,12,23,25,31,32,,,,,,,2.2,1.2,1.8,1*3C
,$GNGSA,A,3,01,03,,,,,,,,,,,2.2,1.2,1.8,5*3D
,$GPGSV,3,1,11,01,13,217,20,08,02,277,,10,60,083,38,12,12,107,30,0*68
,$GPGSV,3,2,11,21,29,233,30,22,08,232,15,23,29,065,30,24,07,138,00,0*63
,$GPGSV,3,3,11,25,18,073,27,31,34,342,30,32,69,188,41,,,,,0*53
,$GQGSV,1,1,03,01,45,261,38,03,26,319,24,07,24,298,19,,,,,0*59
,$GNRMC,220841.00,A,3653.4937,S,17454.6114,E,0.4,313.0,150621,,,A,V*25
,$GNVTG,313.0,T,,M,0.4,N,0.8,K,A*1E
,$GNZDA,220841.00,15,06,2021,,*76
,$PSGSA,4,10,12,23,25,31,32,,,,,,,2.2,1.2,1.8,307,22084100,00,,7,36,,2,B,4,0,0,3,9,1,0,0,0,0,,16,1*03
,$PSGSA,4,01,03,,,,,,,,,,,2.2,1.2,1.8,307,22084100,00,,7,36,,2,B,4,0,0,3,9,1,0,0,0,0,,16,5*02
,$GPGGA,220842.00,3653.4936,S,17454.6113,E,1,08,1.2,26.5,M,28.3,M,,*41
,$GNGLL,3653.4936,S,17454.6113,E,220842.00,A,A*69
,$GNGSA,A,3,10,12,23,25,31,32,,,,,,,2.2,1.2,1.8,1*3C
,$GNGSA,A,3,01,03,,,,,,,,,,,2.2,1.2,1.8,5*3D
,$GPGSV,3,1,11,01,13,217,19,08,02,277,,10,60,083,39,12,12,107,29,0*6B
,$GPGSV,3,2,11,21,29,233,30,22,08,232,15,23,29,065,34,24,07,138,00,0*67
,$GPGSV,3,3,11,25,18,073,28,31,34,342,28,32,69,188,41,,,,,0*55
,$GQGSV,1,1,03,01,45,261,39,03,26,319,29,07,24,298,19,,,,,0*55
,$GNRMC,220842.00,A,3653.4936,S,17454.6113,E,0.4,280.0,150621,,,A,V*2B
,$GNVTG,280.0,T,,M,0.4,N,0.8,K,A*15
,$GNZDA,220842.00,15,06,2021,,*75
,$PSGSA,4,10,12,23,25,31,32,,,,,,,2.2,1.2,1.8,307,22084200,00,,7,38,,2,B,4,0,0,3,9,1,0,0,0,0,,16,1*0E
,$PSGSA,4,01,03,,,,,,,,,,,2.2,1.2,1.8,307,22084200,00,,7,38,,2,B,4,0,0,3,9,1,0,0,0,0,,16,5*0F
,$GPGGA,220843.00,3653.4937,S,17454.6111,E,1,08,1.2,26.2,M,28.3,M,,*44
,$GNGLL,3653.4937,S,17454.6111,E,220843.00,A,A*6B
,$GNGSA,A,3,10,12,23,25,31,32,,,,,,,2.2,1.2,1.8,1*3C
,$GNGSA,A,3,01,03,,,,,,,,,,,2.2,1.2,1.8,5*3D
,$GPGSV,3,1,11,01,13,217,18,08,02,277,,10,60,083,41,12,12,107,31,0*6C
,$GPGSV,3,2,11,21,29,234,30,22,08,232,16,23,29,065,37,24,07,138,00,0*60
,$GPGSV,3,3,11,25,18,073,30,31,34,342,29,32,69,188,39,,,,,0*52
,$GQGSV,1,1,03,01,45,261,38,03,26,319,29,07,24,298,19,,,,,0*54
,$GNRMC,220843.00,A,3653.4937,S,17454.6111,E,0.5,258.2,150621,,,A,V*2F
,$GNVTG,258.2,T,,M,0.5,N,0.9,K,A*12
,$GNZDA,220843.00,15,06,2021,,*74
,$PSGSA,4,10,12,23,25,31,32,,,,,,,2.2,1.2,1.8,307,22084300,00,,7,38,,2,B,4,0,0,3,9,1,0,0,0,0,,16,1*0F
,$PSGSA,4,01,03,,,,,,,,,,,2.2,1.2,1.8,307,22084300,00,,7,38,,2,B,4,0,0,3,9,1,0,0,0,0,,16,5*0E
,$GPGGA,220844.00,3653.4938,S,17454.6110,E,1,08,1.2,26.0,M,28.3,M,,*4F
,$GNGLL,3653.4938,S,17454.6110,E,220844.00,A,A*62
,$GNGSA,A,3,10,12,23,25,31,32,,,,,,,2.2,1.2,1.8,1*3C
,$GNGSA,A,3,01,03,,,,,,,,,,,2.2,1.2,1.8,5*3D
,$GPGSV,3,1,11,01,13,217,21,08,02,277,,10,60,083,41,12,13,107,31,0*67
,$GPGSV,3,2,11,21,29,234,28,22,08,232,15,23,29,065,37,24,07,138,,0*6A
,$GPGSV,3,3,11,25,18,073,29,31,34,342,28,32,69,188,40,,,,,0*55
,$GQGSV,1,1,03,01,45,261,37,03,26,319,21,07,24,298,16,,,,,0*5C
,$GNRMC,220844.00,A,3653.4938,S,17454.6110,E,0.5,287.6,150621,,,A,V*20
,$GNVTG,287.6,T,,M,0.5,N,1.0,K,A*1C
,$GNZDA,220844.00,15,06,2021,,*73
,$PSGSA,4,10,12,23,25,31,32,,,,,,,2.2,1.2,1.8,307,22084400,00,,7,38,,2,B,4,0,0,3,9,0,0,0,0,0,,16,1*09
,$PSGSA,4,01,03,,,,,,,,,,,2.2,1.2,1.8,307,22084400,00,,7,38,,2,B,4,0,0,3,9,0,0,0,0,0,,16,5*08
,$GPGGA,220845.00,3653.4939,S,17454.6108,E,1,08,1.2,25.7,M,28.3,M,,*42
,$GNGLL,3653.4939,S,17454.6108,E,220845.00,A,A*6B
,$GNGSA,A,3,10,12,23,25,31,32,,,,,,,2.2,1.2,1.8,1*3C
,$GNGSA,A,3,01,03,,,,,,,,,,,2.2,1.2,1.8,5*3D
,$GPGSV,3,1,11,01,13,217,18,08,02,277,,10,60,083,42,12,13,107,32,0*6D
,$GPGSV,3,2,11,21,29,234,25,22,08,232,10,23,29,065,35,24,07,138,,0*60
,$GPGSV,3,3,11,25,18,073,23,31,34,342,28,32,69,188,41,,,,,0*5E
,$GQGSV,1,1,03,01,45,261,34,03,26,319,25,07,24,298,12,,,,,0*5F
,$GNRMC,220845.00,A,3653.4939,S,17454.6108,E,0.5,291.3,150621,,,A,V*2B
,$GNVTG,291.3,T,,M,0.5,N,1.0,K,A*1E
,$GNZDA,220845.00,15,06,2021,,*72
,$PSGSA,4,10,12,23,25,31,32,,,,,,,2.2,1.2,1.8,307,22084500,00,,7,38,,2,B,4,0,0,3,9,0,0,0,0,0,,16,1*08
,$PSGSA,4,01,,,,,,,,,,,,2.2,1.2,1.8,307,22084500,00,,7,38,,2,B,4,0,0,3,9,0,0,0,0,0,,16,5*0A
,$GPGGA,220846.00,3653.4939,S,17454.6107,E,1,08,1.2,25.6,M,28.3,M,,*4F
,$GNGLL,3653.4939,S,17454.6107,E,220846.00,A,A*67
,$GNGSA,A,3,10,12,23,25,31,32,,,,,,,2.2,1.2,1.8,1*3C
,$GNGSA,A,3,01,03,,,,,,,,,,,2.2,1.2,1.8,5*3D
,$GPGSV,3,1,11,01,13,217,20,08,02,277,,10,60,083,42,12,13,107,32,0*66
,$GPGSV,3,2,11,21,29,234,24,22,08,232,08,23,29,065,36,24,07,138,,0*6B
,$GPGSV,3,3,11,25,18,073,24,31,34,342,25,32,69,188,41,,,,,0*54
,$GQGSV,1,1,03,01,45,261,31,03,26,319,25,07,24,298,00,,,,,0*59
,$GNRMC,220846.00,A,3653.4939,S,17454.6107,E,0.5,241.7,150621,,,A,V*2E
,$GNVTG,241.7,T,,M,0.5,N,1.0,K,A*17
,$GNZDA,220846.00,15,06,2021,,*71
,$PSGSA,4,10,12,23,25,31,32,,,,,,,2.2,1.2,1.8,307,22084600,00,,7,37,,2,B,4,0,0,3,9,0,0,0,0,0,,16,1*04
,$PSGSA,4,01,03,,,,,,,,,,,2.2,1.2,1.8,307,22084600,00,,7,37,,2,B,4,0,0,3,9,0,0,0,0,0,,16,5*05
,$GPGGA,220847.00,3653.4939,S,17454.6106,E,1,08,1.2,25.7,M,28.3,M,,*4E
,$GNGLL,3653.4939,S,17454.6106,E,220847.00,A,A*67
,$GNGSA,A,3,10,12,23,25,31,32,,,,,,,2.2,1.2,1.8,1*3C
,$GNGSA,A,3,01,03,,,,,,,,,,,2.2,1.2,1.8,5*3D
,$GPGSV,3,1,11,01,13,217,18,08,02,277,,10,60,083,42,12,13,107,28,0*66
,$GPGSV,3,2,11,21,29,234,24,22,08,232,16,23,29,065,38,24,07,138,,0*6A
,$GPGSV,3,3,11,25,18,073,27,31,34,342,28,32,69,188,40,,,,,0*5B
,$GQGSV,1,1,03,01,45,261,26,03,26,319,22,07,24,298,14,,,,,0*5D
,$GNRMC,220847.00,A,3653.4939,S,17454.6106,E,0.5,210.4,150621,,,A,V*29
,$GNVTG,210.4,T,,M,0.5,N,1.0,K,A*10
,$GNZDA,220847.00,15,06,2021,,*70
,$PSGSA,4,10,12,23,25,31,32,,,,,,,2.2,1.2,1.8,307,22084700,00,,7,37,,2,B,4,0,0,3,9,0,0,0,0,0,,16,1*05
,$PSGSA,4,01,03,,,,,,,,,,,2.2,1.2,1.8,307,22084700,00,,7,37,,2,B,4,0,0,3,9,0,0,0,0,0,,16,5*04
,$GPGGA,220848.00,3653.4940,S,17454.6105,E,1,08,1.2,25.7,M,28.3,M,,*4C
,$GNGLL,3653.4940,S,17454.6105,E,220848.00,A,A*65
,$GNGSA,A,3,10,12,23,25,31,32,,,,,,,2.2,1.2,1.8,1*3C
,$GNGSA,A,3,01,03,,,,,,,,,,,2.2,1.2,1.8,5*3D
,$GPGSV,3,1,11,01,13,217,18,08,02,277,,10,60,083,42,12,13,107,22,0*6C
,$GPGSV,3,2,11,21,29,234,24,22,08,232,18,23,29,065,38,24,07,138,,0*64
,$GPGSV,3,3,11,25,18,073,30,31,34,342,30,32,69,188,41,,,,,0*55
,$GQGSV,1,1,03,01,45,261,24,03,26,319,28,07,24,298,13,,,,,0*52
,$GNRMC,220848.00,A,3653.4940,S,17454.6105,E,0.5,208.7,150621,,,A,V*21
,$GNVTG,208.7,T,,M,0.5,N,1.0,K,A*1A
,$GNZDA,220848.00,15,06,2021,,*7F
,$PSGSA,4,10,12,23,25,31,32,,,,,,,2.2,1.2,1.8,307,22084800,00,,7,37,,2,B,4,0,0,3,9,0,0,0,0,0,,16,1*0A
,$PSGSA,4,01,03,,,,,,,,,,,2.2,1.2,1.8,307,22084800,00,,7,37,,2,B,4,0,0,3,9,0,0,0,0,0,,16,5*0B
,$GPGGA,220849.00,3653.4942,S,17454.6104,E,1,08,1.2,25.4,M,28.3,M,,*4D
,$GNGLL,3653.4942,S,17454.6104,E,220849.00,A,A*67
,$GNGSA,A,3,10,12,23,25,31,32,,,,,,,2.2,1.2,1.8,1*3C
,$GNGSA,A,3,01,03,,,,,,,,,,,2.2,1.2,1.8,5*3D
,$GPGSV,3,1,11,01,13,217,16,08,02,277,,10,60,083,42,12,13,108,19,0*65
,$GPGSV,3,2,11,21,29,234,23,22,08,232,13,23,29,065,36,24,07,138,,0*66
,$GPGSV,3,3,11,25,18,073,30,31,34,342,31,32,69,188,42,,,,,0*57
,$GQGSV,1,1,03,01,45,261,21,03,26,319,26,07,24,298,15,,,,,0*5F
,$GNRMC,220849.00,A,3653.4942,S,17454.6104,E,0.5,225.3,150621,,,A,V*28
,$GNVTG,225.3,T,,M,0.5,N,1.0,K,A*11
,$GNZDA,220849.00,15,06,2021,,*7E
,$PSGSA,4,10,23,25,31,32,,,,,,,,2.2,1.2,1.8,308,22084900,00,,7,37,,2,B,4,0,0,3,9,0,0,0,0,0,,16,1*07
,$PSGSA,4,01,03,,,,,,,,,,,2.2,1.2,1.8,308,22084900,00,,7,37,,2,B,4,0,0,3,9,0,0,0,0,0,,16,5*05
,$GPGGA,220850.00,3653.4942,S,17454.6103,E,1,08,1.2,25.4,M,28.3,M,,*42
,$GNGLL,3653.4942,S,17454.6103,E,220850.00,A,A*68
,$GNGSA,A,3,10,12,23,25,31,32,,,,,,,2.2,1.2,1.8,1*3C
,$GNGSA,A,3,01,03,,,,,,,,,,,2.2,1.2,1.8,5*3D
,$GPGSV,3,1,11,01,13,217,18,08,02,277,,10,60,083,40,12,13,108,19,0*69
,$GPGSV,3,2,11,21,29,234,22,22,08,232,00,23,29,065,33,24,07,138,00,0*60
,$GPGSV,3,3,11,25,18,073,31,31,34,342,32,32,69,188,42,,,,,0*55
,$GQGSV,1,1,03,01,45,261,21,03,26,319,29,07,24,298,15,,,,,0*50
,$GNRMC,220850.00,A,3653.4942,S,17454.6103,E,0.6,208.2,150621,,,A,V*2A
,$GNVTG,208.2,T,,M,0.6,N,1.1,K,A*1D
,$GNZDA,220850.00,15,06,2021,,*76
,$PSGSA,4,10,12,23,25,31,32,,,,,,,2.2,1.2,1.8,308,22085000,00,,7,36,,2,B,4,0,0,4,9,0,0,0,0,0,,16,1*0A
,$PSGSA,4,01,03,,,,,,,,,,,2.2,1.2,1.8,308,22085000,00,,7,36,,2,B,4,0,0,4,9,0,0,0,0,0,,16,5*0B
,$GPGGA,220851.00,3653.4944,S,17454.6102,E,1,08,1.2,25.1,M,28.3,M,,*41
,$GNGLL,3653.4944,S,17454.6102,E,220851.00,A,A*6E
,$GNGSA,A,3,10,12,23,25,31,32,,,,,,,2.2,1.2,1.8,1*3C
,$GNGSA,A,3,01,03,,,,,,,,,,,2.2,1.2,1.8,5*3D
,$GPGSV,3,1,11,01,13,217,18,08,02,277,,10,60,083,39,12,13,108,20,0*6D
,$GPGSV,3,2,11,21,29,234,22,22,08,232,11,23,29,065,35,24,07,138,04,0*62
,$GPGSV,3,3,11,25,18,073,31,31,34,342,36,32,69,188,42,,,,,0*51
,$GQGSV,1,1,03,01,45,261,21,03,26,319,28,07,24,298,15,,,,,0*51
,$GNRMC,220851.00,A,3653.4944,S,17454.6102,E,0.7,202.4,150621,,,A,V*21
,$GNVTG,202.4,T,,M,0.7,N,1.3,K,A*12
,$GNZDA,220851.00,15,06,2021,,*77
,$PSGSA,4,10,12,23,25,31,32,,,,,,,2.2,1.2,1.8,308,22085100,00,,7,38,,2,B,4,0,0,4,9,0,0,0,0,0,,16,1*05
,$PSGSA,4,01,03,,,,,,,,,,,2.2,1.2,1.8,308,22085100,00,,7,38,,2,B,4,0,0,4,9,0,0,0,0,0,,16,5*04
,$GPGGA,220852.00,3653.4947,S,17454.6101,E,1,08,1.2,24.7,M,28.3,M,,*45
,$GNGLL,3653.4947,S,17454.6101,E,220852.00,A,A*6D
,$GNGSA,A,3,10,12,23,25,31,32,,,,,,,2.2,1.2,1.8,1*3C
,$GNGSA,A,3,01,03,,,,,,,,,,,2.2,1.2,1.8,5*3D
,$GPGSV,3,1,11,01,13,218,13,08,02,277,,10,60,083,40,12,13,108,21,0*66
,$GPGSV,3,2,11,21,29,234,21,22,08,232,14,23,29,065,36,24,07,138,03,0*60
,$GPGSV,3,3,11,25,18,073,30,31,34,342,38,32,69,188,42,,,,,0*5E
,$GQGSV,1,1,03,01,45,261,21,03,26,319,26,07,24,298,15,,,,,0*5F
,$GNRMC,220852.00,A,3653.4947,S,17454.6101,E,0.7,201.4,150621,,,A,V*21
,$GNVTG,201.4,T,,M,0.7,N,1.2,K,A*10
,$GNZDA,220852.00,15,06,2021,,*74
,$PSGSA,4,10,12,23,25,31,32,,,,,,,2.2,1.2,1.8,309,22085200,00,,7,39,,2,B,4,0,0,4,9,0,0,0,0,0,,16,1*06
,$PSGSA,4,01,03,,,,,,,,,,,2.2,1.2,1.8,309,22085200,00,,7,39,,2,B,4,0,0,4,9,0,0,0,0,0,,16,5*07
,$GPGGA,220853.00,3653.4947,S,17454.6102,E,1,08,1.2,24.9,M,28.3,M,,*49
,$GNGLL,3653.4947,S,17454.6102,E,220853.00,A,A*6F
,$GNGSA,A,3,10,12,23,25,31,32,,,,,,,2.2,1.2,1.8,1*3C
,$GNGSA,A,3,01,03,,,,,,,,,,,2.2,1.2,1.8,5*3D
,$GPGSV,3,1,11,01,13,218,17,08,02,277,,10,60,083,39,12,13,108,19,0*67
,$GPGSV,3,2,11,21,29,234,21,22,08,232,09,23,29,065,37,24,07,138,00,0*6E
,$GPGSV,3,3,11,25,18,073,30,31,34,342,38,32,69,188,41,,,,,0*5D
,$GQGSV,1,1,03,01,45,261,17,03,26,319,26,07,24,298,14,,,,,0*5B
,$GNRMC,220853.00,A,3653.4947,S,17454.6102,E,0.7,192.1,150621,,,A,V*2F
,$GNVTG,192.1,T,,M,0.7,N,1.2,K,A*1C
,$GNZDA,220853.00,15,06,2021,,*75
,$PSGSA,4,10,23,25,31,32,,,,,,,,2.2,1.2,1.8,309,22085300,00,,7,38,,2,B,4,0,0,4,9,0,0,0,0,0,,16,1*05
,$PSGSA,4,03,,,,,,,,,,,,2.2,1.2,1.8,309,22085300,00,,7,38,,2,B,4,0,0,4,9,0,0,0,0,0,,16,5*06
,$GPGGA,220854.00,3653.4949,S,17454.6101,E,1,08,1.2,25.0,M,28.3,M,,*4B
,$GNGLL,3653.4949,S,17454.6101,E,220854.00,A,A*65
,$GNGSA,A,3,10,12,23,25,31,32,,,,,,,2.2,1.2,1.8,1*3C
,$GNGSA,A,3,01,03,,,,,,,,,,,2.2,1.2,1.8,5*3D
,$GPGSV,3,1,11,01,13,218,16,08,02,277,,10,60,083,39,12,13,108,19,0*66
,$GPGSV,3,2,11,21,29,234,24,22,08,232,08,23,29,065,36,24,07,138,16,0*6C
,$GPGSV,3,3,11,25,18,073,26,31,34,342,35,32,69,188,40,,,,,0*56
,$GQGSV,1,1,03,01,45,261,18,03,26,319,29,07,24,298,16,,,,,0*59
,$GNRMC,220854.00,A,3653.4949,S,17454.6101,E,0.7,181.2,150621,,,A,V*24
,$GNVTG,181.2,T,,M,0.7,N,1.3,K,A*1C
,$GNZDA,220854.00,15,06,2021,,*72
,$PSGSA,4,10,12,23,25,31,32,,,,,,,2.2,1.2,1.8,309,22085400,00,,7,37,,2,B,4,0,0,4,9,0,0,0,0,0,,16,1*0E
,$PSGSA,4,03,,,,,,,,,,,,2.2,1.2,1.8,309,22085400,00,,7,37,,2,B,4,0,0,4,9,0,0,0,0,0,,16,5*0E
,$GPGGA,220855.00,3653.4950,S,17454.6101,E,1,08,1.2,25.1,M,28.3,M,,*43
,$GNGLL,3653.4950,S,17454.6101,E,220855.00,A,A*6C
,$GNGSA,A,3,10,12,23,25,31,32,,,,,,,2.2,1.2,1.8,1*3C
,$GNGSA,A,3,01,03,,,,,,,,,,,2.2,1.2,1.8,5*3D
,$GPGSV,3,1,11,01,13,218,13,08,02,277,,10,60,083,39,12,13,108,22,0*6B
,$GPGSV,3,2,11,21,29,234,22,22,08,232,15,23,29,065,34,24,07,138,00,0*63
,$GPGSV,3,3,11,25,18,073,28,31,34,342,36,32,69,188,41,,,,,0*5A
,$GQGSV,1,1,03,01,45,261,20,03,26,319,22,07,24,298,11,,,,,0*5E
,$GNRMC,220855.00,A,3653.4950,S,17454.6101,E,0.7,167.5,150621,,,A,V*22
,$GNVTG,167.5,T,,M,0.7,N,1.2,K,A*12
,$GNZDA,220855.00,15,06,2021,,*73
,$PSGSA,4,10,12,23,25,31,32,,,,,,,2.2,1.2,1.8,310,22085500,00,,7,37,,2,B,4,0,0,4,9,0,0,0,0,0,,16,1*07
,$PSGSA,4,01,03,,,,,,,,,,,2.2,1.2,1.8,310,22085500,00,,7,37,,2,B,4,0,0,4,9,0,0,0,0,0,,16,5*06
,$GPGGA,220856.00,3653.4952,S,17454.6102,E,1,08,1.2,24.7,M,28.3,M,,*46
,$GNGLL,3653.4952,S,17454.6102,E,220856.00,A,A*6E
,$GNGSA,A,3,10,12,23,25,31,32,,,,,,,2.2,1.2,1.8,1*3C
,$GNGSA,A,3,01,03,,,,,,,,,,,2.2,1.2,1.8,5*3D
,$GPGSV,3,1,11,01,13,218,18,08,02,277,,10,60,083,38,12,13,108,23,0*60
,$GPGSV,3,2,11,21,29,234,22,22,08,232,19,23,29,065,34,24,07,138,10,0*6E
,$GPGSV,3,3,11,25,18,073,24,31,34,342,38,32,69,188,41,,,,,0*58
,$GQGSV,1,1,03,01,45,261,17,03,26,319,25,07,24,298,08,,,,,0*55
,$GNRMC,220856.00,A,3653.4952,S,17454.6102,E,0.6,165.5,150621,,,A,V*23
,$GNVTG,165.5,T,,M,0.6,N,1.2,K,A*11
,$GNZDA,220856.00,15,06,2021,,*70
,$PSGSA,4,10,12,23,25,31,32,,,,,,,2.2,1.2,1.8,311,22085600,00,,7,37,,2,B,4,0,0,4,9,0,0,0,0,0,,16,1*05
,$PSGSA,4,03,,,,,,,,,,,,2.2,1.2,1.8,311,22085600,00,,7,37,,2,B,4,0,0,4,9,0,0,0,0,0,,16,5*05
,$GPGGA,220857.00,3653.4953,S,17454.6103,E,1,08,1.2,24.9,M,28.3,M,,*49
,$GNGLL,3653.4953,S,17454.6103,E,220857.00,A,A*6F
,$GNGSA,A,3,10,12,23,25,31,32,,,,,,,2.2,1.2,1.8,1*3C
,$GNGSA,A,3,01,03,,,,,,,,,,,2.2,1.2,1.8,5*3D
,$GPGSV,3,1,11,01,13,218,21,08,02,277,,10,60,083,39,12,13,108,20,0*68
,$GPGSV,3,2,11,21,29,234,20,22,08,232,19,23,29,065,31,24,07,138,11,0*68
,$GPGSV,3,3,11,25,18,073,21,31,34,342,38,32,69,188,42,,,,,0*5E
,$GQGSV,1,1,03,01,45,261,18,03,26,319,24,07,24,298,13,,,,,0*51
,$GNRMC,220857.00,A,3653.4953,S,17454.6103,E,0.7,167.6,150621,,,A,V*22
,$GNVTG,167.6,T,,M,0.7,N,1.2,K,A*11
,$GNZDA,220857.00,15,06,2021,,*71
,$PSGSA,4,10,12,23,25,31,32,,,,,,,2.2,1.2,1.8,312,22085700,00,,7,37,,2,B,4,0,0,4,9,0,0,0,0,0,,16,1*07
,$PSGSA,4,03,,,,,,,,,,,,2.2,1.2,1.8,312,22085700,00,,7,37,,2,B,4,0,0,4,9,0,0,0,0,0,,16,5*07
,$GPGGA,220858.00,3653.4955,S,17454.6104,E,1,08,1.2,24.5,M,28.3,M,,*4B
,$GNGLL,3653.4955,S,17454.6104,E,220858.00,A,A*61
,$GNGSA,A,3,10,12,23,25,31,32,,,,,,,2.2,1.2,1.8,1*3C
,$GNGSA,A,3,01,03,,,,,,,,,,,2.2,1.2,1.8,5*3D
,$GPGSV,3,1,11,01,13,218,21,08,02,277,,10,60,083,40,12,13,108,21,0*67
,$GPGSV,3,2,11,21,29,234,17,22,08,232,16,23,29,065,33,24,07,138,06,0*67
,$GPGSV,3,3,11,25,18,073,29,31,34,342,37,32,69,188,40,,,,,0*5B
,$GQGSV,1,1,03,01,45,261,20,03,26,319,20,07,24,298,14,,,,,0*59
,$GNRMC,220858.00,A,3653.4955,S,17454.6104,E,0.7,162.1,150621,,,A,V*2E
,$GNVTG,162.1,T,,M,0.7,N,1.2,K,A*13
,$GNZDA,220858.00,15,06,2021,,*7E
,$PSGSA,4,10,12,23,25,31,32,,,,,,,2.2,1.2,1.8,311,22085800,00,,7,37,,2,B,4,0,0,4,9,0,0,0,0,0,,16,1*0B
,$PSGSA,4,01,03,,,,,,,,,,,2.2,1.2,1.8,311,22085800,00,,7,37,,2,B,4,0,0,4,9,0,0,0,0,0,,16,5*0A
,$GPGGA,220859.00,3653.4956,S,17454.6105,E,1,08,1.2,24.5,M,28.3,M,,*48
,$GNGLL,3653.4956,S,17454.6105,E,220859.00,A,A*62
,$GNGSA,A,3,10,12,23,25,31,32,,,,,,,2.2,1.2,1.8,1*3C
,$GNGSA,A,3,01,03,,,,,,,,,,,2.2,1.2,1.8,5*3D
,$GPGSV,3,1,11,01,13,218,19,08,02,277,,10,60,083,41,12,13,108,23,0*6F
,$GPGSV,3,2,11,21,29,234,17,22,08,232,14,23,29,065,31,24,07,138,10,0*60
,$GPGSV,3,3,11,25,18,073,28,31,34,342,31,32,69,188,40,,,,,0*5C
,$GQGSV,1,1,03,01,45,261,15,03,26,319,20,07,24,298,03,,,,,0*59
,$GNRMC,220859.00,A,3653.4956,S,17454.6105,E,0.7,162.1,150621,,,A,V*2D
,$GNVTG,162.1,T,,M,0.7,N,1.2,K,A*13
,$GNZDA,220859.00,15,06,2021,,*7F
,$PSGSA,4,10,12,23,25,31,32,,,,,,,2.2,1.2,1.8,311,22085900,00,,7,35,,2,B,4,0,0,4,9,0,0,0,0,0,,16,1*08
,$PSGSA,4,,,,,,,,,,,,,2.2,1.2,1.8,311,22085900,00,,7,35,,2,B,4,0,0,4,9,0,0,0,0,0,,16,5*0B
,$GPGGA,220900.00,3653.4958,S,17454.6106,E,1,08,1.2,24.4,M,28.3,M,,*49
,$GNGLL,3653.4958,S,17454.6106,E,220900.00,A,A*62
,$GNGSA,A,3,10,12,23,25,31,32,,,,,,,2.2,1.2,1.8,1*3C
,$GNGSA,A,3,01,03,,,,,,,,,,,2.2,1.2,1.8,5*3D
,$GPGSV,3,1,11,01,13,218,19,08,02,277,,10,60,083,43,12,13,108,23,0*6D
,$GPGSV,3,2,11,21,29,234,18,22,08,232,17,23,29,065,34,24,07,138,00,0*68
,$GPGSV,3,3,11,25,18,073,31,31,34,342,33,32,69,188,39,,,,,0*58
,$GQGSV,1,1,03,01,45,261,20,03,26,319,18,07,24,298,00,,,,,0*57
,$GNRMC,220900.00,A,3653.4958,S,17454.6106,E,0.6,162.1,150621,,,A,V*2C
,$GNVTG,162.1,T,,M,0.6,N,1.2,K,A*12
,$GNZDA,220900.00,15,06,2021,,*72
,$PSGSA,4,10,12,23,25,31,32,,,,,,,2.2,1.2,1.8,312,22090000,00,,7,37,,2,B,4,0,0,4,9,0,0,0,0,0,,0,1*33
,$PSGSA,4,01,03,,,,,,,,,,,2.2,1.2,1.8,312,22090000,00,,7,37,,2,B,4,0,0,4,9,0,0,0,0,0,,0,5*32
,$GPGGA,220901.00,3653.4958,S,17454.6107,E,1,08,1.2,24.5,M,28.3,M,,*48
,$GNGLL,3653.4958,S,17454.6107,E,220901.00,A,A*62
,$GNGSA,A,3,10,12,23,25,31,32,,,,,,,2.2,1.2,1.8,1*3C
,$GNGSA,A,3,01,03,,,,,,,,,,,2.2,1.2,1.8,5*3D
,$GPGSV,3,1,11,01,13,218,24,08,02,277,,10,60,083,43,12,13,108,22,0*62
,$GPGSV,3,2,11,21,29,234,21,22,08,232,21,23,29,065,34,24,07,138,00,0*67
,$GPGSV,3,3,11,25,18,073,31,31,34,342,33,32,69,187,39,,,,,0*57
,$GQGSV,1,1,03,01,45,261,22,03,26,319,24,07,24,298,06,,,,,0*5C
,$GNRMC,220901.00,A,3653.4958,S,17454.6107,E,0.6,162.1,150621,,,A,V*2C
,$GNVTG,162.1,T,,M,0.6,N,1.1,K,A*11
,$GNZDA,220901.00,15,06,2021,,*73
,$PSGSA,4,10,12,23,25,31,32,,,,,,,2.2,1.2,1.8,312,22090100,00,,7,37,,2,B,4,0,0,4,9,0,0,0,0,0,,0,1*32
,$PSGSA,4,01,03,,,,,,,,,,,2.2,1.2,1.8,312,22090100,00,,7,37,,2,B,4,0,0,4,9,0,0,0,0,0,,0,5*33
,$GPGGA,220902.00,3653.4958,S,17454.6107,E,1,08,1.2,25.2,M,28.3,M,,*4D
,$GNGLL,3653.4958,S,17454.6107,E,220902.00,A,A*61
,$GNGSA,A,3,10,12,23,25,31,32,,,,,,,2.2,1.2,1.8,1*3C
,$GNGSA,A,3,01,03,,,,,,,,,,,2.2,1.2,1.8,5*3D
,$GPGSV,3,1,11,01,13,218,20,08,02,277,,10,60,083,43,12,13,108,23,0*67
,$GPGSV,3,2,11,21,29,234,21,22,08,232,19,23,29,065,32,24,07,138,11,0*6A
,$GPGSV,3,3,11,25,18,073,32,31,34,342,34,32,69,187,39,,,,,0*53
,$GQGSV,1,1,03,01,45,261,22,03,26,319,23,07,24,298,09,,,,,0*54
,$GNRMC,220902.00,A,3653.4958,S,17454.6107,E,0.5,162.1,150621,,,A,V*2C
,$GNVTG,162.1,T,,M,0.5,N,0.9,K,A*1B
,$GNZDA,220902.00,15,06,2021,,*70
,$PSGSA,4,10,12,23,25,31,32,,,,,,,2.2,1.2,1.8,311,22090200,00,,7,37,,2,B,4,0,0,4,9,0,0,0,0,0,,0,1*32
,$PSGSA,4,01,03,,,,,,,,,,,2.2,1.2,1.8,311,22090200,00,,7,37,,2,B,4,0,0,4,9,0,0,0,0,0,,0,5*33
,$GPGGA,220903.00,3653.4958,S,17454.6108,E,1,08,1.2,25.5,M,28.3,M,,*44
,$GNGLL,3653.4958,S,17454.6108,E,220903.00,A,A*6F
,$GNGSA,A,3,10,12,23,25,31,32,,,,,,,2.2,1.2,1.8,1*3C
,$GNGSA,A,3,01,03,,,,,,,,,,,2.2,1.2,1.8,5*3D
,$GPGSV,3,1,11,01,13,218,20,08,02,277,,10,60,083,43,12,13,108,25,0*61
,$GPGSV,3,2,11,21,29,234,24,22,08,232,14,23,29,065,30,24,07,138,13,0*62
,$GPGSV,3,3,11,25,18,073,27,31,34,342,35,32,69,187,39,,,,,0*56
,$GQGSV,1,1,03,01,45,261,27,03,26,319,21,07,24,298,11,,,,,0*5A
,$GNRMC,220903.00,A,3653.4958,S,17454.6108,E,0.5,104.8,150621,,,A,V*2B
,$GNVTG,104.8,T,,M,0.5,N,0.9,K,A*12
,$GNZDA,220903.00,15,06,2021,,*71
,$PSGSA,4,10,12,23,25,31,32,,,,,,,2.2,1.2,1.8,311,22090300,00,,7,36,,2,B,4,0,0,4,9,0,0,0,0,0,,0,1*32
,$PSGSA,4,01,03,,,,,,,,,,,2.2,1.2,1.8,311,22090300,00,,7,36,,2,B,4,0,0,4,9,0,0,0,0,0,,0,5*33
,$GPGGA,220904.00,3653.4959,S,17454.6110,E,1,08,1.2,25.6,M,28.3,M,,*48
,$GNGLL,3653.4959,S,17454.6110,E,220904.00,A,A*60
,$GNGSA,A,3,10,12,23,25,31,32,,,,,,,2.2,1.2,1.8,1*3C
,$GNGSA,A,3,01,03,,,,,,,,,,,2.2,1.2,1.8,5*3D
,$GPGSV,3,1,11,01,13,218,21,08,02,277,,10,60,083,42,12,13,108,24,0*60
,$GPGSV,3,2,11,21,29,234,22,22,08,232,13,23,29,065,29,24,07,138,00,0*69
,$GPGSV,3,3,11,25,18,073,21,31,34,342,35,32,69,187,39,,,,,0*50
,$GQGSV,1,1,03,01,45,261,29,03,26,319,27,07,24,298,15,,,,,0*56
,$GNRMC,220904.00,A,3653.4959,S,17454.6110,E,0.5,92.5,150621,,,A,V*17
,$GNVTG,92.5,T,,M,0.5,N,1.0,K,A*29
,$GNZDA,220904.00,15,06,2021,,*76
,$PSGSA,4,10,12,23,25,31,32,,,,,,,2.2,1.2,1.8,310,22090400,00,,7,36,,2,B,4,0,0,4,9,0,0,0,0,0,,0,1*34
,$PSGSA,4,01,03,,,,,,,,,,,2.2,1.2,1.8,310,22090400,00,,7,36,,2,B,4,0,0,4,9,0,0,0,0,0,,0,5*35
,$GPGGA,220905.00,3653.4957,S,17454.6111,E,1,08,1.2,25.7,M,28.3,M,,*47
,$GNGLL,3653.4957,S,17454.6111,E,220905.00,A,A*6E
,$GNGSA,A,3,10,12,23,25,31,32,,,,,,,2.2,1.2,1.8,1*3C
,$GNGSA,A,3,01,03,,,,,,,,,,,2.2,1.2,1.8,5*3D
,$GPGSV,3,1,11,01,13,218,20,08,02,277,,10,60,082,39,12,13,108,26,0*6E
,$GPGSV,3,2,11,21,29,234,24,22,08,232,09,23,29,065,28,24,07,138,00,0*65
,$GPGSV,3,3,11,25,18,073,25,31,34,342,36,32,69,187,40,,,,,0*59
,$GQGSV,1,1,03,01,45,261,32,03,26,319,28,07,24,298,15,,,,,0*53
,$GNRMC,220905.00,A,3653.4957,S,17454.6111,E,0.5,69.3,150621,,,A,V*1B
,$GNVTG,69.3,T,,M,0.5,N,1.0,K,A*2B
,$GNZDA,220905.00,15,06,2021,,*77
,$PSGSA,4,10,12,23,25,31,32,,,,,,,2.2,1.2,1.8,310,22090500,00,,7,36,,2,B,4,0,0,4,9,0,0,0,0,0,,0,1*35
,$PSGSA,4,01,03,,,,,,,,,,,2.2,1.2,1.8,310,22090500,00,,7,36,,2,B,4,0,0,4,9,0,0,0,0,0,,0,5*34
,$GPGGA,220906.00,3653.4957,S,17454.6112,E,1,08,1.2,25.5,M,28.3,M,,*45
,$GNGLL,3653.4957,S,17454.6112,E,220906.00,A,A*6E
,$GNGSA,A,3,10,12,23,25,31,32,,,,,,,2.2,1.2,1.8,1*3C
,$GNGSA,A,3,01,03,,,,,,,,,,,2.2,1.2,1.8,5*3D
,$GPGSV,3,1,11,01,13,218,21,08,02,277,,10,60,082,38,12,13,108,27,0*6F
,$GPGSV,3,2,11,21,29,234,23,22,08,232,12,23,29,065,31,24,07,138,00,0*60
,$GPGSV,3,3,11,25,18,073,24,31,34,342,35,32,69,187,40,,,,,0*5B
,$GQGSV,1,1,03,01,45,261,34,03,26,319,30,07,24,298,14,,,,,0*5D
,$GNRMC,220906.00,A,3653.4957,S,17454.6112,E,0.5,73.7,150621,,,A,V*14
,$GNVTG,73.7,T,,M,0.5,N,1.0,K,A*24
,$GNZDA,220906.00,15,06,2021,,*74
,$PSGSA,4,10,12,23,25,31,32,,,,,,,2.2,1.2,1.8,310,22090600,00,,7,36,,2,B,4,0,0,4,9,0,0,0,0,0,,0,1*36
,$PSGSA,4,01,03,,,,,,,,,,,2.2,1.2,1.8,310,22090600,00,,7,36,,2,B,4,0,0,4,9,0,0,0,0,0,,0,5*37
,$GPGGA,220907.00,3653.4957,S,17454.6112,E,1,08,1.2,26.0,M,28.3,M,,*42
,$GNGLL,3653.4957,S,17454.6112,E,220907.00,A,A*6F
,$GNGSA,A,3,10,12,23,25,31,32,,,,,,,2.2,1.2,1.8,1*3C
,$GNGSA,A,3,01,03,,,,,,,,,,,2.2,1.2,1.8,5*3D
,$GPGSV,3,1,11,01,13,218,21,08,02,277,,10,60,082,36,12,13,108,24,0*62
,$GPGSV,3,2,11,21,29,234,27,22,08,232,16,23,29,065,25,24,07,138,07,0*62
,$GPGSV,3,3,11,25,18,073,23,31,34,342,37,32,69,187,40,,,,,0*5E
,$GQGSV,1,1,03,01,45,261,36,03,26,319,30,07,24,298,12,,,,,0*59
,$GNRMC,220907.00,A,3653.4957,S,17454.6112,E,0.5,51.3,150621,,,A,V*11
,$GNVTG,51.3,T,,M,0.5,N,1.0,K,A*20
,$GNZDA,220907.00,15,06,2021,,*75
,$PSGSA,4,10,12,23,25,31,32,,,,,,,2.2,1.2,1.8,309,22090700,00,,7,37,,2,B,4,0,0,4,9,0,0,0,0,0,,0,1*3E
,$PSGSA,4,01,03,,,,,,,,,,,2.2,1.2,1.8,309,22090700,00,,7,37,,2,B,4,0,0,4,9,0,0,0,0,0,,0,5*3F
,$GPGGA,220908.00,3653.4956,S,17454.6112,E,1,08,1.2,26.2,M,28.3,M,,*4E
,$GNGLL,3653.4956,S,17454.6112,E,220908.00,A,A*61
,$GNGSA,A,3,10,12,23,25,31,32,,,,,,,2.2,1.2,1.8,1*3C
,$GNGSA,A,3,01,03,,,,,,,,,,,2.2,1.2,1.8,5*3D
,$GPGSV,3,1,11,01,13,218,21,08,02,277,,10,60,082,32,12,13,108,25,0*67
,$GPGSV,3,2,11,21,29,234,30,22,08,232,10,23,29,065,24,24,07,138,06,0*62
,$GPGSV,3,3,11,25,18,073,26,31,34,342,38,32,69,187,40,,,,,0*54
,$GQGSV,1,1,03,01,45,261,36,03,26,319,30,07,24,298,13,,,,,0*58
,$GNRMC,220908.00,A,3653.4956,S,17454.6112,E,0.5,47.1,150621,,,A,V*1A
,$GNVTG,47.1,T,,M,0.5,N,1.0,K,A*25
,$GNZDA,220908.00,15,06,2021,,*7A
,$PSGSA,4,10,12,23,25,31,32,,,,,,,2.2,1.2,1.8,309,22090800,00,,7,36,,2,B,4,0,0,4,9,0,0,0,0,0,,0,1*30
,$PSGSA,4,01,03,,,,,,,,,,,2.2,1.2,1.8,309,22090800,00,,7,36,,2,B,4,0,0,4,9,0,0,0,0,0,,0,5*31
,$GPGGA,220909.00,3653.4955,S,17454.6114,E,1,08,1.2,26.3,M,28.3,M,,*4B
,$GNGLL,3653.4955,S,17454.6114,E,220909.00,A,A*65
,$GNGSA,A,3,10,12,23,25,31,32,,,,,,,2.2,1.2,1.8,1*3C
,$GNGSA,A,3,01,03,,,,,,,,,,,2.2,1.2,1.8,5*3D
,$GPGSV,3,1,11,01,13,218,24,08,02,277,,10,60,082,24,12,13,108,18,0*6B
,$GPGSV,3,2,11,21,29,234,32,22,08,232,00,23,29,065,25,24,07,138,00,0*66
,$GPGSV,3,3,11,25,18,073,27,31,34,342,36,32,69,187,40,,,,,0*5B
,$GQGSV,1,1,03,01,45,261,35,03,26,319,29,07,24,298,13,,,,,0*53
,$GNRMC,220909.00,A,3653.4955,S,17454.6114,E,0.6,47.1,150621,,,A,V*1D
,$GNVTG,47.1,T,,M,0.6,N,1.1,K,A*27
,$GNZDA,220909.00,15,06,2021,,*7B
,$PSGSA,4,10,23,25,31,32,,,,,,,,2.2,1.2,1.8,309,22090900,00,,7,35,,2,B,4,0,0,3,9,1,0,0,0,0,,16,1*00
,$PSGSA,4,01,03,,,,,,,,,,,2.2,1.2,1.8,309,22090900,00,,7,35,,2,B,4,0,0,3,9,1,0,0,0,0,,16,5*02
,$GPGGA,220910.00,3653.4954,S,17454.6114,E,1,08,1.2,26.0,M,28.3,M,,*41
,$GNGLL,3653.4954,S,17454.6114,E,220910.00,A,A*6C
,$GNGSA,A,3,10,12,23,25,31,32,,,,,,,2.2,1.2,1.8,1*3C
,$GNGSA,A,3,01,03,,,,,,,,,,,2.2,1.2,1.8,5*3D
,$GPGSV,3,1,11,01,13,218,24,08,02,277,,10,60,082,26,12,13,108,20,0*62
,$GPGSV,3,2,11,21,29,234,32,22,08,232,17,23,29,065,27,24,07,138,06,0*64
,$GPGSV,3,3,11,25,18,073,28,31,34,342,38,32,69,187,40,,,,,0*5A
,$GQGSV,1,1,03,01,45,261,36,03,26,319,34,07,24,298,18,,,,,0*57
,$GNRMC,220910.00,A,3653.4954,S,17454.6114,E,0.6,40.4,150621,,,A,V*16
,$GNVTG,40.4,T,,M,0.6,N,1.1,K,A*25
,$GNZDA,220910.00,15,06,2021,,*73
,$PSGSA,4,10,12,23,25,31,32,,,,,,,2.2,1.2,1.8,309,22091000,00,,7,37,,2,B,4,0,0,4,9,0,0,0,0,0,,16,1*0F
,$PSGSA,4,01,03,,,,,,,,,,,2.2,1.2,1.8,309,22091000,00,,7,37,,2,B,4,0,0,4,9,0,0,0,0,0,,16,5*0E
,$GPGGA,220911.00,3653.4952,S,17454.6117,E,1,08,1.2,25.9,M,28.3,M,,*4F
,$GNGLL,3653.4952,S,17454.6117,E,220911.00,A,A*68
,$GNGSA,A,3,10,12,23,25,31,32,,,,,,,2.2,1.2,1.8,1*3C
,$GNGSA,A,3,01,03,,,,,,,,,,,2.2,1.2,1.8,5*3D
,$GPGSV,3,1,11,01,13,218,20,08,02,277,,10,60,082,33,12,13,108,17,0*66
,$GPGSV,3,2,11,21,29,234,34,22,08,232,15,23,29,065,25,24,07,138,00,0*64
,$GPGSV,3,3,11,25,18,073,26,31,34,342,34,32,69,187,40,,,,,0*58
,$GQGSV,1,1,03,01,45,261,32,03,26,319,31,07,24,298,15,,,,,0*5B
,$GNRMC,220911.00,A,3653.4952,S,17454.6117,E,0.6,34.2,150621,,,A,V*17
,$GNVTG,34.2,T,,M,0.6,N,1.1,K,A*20
,$GNZDA,220911.00,15,06,2021,,*72
