,$GPGGA,000003.03,3653.4881,S,17454.6037,E,0,00,5.4,41.4,M,28.3,M,,*4E
,$GNGLL,3653.4881,S,17454.6037,E,000003.03,V,N*75
,$GNGSA,A,1,,,,,,,,,,,,,5.5,5.4,1.0,*02
,$GNRMC,000003.03,V,3653.4881,S,17454.6037,E,,,060180,,,N,V*37
,$GNVTG,,T,,M,,N,,K,N*32
,$GNZDA,000003.03,06,01,1980,,*7F
,$PSGSA,1,,,,,,,,,,,,,5.5,5.4,1.0,946,00000303,,,0,00,3,0,B,,0,0,0,0,0,0,0,0,0,,0,1*32
,$GPGGA,000004.00,3653.4881,S,17454.6037,E,0,00,5.4,41.4,M,28.3,M,,*4A
,$GNGLL,3653.4881,S,17454.6037,E,000004.00,V,N*71
,$GNGSA,A,1,,,,,,,,,,,,,5.5,5.4,1.0,*02
,$GNRMC,000004.00,V,3653.4881,S,17454.6037,E,,,060180,,,N,V*33
,$GNVTG,,T,,M,,N,,K,N*32
,$GNZDA,000004.00,06,01,1980,,*7B
,$PSGSA,1,,,,,,,,,,,,,5.5,5.4,1.0,946,00000400,,,0,00,3,0,B,,0,0,0,0,0,0,0,0,0,,0,1*36
,$GPGGA,000005.00,3653.4881,S,17454.6037,E,0,00,5.4,41.4,M,28.3,M,,*4B
,$GNGLL,3653.4881,S,17454.6037,E,000005.00,V,N*70
,$GNGSA,A,1,,,,,,,,,,,,,5.5,5.4,1.0,*02
,$GNRMC,000005.00,V,3653.4881,S,17454.6037,E,,,060180,,,N,V*32
,$GNVTG,,T,,M,,N,,K,N*32
,$GNZDA,000005.00,06,01,1980,,*7A
,$PSGSA,1,,,,,,,,,,,,,5.5,5.4,1.0,946,00000500,,,0,00,3,0,B,,0,0,0,0,0,0,0,0,0,,0,1*37
,$GPGGA,000006.00,3653.4881,S,17454.6037,E,0,00,5.4,41.4,M,28.3,M,,*48
,$GNGLL,3653.4881,S,17454.6037,E,000006.00,V,N*73
,$GNGSA,A,1,,,,,,,,,,,,,5.5,5.4,1.0,*02
,$GNRMC,000006.00,V,3653.4881,S,17454.6037,E,,,060180,,,N,V*31
,$GNVTG,,T,,M,,N,,K,N*32
,$GNZDA,000006.00,06,01,1980,,*79
,$PSGSA,1,,,,,,,,,,,,,5.5,5.4,1.0,946,00000600,,,0,00,3,0,B,,0,0,0,0,0,0,0,0,0,,0,1*34
,$GPGGA,000007.00,3653.4881,S,17454.6037,E,0,00,5.4,41.4,M,28.3,M,,*49
,$GNGLL,3653.4881,S,17454.6037,E,000007.00,V,N*72
,$GNGSA,A,1,,,,,,,,,,,,,5.5,5.4,1.0,*02
,$GNRMC,000007.00,V,3653.4881,S,17454.6037,E,,,060180,,,N,V*30
,$GNVTG,,T,,M,,N,,K,N*32
,$GNZDA,000007.00,06,01,1980,,*78
,$PSGSA,1,,,,,,,,,,,,,5.5,5.4,1.0,946,00000700,,,0,00,3,0,B,,0,0,0,0,0,0,0,0,0,,0,1*35
,$GPGGA,000008.00,3653.4881,S,17454.6037,E,0,00,5.4,41.4,M,28.3,M,,*46
,$GNGLL,3653.4881,S,17454.6037,E,000008.00,V,N*7D
,$GNGSA,A,1,,,,,,,,,,,,,5.5,5.4,1.0,*02
,$GNRMC,000008.00,V,3653.4881,S,17454.6037,E,,,060180,,,N,V*3F
,$GNVTG,,T,,M,,N,,K,N*32
,$GNZDA,000008.00,06,01,1980,,*77
,$PSGSA,1,,,,,,,,,,,,,5.5,5.4,1.0,946,00000800,,,0,00,3,0,B,,0,0,0,0,0,0,0,0,0,,0,1*3A
,$GPGGA,000009.00,3653.4881,S,17454.6037,E,0,00,5.4,41.4,M,28.3,M,,*47
,$GNGLL,3653.4881,S,17454.6037,E,000009.00,V,N*7C
,$GNGSA,A,1,,,,,,,,,,,,,5.5,5.4,1.0,*02
,$GNRMC,000009.00,V,3653.4881,S,17454.6037,E,,,060180,,,N,V*3E
,$GNVTG,,T,,M,,N,,K,N*32
,$GNZDA,000009.00,06,01,1980,,*76
,$PSGSA,1,,,,,,,,,,,,,5.5,5.4,1.0,946,00000900,,,0,00,3,0,B,,0,0,0,0,0,0,0,0,0,,0,1*3B
,$GPGGA,000010.00,3653.4881,S,17454.6037,E,0,00,5.4,41.4,M,28.3,M,,*4F
,$GNGLL,3653.4881,S,17454.6037,E,000010.00,V,N*74
,$GNGSA,A,1,,,,,,,,,,,,,5.5,5.4,1.0,*02
,$GNRMC,000010.00,V,3653.4881,S,17454.6037,E,,,060180,,,N,V*36
,$GNVTG,,T,,M,,N,,K,N*32
,$GNZDA,000010.00,06,01,1980,,*7E
,$PSGSA,1,,,,,,,,,,,,,5.5,5.4,1.0,946,00001000,,,0,00,3,0,B,,0,0,0,0,0,0,0,0,0,,0,1*33
,$GPGGA,000011.00,3653.4881,S,17454.6037,E,0,00,5.4,41.4,M,28.3,M,,*4E
,$GNGLL,3653.4881,S,17454.6037,E,000011.00,V,N*75
,$GNGSA,A,1,,,,,,,,,,,,,5.5,5.4,1.0,*02
,$GNRMC,000011.00,V,3653.4881,S,17454.6037,E,,,060180,,,N,V*37
,$GNVTG,,T,,M,,N,,K,N*32
,$GNZDA,000011.00,06,01,1980,,*7F
,$PSGSA,1,,,,,,,,,,,,,5.5,5.4,1.0,946,00001100,,,0,00,3,0,B,,0,0,0,0,0,0,0,0,0,,0,1*32
,$GPGGA,000012.00,3653.4881,S,17454.6037,E,0,00,5.4,41.4,M,28.3,M,,*4D
,$GNGLL,3653.4881,S,17454.6037,E,000012.00,V,N*76
,$GNGSA,A,1,,,,,,,,,,,,,5.5,5.4,1.0,*02
,$GNRMC,000012.00,V,3653.4881,S,17454.6037,E,,,060180,,,N,V*34
,$GNVTG,,T,,M,,N,,K,N*32
,$GNZDA,000012.00,06,01,1980,,*7C
,$PSGSA,1,,,,,,,,,,,,,5.5,5.4,1.0,946,00001200,,,0,00,3,0,B,,0,0,0,0,0,0,0,0,0,,0,1*31
,$GPGGA,000013.00,3653.4881,S,17454.6037,E,0,00,5.4,41.4,M,28.3,M,,*4C
,$GNGLL,3653.4881,S,17454.6037,E,000013.00,V,N*77
,$GNGSA,A,1,,,,,,,,,,,,,5.5,5.4,1.0,*02
,$GNRMC,000013.00,V,3653.4881,S,17454.6037,E,,,060180,,,N,V*35
,$GNVTG,,T,,M,,N,,K,N*32
,$GNZDA,000013.00,06,01,1980,,*7D
,$PSGSA,1,,,,,,,,,,,,,5.5,5.4,1.0,946,00001300,,,0,00,3,0,B,,0,0,0,0,0,0,0,0,0,,0,1*30
,$GPGGA,000014.00,3653.4881,S,17454.6037,E,0,00,5.4,41.4,M,28.3,M,,*4B
,$GNGLL,3653.4881,S,17454.6037,E,000014.00,V,N*70
,$GNGSA,A,1,,,,,,,,,,,,,5.5,5.4,1.0,*02
,$GPGSV,1,1,01,12,,,00,,,,,,,,,,,,,0*67
,$GNRMC,000014.00,V,3653.4881,S,17454.6037,E,,,060180,,,N,V*32
,$GNVTG,,T,,M,,N,,K,N*32
,$GNZDA,000014.00,06,01,1980,,*7A
,$PSGSA,1,,,,,,,,,,,,,5.5,5.4,1.0,946,00001400,,,0,00,3,0,B,,0,0,1,0,0,0,0,0,0,,0,1*36
,$GPGGA,000015.00,3653.4881,S,17454.6037,E,0,00,5.4,41.4,M,28.3,M,,*4A
,$GNGLL,3653.4881,S,17454.6037,E,000015.00,V,N*71
,$GNGSA,A,1,,,,,,,,,,,,,5.5,5.4,1.0,*02
,$GPGSV,1,1,01,12,,,00,,,,,,,,,,,,,0*67
,$GNRMC,000015.00,V,3653.4881,S,17454.6037,E,,,060180,,,N,V*33
,$GNVTG,,T,,M,,N,,K,N*32
,$GNZDA,000015.00,06,01,1980,,*7B
,$PSGSA,1,,,,,,,,,,,,,5.5,5.4,1.0,946,00001500,,,0,00,3,0,B,,0,0,1,0,0,0,0,0,0,,0,1*37
,$GPGGA,000016.00,3653.4881,S,17454.6037,E,0,00,5.4,41.4,M,28.3,M,,*49
,$GNGLL,3653.4881,S,17454.6037,E,000016.00,V,N*72
,$GNGSA,A,1,,,,,,,,,,,,,5.5,5.4,1.0,*02
,$GPGSV,1,1,01,12,,,00,,,,,,,,,,,,,0*67
,$GNRMC,000016.00,V,3653.4881,S,17454.6037,E,,,060180,,,N,V*30
,$GNVTG,,T,,M,,N,,K,N*32
,$GNZDA,000016.00,06,01,1980,,*78
,$PSGSA,1,,,,,,,,,,,,,5.5,5.4,1.0,946,00001600,,,0,00,3,0,B,,0,0,1,0,0,0,0,0,0,,0,1*34
,$GPGGA,000017.00,3653.4881,S,17454.6037,E,0,00,5.4,41.4,M,28.3,M,,*48
,$GNGLL,3653.4881,S,17454.6037,E,000017.00,V,N*73
,$GNGSA,A,1,,,,,,,,,,,,,5.5,5.4,1.0,*02
,$GPGSV,1,1,01,21,,,16,,,,,,,,,,,,,0*60
,$GNRMC,000017.00,V,3653.4881,S,17454.6037,E,,,060180,,,N,V*31
,$GNVTG,,T,,M,,N,,K,N*32
,$GNZDA,000017.00,06,01,1980,,*79
,$PSGSA,1,,,,,,,,,,,,,5.5,5.4,1.0,946,00001700,,,0,04,3,0,B,,0,0,1,0,0,0,0,0,0,,0,1*31
,$GPGGA,000018.00,3653.4881,S,17454.6037,E,0,00,5.4,41.4,M,28.3,M,,*47
,$GNGLL,3653.4881,S,17454.6037,E,000018.00,V,N*7C
,$GNGSA,A,1,,,,,,,,,,,,,5.5,5.4,1.0,*02
,$GPGSV,1,1,01,21,,,13,,,,,,,,,,,,,0*65
,$GNRMC,000018.00,V,3653.4881,S,17454.6037,E,,,060180,,,N,V*3E
,$GNVTG,,T,,M,,N,,K,N*32
,$GNZDA,000018.00,06,01,1980,,*76
,$PSGSA,1,,,,,,,,,,,,,5.5,5.4,1.0,946,00001800,,,0,03,3,0,B,,0,0,1,0,0,0,0,0,0,,0,1*39
,$GPGGA,000019.00,3653.4881,S,17454.6037,E,0,00,5.4,41.4,M,28.3,M,,*46
,$GNGLL,3653.4881,S,17454.6037,E,000019.00,V,N*7D
,$GNGSA,A,1,,,,,,,,,,,,,5.5,5.4,1.0,*02
,$GPGSV,1,1,01,21,,,00,,,,,,,,,,,,,0*67
,$GNRMC,000019.00,V,3653.4881,S,17454.6037,E,,,060180,,,N,V*3F
,$GNVTG,,T,,M,,N,,K,N*32
,$GNZDA,000019.00,06,01,1980,,*77
,$PSGSA,1,,,,,,,,,,,,,5.5,5.4,1.0,946,00001900,,,0,00,3,0,B,,0,0,1,0,0,0,0,0,0,,0,1*3B
,$GPGGA,000020.00,3653.4881,S,17454.6037,E,0,00,5.4,41.4,M,28.3,M,,*4C
,$GNGLL,3653.4881,S,17454.6037,E,000020.00,V,N*77
,$GNGSA,A,1,,,,,,,,,,,,,5.5,5.4,1.0,*02
,$GPGSV,1,1,01,21,,,00,,,,,,,,,,,,,0*67
,$GNRMC,000020.00,V,3653.4881,S,17454.6037,E,,,060180,,,N,V*35
,$GNVTG,,T,,M,,N,,K,N*32
,$GNZDA,000020.00,06,01,1980,,*7D
,$PSGSA,1,,,,,,,,,,,,,5.5,5.4,1.0,946,00002000,,,0,00,3,0,B,,0,0,1,0,0,0,0,0,0,,0,1*31
,$GPGGA,000021.00,3653.4881,S,17454.6037,E,0,00,5.4,41.4,M,28.3,M,,*4D
,$GNGLL,3653.4881,S,17454.6037,E,000021.00,V,N*76
,$GNGSA,A,1,,,,,,,,,,,,,5.5,5.4,1.0,*02
,$GPGSV,1,1,01,21,,,14,,,,,,,,,,,,,0*62
,$GNRMC,000021.00,V,3653.4881,S,17454.6037,E,,,060180,,,N,V*34
,$GNVTG,,T,,M,,N,,K,N*32
,$GNZDA,000021.00,06,01,1980,,*7C
,$PSGSA,1,,,,,,,,,,,,,5.5,5.4,1.0,946,00002100,,,0,03,3,0,B,,0,0,1,0,0,0,0,0,0,,0,1*33
,$GPGGA,000022.00,3653.4881,S,17454.6037,E,0,00,5.4,41.4,M,28.3,M,,*4E
,$GNGLL,3653.4881,S,17454.6037,E,000022.00,V,N*75
,$GNGSA,A,1,,,,,,,,,,,,,5.5,5.4,1.0,*02
,$GPGSV,1,1,01,21,,,08,,,,,,,,,,,,,0*6F
,$GNRMC,000022.00,V,3653.4881,S,17454.6037,E,,,060180,,,N,V*37
,$GNVTG,,T,,M,,N,,K,N*32
,$GNZDA,000022.00,06,01,1980,,*7F
,$PSGSA,1,,,,,,,,,,,,,5.5,5.4,1.0,946,00002200,,,0,02,3,0,B,,0,0,1,0,0,0,0,0,0,,0,1*31
,$GPGGA,000023.00,3653.4881,S,17454.6037,E,0,00,5.4,41.4,M,28.3,M,,*4F
,$GNGLL,3653.4881,S,17454.6037,E,000023.00,V,N*74
,$GNGSA,A,1,,,,,,,,,,,,,5.5,5.4,1.0,*02
,$GPGSV,1,1,01,21,,,00,,,,,,,,,,,,,0*67
,$GNRMC,000023.00,V,3653.4881,S,17454.6037,E,,,060180,,,N,V*36
,$GNVTG,,T,,M,,N,,K,N*32
,$GNZDA,000023.00,06,01,1980,,*7E
,$PSGSA,1,,,,,,,,,,,,,5.5,5.4,1.0,946,00002300,,,0,00,3,0,B,,0,0,1,0,0,0,0,0,0,,0,1*32
,$GPGGA,000024.00,3653.4881,S,17454.6037,E,0,00,5.4,41.4,M,28.3,M,,*48
,$GNGLL,3653.4881,S,17454.6037,E,000024.00,V,N*73
,$GNGSA,A,1,,,,,,,,,,,,,5.5,5.4,1.0,*02
,$GPGSV,1,1,01,30,,,00,,,,,,,,,,,,,0*67
,$GNRMC,000024.00,V,3653.4881,S,17454.6037,E,,,060180,,,N,V*31
,$GNVTG,,T,,M,,N,,K,N*32
,$GNZDA,000024.00,06,01,1980,,*79
,$PSGSA,1,,,,,,,,,,,,,5.5,5.4,1.0,946,00002400,,,0,00,3,0,B,,0,0,1,0,0,0,0,0,0,,0,1*35
,$GPGGA,000025.00,3653.4881,S,17454.6037,E,0,00,5.4,41.4,M,28.3,M,,*49
,$GNGLL,3653.4881,S,17454.6037,E,000025.00,V,N*72
,$GNGSA,A,1,,,,,,,,,,,,,5.5,5.4,1.0,*02
,$GPGSV,1,1,01,30,,,00,,,,,,,,,,,,,0*67
,$GNRMC,000025.00,V,3653.4881,S,17454.6037,E,,,060180,,,N,V*30
,$GNVTG,,T,,M,,N,,K,N*32
,$GNZDA,000025.00,06,01,1980,,*78
,$PSGSA,1,,,,,,,,,,,,,5.5,5.4,1.0,946,00002500,,,0,00,3,0,B,,0,0,1,0,0,0,0,0,0,,0,1*34
,$GPGGA,000026.00,3653.4881,S,17454.6037,E,0,00,5.4,41.4,M,28.3,M,,*4A
,$GNGLL,3653.4881,S,17454.6037,E,000026.00,V,N*71
,$GNGSA,A,1,,,,,,,,,,,,,5.5,5.4,1.0,*02
,$GNRMC,000026.00,V,3653.4881,S,17454.6037,E,,,060180,,,N,V*33
,$GNVTG,,T,,M,,N,,K,N*32
,$GNZDA,000026.00,06,01,1980,,*7B
,$PSGSA,1,,,,,,,,,,,,,5.5,5.4,1.0,946,00002600,,,0,00,3,0,B,,0,0,0,0,0,0,0,0,0,,0,1*36
,$GPGGA,000027.00,3653.4881,S,17454.6037,E,0,00,5.4,41.4,M,28.3,M,,*4B
,$GNGLL,3653.4881,S,17454.6037,E,000027.00,V,N*70
,$GNGSA,A,1,,,,,,,,,,,,,5.5,5.4,1.0,*02
,$GNRMC,000027.00,V,3653.4881,S,17454.6037,E,,,060180,,,N,V*32
,$GNVTG,,T,,M,,N,,K,N*32
,$GNZDA,000027.00,06,01,1980,,*7A
,$PSGSA,1,,,,,,,,,,,,,5.5,5.4,1.0,946,00002700,,,0,00,3,0,B,,0,0,0,0,0,0,0,0,0,,0,1*37
,$GPGGA,000028.00,3653.4881,S,17454.6037,E,0,00,5.4,41.4,M,28.3,M,,*44
,$GNGLL,3653.4881,S,17454.6037,E,000028.00,V,N*7F
,$GNGSA,A,1,,,,,,,,,,,,,5.5,5.4,1.0,*02
,$GNRMC,000028.00,V,3653.4881,S,17454.6037,E,,,060180,,,N,V*3D
,$GNVTG,,T,,M,,N,,K,N*32
,$GNZDA,000028.00,06,01,1980,,*75
,$PSGSA,1,,,,,,,,,,,,,5.5,5.4,1.0,946,00002800,,,0,00,3,0,B,,0,0,0,0,0,0,0,0,0,,0,1*38
,$GPGGA,000029.00,3653.4881,S,17454.6037,E,0,00,5.4,41.4,M,28.3,M,,*45
,$GNGLL,3653.4881,S,17454.6037,E,000029.00,V,N*7E
,$GNGSA,A,1,,,,,,,,,,,,,5.5,5.4,1.0,*02
,$GPGSV,1,1,01,31,,,00,,,,,,,,,,,,,0*66
,$GNRMC,000029.00,V,3653.4881,S,17454.6037,E,,,060180,,,N,V*3C
,$GNVTG,,T,,M,,N,,K,N*32
,$GNZDA,000029.00,06,01,1980,,*74
,$PSGSA,1,,,,,,,,,,,,,5.5,5.4,1.0,946,00002900,,,0,00,3,0,B,,0,0,1,0,0,0,0,0,0,,0,1*38
,$GPGGA,000030.00,3653.4881,S,17454.6037,E,0,00,5.4,41.4,M,28.3,M,,*4D
,$GNGLL,3653.4881,S,17454.6037,E,000030.00,V,N*76
,$GNGSA,A,1,,,,,,,,,,,,,5.5,5.4,1.0,*02
,$GPGSV,1,1,01,31,,,04,,,,,,,,,,,,,0*62
,$GNRMC,000030.00,V,3653.4881,S,17454.6037,E,,,060180,,,N,V*34
,$GNVTG,,T,,M,,N,,K,N*32
,$GNZDA,000030.00,06,01,1980,,*7C
,$PSGSA,1,,,,,,,,,,,,,5.5,5.4,1.0,946,00003000,,,0,01,3,0,B,,0,0,1,0,0,0,0,0,0,,0,1*31
,$GPGGA,000031.00,3653.4881,S,17454.6037,E,0,00,5.4,41.4,M,28.3,M,,*4C
,$GNGLL,3653.4881,S,17454.6037,E,000031.00,V,N*77
,$GNGSA,A,1,,,,,,,,,,,,,5.5,5.4,1.0,*02
,$GNRMC,000031.00,V,3653.4881,S,17454.6037,E,,,060180,,,N,V*35
,$GNVTG,,T,,M,,N,,K,N*32
,$GNZDA,000031.00,06,01,1980,,*7D
,$PSGSA,1,,,,,,,,,,,,,5.5,5.4,1.0,946,00003100,,,0,00,3,0,B,,0,0,0,0,0,0,0,0,0,,0,1*30
,$GPGGA,000032.00,3653.4881,S,17454.6037,E,0,00,5.4,41.4,M,28.3,M,,*4F
,$GNGLL,3653.4881,S,17454.6037,E,000032.00,V,N*74
,$GNGSA,A,1,,,,,,,,,,,,,5.5,5.4,1.0,*02
,$GNRMC,000032.00,V,3653.4881,S,17454.6037,E,,,060180,,,N,V*36
,$GNVTG,,T,,M,,N,,K,N*32
,$GNZDA,000032.00,06,01,1980,,*7E
,$PSGSA,1,,,,,,,,,,,,,5.5,5.4,1.0,946,00003200,,,0,00,3,0,B,,0,0,0,0,0,0,0,0,0,,0,1*33
,$GPGGA,000033.00,3653.4881,S,17454.6037,E,0,00,5.4,41.4,M,28.3,M,,*4E
,$GNGLL,3653.4881,S,17454.6037,E,000033.00,V,N*75
,$GNGSA,A,1,,,,,,,,,,,,,5.5,5.4,1.0,*02
,$GNRMC,000033.00,V,3653.4881,S,17454.6037,E,,,060180,,,N,V*37
,$GNVTG,,T,,M,,N,,K,N*32
,$GNZDA,000033.00,06,01,1980,,*7F
,$PSGSA,1,,,,,,,,,,,,,5.5,5.4,1.0,946,00003300,,,0,00,3,0,B,,0,0,0,0,0,0,0,0,0,,0,1*32
,$GPGGA,000034.00,3653.4881,S,17454.6037,E,0,00,5.4,41.4,M,28.3,M,,*49
,$GNGLL,3653.4881,S,17454.6037,E,000034.00,V,N*72
,$GNGSA,A,1,,,,,,,,,,,,,5.5,5.4,1.0,*02
,$GNRMC,000034.00,V,3653.4881,S,17454.6037,E,,,060180,,,N,V*30
,$GNVTG,,T,,M,,N,,K,N*32
,$GNZDA,000034.00,06,01,1980,,*78
,$PSGSA,1,,,,,,,,,,,,,5.5,5.4,1.0,946,00003400,,,0,00,3,0,B,,0,0,0,0,0,0,0,0,0,,0,1*35
,$GPGGA,000035.00,3653.4881,S,17454.6037,E,0,00,5.4,41.4,M,28.3,M,,*48
,$GNGLL,3653.4881,S,17454.6037,E,000035.00,V,N*73
,$GNGSA,A,1,,,,,,,,,,,,,5.5,5.4,1.0,*02
,$GNRMC,000035.00,V,3653.4881,S,17454.6037,E,,,060180,,,N,V*31
,$GNVTG,,T,,M,,N,,K,N*32
,$GNZDA,000035.00,06,01,1980,,*79
,$PSGSA,1,,,,,,,,,,,,,5.5,5.4,1.0,946,00003500,,,0,00,3,0,B,,0,0,0,0,0,0,0,0,0,,0,1*34
,$GPGGA,000036.00,3653.4881,S,17454.6037,E,0,00,5.4,41.4,M,28.3,M,,*4B
,$GNGLL,3653.4881,S,17454.6037,E,000036.00,V,N*70
,$GNGSA,A,1,,,,,,,,,,,,,5.5,5.4,1.0,*02
,$GNRMC,000036.00,V,3653.4881,S,17454.6037,E,,,060180,,,N,V*32
,$GNVTG,,T,,M,,N,,K,N*32
,$GNZDA,000036.00,06,01,1980,,*7A
,$PSGSA,1,,,,,,,,,,,,,5.5,5.4,1.0,946,00003600,,,0,00,3,0,B,,0,0,0,0,0,0,0,0,0,,0,1*37
,$GPGGA,000037.00,3653.4881,S,17454.6037,E,0,00,5.4,41.4,M,28.3,M,,*4A
,$GNGLL,3653.4881,S,17454.6037,E,000037.00,V,N*71
,$GNGSA,A,1,,,,,,,,,,,,,5.5,5.4,1.0,*02
,$GNRMC,000037.00,V,3653.4881,S,17454.6037,E,,,060180,,,N,V*33
,$GNVTG,,T,,M,,N,,K,N*32
,$GNZDA,000037.00,06,01,1980,,*7B
,$PSGSA,1,,,,,,,,,,,,,5.5,5.4,1.0,946,00003700,,,0,00,3,0,B,,0,0,0,0,0,0,0,0,0,,0,1*36
,$GPGGA,000038.01,3653.4881,S,17454.6037,E,0,00,5.4,41.4,M,28.3,M,,*44
,$GNGLL,3653.4881,S,17454.6037,E,000038.01,V,N*7F
,$GNGSA,A,1,,,,,,,,,,,,,5.5,5.4,1.0,*02
,$GPGSV,1,1,01,16,,,00,,,,,,,,,,,,,0*63
,$GNRMC,000038.01,V,3653.4881,S,17454.6037,E,,,060180,,,N,V*3D
,$GNVTG,,T,,M,,N,,K,N*32
,$GNZDA,000038.01,06,01,1980,,*75
,$PSGSA,1,,,,,,,,,,,,,5.5,5.4,1.0,946,00003801,,,0,00,3,0,B,,0,0,1,0,0,0,0,0,0,,0,1*39
,$GPGGA,000039.00,3653.4881,S,17454.6037,E,0,00,5.4,41.4,M,28.3,M,,*44
,$GNGLL,3653.4881,S,17454.6037,E,000039.00,V,N*7F
,$GNGSA,A,1,,,,,,,,,,,,,5.5,5.4,1.0,*02
,$GPGSV,1,1,02,04,,,00,16,,,00,,,,,,,,,0*64
,$GNRMC,000039.00,V,3653.4881,S,17454.6037,E,,,060180,,,N,V*3D
,$GNVTG,,T,,M,,N,,K,N*32
,$GNZDA,000039.00,06,01,1980,,*75
,$PSGSA,1,,,,,,,,,,,,,5.5,5.4,1.0,946,00003900,,,0,00,3,0,B,,0,0,2,0,0,0,0,0,0,,0,1*3A
,$GPGGA,000040.00,3653.4881,S,17454.6037,E,0,00,5.4,41.4,M,28.3,M,,*4A
,$GNGLL,3653.4881,S,17454.6037,E,000040.00,V,N*71
,$GNGSA,A,1,,,,,,,,,,,,,5.5,5.4,1.0,*02
,$GPGSV,1,1,01,04,,,10,,,,,,,,,,,,,0*61
,$GNRMC,000040.00,V,3653.4881,S,17454.6037,E,,,060180,,,N,V*33
,$GNVTG,,T,,M,,N,,K,N*32
,$GNZDA,000040.00,06,01,1980,,*7B
,$PSGSA,1,,,,,,,,,,,,,5.5,5.4,1.0,946,00004000,,,0,02,3,0,B,,0,0,1,0,0,0,0,0,0,,0,1*35
,$GPGGA,000041.00,3653.4881,S,17454.6037,E,0,00,5.4,41.4,M,28.3,M,,*4B
,$GNGLL,3653.4881,S,17454.6037,E,000041.00,V,N*70
,$GNGSA,A,1,,,,,,,,,,,,,5.5,5.4,1.0,*02
,$GNRMC,000041.00,V,3653.4881,S,17454.6037,E,,,060180,,,N,V*32
,$GNVTG,,T,,M,,N,,K,N*32
,$GNZDA,000041.00,06,01,1980,,*7A
,$PSGSA,1,,,,,,,,,,,,,5.5,5.4,1.0,946,00004100,,,0,00,3,0,B,,0,0,0,0,0,0,0,0,0,,0,1*37
,$GPGGA,000042.00,3653.4881,S,17454.6037,E,0,00,5.4,41.4,M,28.3,M,,*48
,$GNGLL,3653.4881,S,17454.6037,E,000042.00,V,N*73
,$GNGSA,A,1,,,,,,,,,,,,,5.5,5.4,1.0,*02
,$GNRMC,000042.00,V,3653.4881,S,17454.6037,E,,,060180,,,N,V*31
,$GNVTG,,T,,M,,N,,K,N*32
,$GNZDA,000042.00,06,01,1980,,*79
,$PSGSA,1,,,,,,,,,,,,,5.5,5.4,1.0,946,00004200,,,0,00,3,0,B,,0,0,0,0,0,0,0,0,0,,0,1*34
,$GPGGA,000043.00,3653.4881,S,17454.6037,E,0,00,5.4,41.4,M,28.3,M,,*49
,$GNGLL,3653.4881,S,17454.6037,E,000043.00,V,N*72
,$GNGSA,A,1,,,,,,,,,,,,,5.5,5.4,1.0,*02
,$GNRMC,000043.00,V,3653.4881,S,17454.6037,E,,,060180,,,N,V*30
,$GNVTG,,T,,M,,N,,K,N*32
,$GNZDA,000043.00,06,01,1980,,*78
,$PSGSA,1,,,,,,,,,,,,,5.5,5.4,1.0,946,00004300,,,0,00,3,0,B,,0,0,0,0,0,0,0,0,0,,0,1*35
,$GPGGA,000044.00,3653.4881,S,17454.6037,E,0,00,5.4,41.4,M,28.3,M,,*4E
,$GNGLL,3653.4881,S,17454.6037,E,000044.00,V,N*75
,$GNGSA,A,1,,,,,,,,,,,,,5.5,5.4,1.0,*02
,$GNRMC,000044.00,V,3653.4881,S,17454.6037,E,,,060180,,,N,V*37
,$GNVTG,,T,,M,,N,,K,N*32
,$GNZDA,000044.00,06,01,1980,,*7F
,$PSGSA,1,,,,,,,,,,,,,5.5,5.4,1.0,946,00004400,,,0,00,3,0,B,,0,0,0,0,0,0,0,0,0,,0,1*32
,$GPGGA,000045.00,3653.4881,S,17454.6037,E,0,00,5.4,41.4,M,28.3,M,,*4F
,$GNGLL,3653.4881,S,17454.6037,E,000045.00,V,N*74
,$GNGSA,A,1,,,,,,,,,,,,,5.5,5.4,1.0,*02
,$GNRMC,000045.00,V,3653.4881,S,17454.6037,E,,,060180,,,N,V*36
,$GNVTG,,T,,M,,N,,K,N*32
,$GNZDA,000045.00,06,01,1980,,*7E
,$PSGSA,1,,,,,,,,,,,,,5.5,5.4,1.0,946,00004500,,,0,00,3,0,B,,0,0,0,0,0,0,0,0,0,,0,1*33
,$GPGGA,000046.00,3653.4881,S,17454.6037,E,0,00,5.4,41.4,M,28.3,M,,*4C
,$GNGLL,3653.4881,S,17454.6037,E,000046.00,V,N*77
,$GNGSA,A,1,,,,,,,,,,,,,5.5,5.4,1.0,*02
,$GPGSV,1,1,01,05,,,00,,,,,,,,,,,,,0*61
,$GNRMC,000046.00,V,3653.4881,S,17454.6037,E,,,060180,,,N,V*35
,$GNVTG,,T,,M,,N,,K,N*32
,$GNZDA,000046.00,06,01,1980,,*7D
,$PSGSA,1,,,,,,,,,,,,,5.5,5.4,1.0,946,00004600,,,0,00,3,0,B,,0,0,1,0,0,0,0,0,0,,0,1*31
,$GPGGA,000047.00,3653.4881,S,17454.6037,E,0,00,5.4,41.4,M,28.3,M,,*4D
,$GNGLL,3653.4881,S,17454.6037,E,000047.00,V,N*76
,$GNGSA,A,1,,,,,,,,,,,,,5.5,5.4,1.0,*02
,$GPGSV,1,1,01,05,,,00,,,,,,,,,,,,,0*61
,$GNRMC,000047.00,V,3653.4881,S,17454.6037,E,,,060180,,,N,V*34
,$GNVTG,,T,,M,,N,,K,N*32
,$GNZDA,000047.00,06,01,1980,,*7C
,$PSGSA,1,,,,,,,,,,,,,5.5,5.4,1.0,946,00004700,,,0,00,3,0,B,,0,0,1,0,0,0,0,0,0,,0,1*30
,$GPGGA,000048.00,3653.4881,S,17454.6037,E,0,00,5.4,41.4,M,28.3,M,,*42
,$GNGLL,3653.4881,S,17454.6037,E,000048.00,V,N*79
,$GNGSA,A,1,,,,,,,,,,,,,5.5,5.4,1.0,*02
,$GNRMC,000048.00,V,3653.4881,S,17454.6037,E,,,060180,,,N,V*3B
,$GNVTG,,T,,M,,N,,K,N*32
,$GNZDA,000048.00,06,01,1980,,*73
,$PSGSA,1,,,,,,,,,,,,,5.5,5.4,1.0,946,00004800,,,0,00,3,0,B,,0,0,0,0,0,0,0,0,0,,0,1*3E
,$GPGGA,000049.00,3653.4881,S,17454.6037,E,0,00,5.4,41.4,M,28.3,M,,*43
,$GNGLL,3653.4881,S,17454.6037,E,000049.00,V,N*78
,$GNGSA,A,1,,,,,,,,,,,,,5.5,5.4,1.0,*02
,$GPGSV,1,1,01,15,,,00,,,,,,,,,,,,,0*60
,$GNRMC,000049.00,V,3653.4881,S,17454.6037,E,,,060180,,,N,V*3A
,$GNVTG,,T,,M,,N,,K,N*32
,$GNZDA,000049.00,06,01,1980,,*72
,$PSGSA,1,,,,,,,,,,,,,5.5,5.4,1.0,946,00004900,,,0,00,3,0,B,,0,0,1,0,0,0,0,0,0,,0,1*3E
,$GPGGA,000050.00,3653.4881,S,17454.6037,E,0,00,5.4,41.4,M,28.3,M,,*4B
,$GNGLL,3653.4881,S,17454.6037,E,000050.00,V,N*70
,$GNGSA,A,1,,,,,,,,,,,,,5.5,5.4,1.0,*02
,$GPGSV,1,1,01,15,,,00,,,,,,,,,,,,,0*60
,$GNRMC,000050.00,V,3653.4881,S,17454.6037,E,,,060180,,,N,V*32
,$GNVTG,,T,,M,,N,,K,N*32
,$GNZDA,000050.00,06,01,1980,,*7A
,$PSGSA,1,,,,,,,,,,,,,5.5,5.4,1.0,946,00005000,,,0,00,3,0,B,,0,0,1,0,0,0,0,0,0,,0,1*36
,$GPGGA,000051.00,3653.4881,S,17454.6037,E,0,00,5.4,41.4,M,28.3,M,,*4A
,$GNGLL,3653.4881,S,17454.6037,E,000051.00,V,N*71
,$GNGSA,A,1,,,,,,,,,,,,,5.5,5.4,1.0,*02
,$GNRMC,000051.00,V,3653.4881,S,17454.6037,E,,,060180,,,N,V*33
,$GNVTG,,T,,M,,N,,K,N*32
,$GNZDA,000051.00,06,01,1980,,*7B
,$PSGSA,1,,,,,,,,,,,,,5.5,5.4,1.0,946,00005100,,,0,00,3,0,B,,0,0,0,0,0,0,0,0,0,,0,1*36
,$GPGGA,000052.00,3653.4881,S,17454.6037,E,0,00,5.4,41.4,M,28.3,M,,*49
,$GNGLL,3653.4881,S,17454.6037,E,000052.00,V,N*72
,$GNGSA,A,1,,,,,,,,,,,,,5.5,5.4,1.0,*02
,$GPGSV,1,1,01,09,,,18,,,,,,,,,,,,,0*64
,$GNRMC,000052.00,V,3653.4881,S,17454.6037,E,,,060180,,,N,V*30
,$GNVTG,,T,,M,,N,,K,N*32
,$GNZDA,000052.00,06,01,1980,,*78
,$PSGSA,1,,,,,,,,,,,,,5.5,5.4,1.0,946,00005200,,,0,04,3,0,B,,0,0,1,0,0,0,0,0,0,,0,1*30
,$GPGGA,000053.00,3653.4881,S,17454.6037,E,0,00,5.4,41.4,M,28.3,M,,*48
,$GNGLL,3653.4881,S,17454.6037,E,000053.00,V,N*73
,$GNGSA,A,1,,,,,,,,,,,,,5.5,5.4,1.0,*02
,$GPGSV,1,1,01,09,,,10,,,,,,,,,,,,,0*6C
,$GNRMC,000053.00,V,3653.4881,S,17454.6037,E,,,060180,,,N,V*31
,$GNVTG,,T,,M,,N,,K,N*32
,$GNZDA,000053.00,06,01,1980,,*79
,$PSGSA,1,,,,,,,,,,,,,5.5,5.4,1.0,946,00005300,,,0,02,3,0,B,,0,0,1,0,0,0,0,0,0,,0,1*37
,$GPGGA,000054.00,3653.4881,S,17454.6037,E,0,00,5.4,41.4,M,28.3,M,,*4F
,$GNGLL,3653.4881,S,17454.6037,E,000054.00,V,N*74
,$GNGSA,A,1,,,,,,,,,,,,,5.5,5.4,1.0,*02
,$GPGSV,1,1,01,09,,,11,,,,,,,,,,,,,0*6D
,$GNRMC,000054.00,V,3653.4881,S,17454.6037,E,,,060180,,,N,V*36
,$GNVTG,,T,,M,,N,,K,N*32
,$GNZDA,000054.00,06,01,1980,,*7E
,$PSGSA,1,,,,,,,,,,,,,5.5,5.4,1.0,946,00005400,,,0,02,3,0,B,,0,0,1,0,0,0,0,0,0,,0,1*30
,$GPGGA,000055.00,3653.4881,S,17454.6037,E,0,00,5.4,41.4,M,28.3,M,,*4E
,$GNGLL,3653.4881,S,17454.6037,E,000055.00,V,N*75
,$GNGSA,A,1,,,,,,,,,,,,,5.5,5.4,1.0,*02
,$GNRMC,000055.00,V,3653.4881,S,17454.6037,E,,,060180,,,N,V*37
,$GNVTG,,T,,M,,N,,K,N*32
,$GNZDA,000055.00,06,01,1980,,*7F
,$PSGSA,1,,,,,,,,,,,,,5.5,5.4,1.0,946,00005500,,,0,00,3,0,B,,0,0,0,0,0,0,0,0,0,,0,1*32
,$GPGGA,000056.00,3653.4881,S,17454.6037,E,0,00,5.4,41.4,M,28.3,M,,*4D
,$GNGLL,3653.4881,S,17454.6037,E,000056.00,V,N*76
,$GNGSA,A,1,,,,,,,,,,,,,5.5,5.4,1.0,*02
,$GNRMC,000056.00,V,3653.4881,S,17454.6037,E,,,060180,,,N,V*34
,$GNVTG,,T,,M,,N,,K,N*32
,$GNZDA,000056.00,06,01,1980,,*7C
,$PSGSA,1,,,,,,,,,,,,,5.5,5.4,1.0,946,00005600,,,0,00,3,0,B,,0,0,0,0,0,0,0,0,0,,0,1*31
,$GPGGA,000057.00,3653.4881,S,17454.6037,E,0,00,5.4,41.4,M,28.3,M,,*4C
,$GNGLL,3653.4881,S,17454.6037,E,000057.00,V,N*77
,$GNGSA,A,1,,,,,,,,,,,,,5.5,5.4,1.0,*02
,$GPGSV,1,1,01,14,,,13,,,,,,,,,,,,,0*63
,$GNRMC,000057.00,V,3653.4881,S,17454.6037,E,,,060180,,,N,V*35
,$GNVTG,,T,,M,,N,,K,N*32
,$GNZDA,000057.00,06,01,1980,,*7D
,$PSGSA,1,,,,,,,,,,,,,5.5,5.4,1.0,946,00005700,,,0,03,3,0,B,,0,0,1,0,0,0,0,0,0,,0,1*32
,$GPGGA,000058.00,3653.4881,S,17454.6037,E,0,00,5.4,41.4,M,28.3,M,,*43
,$GNGLL,3653.4881,S,17454.6037,E,000058.00,V,N*78
,$GNGSA,A,1,,,,,,,,,,,,,5.5,5.4,1.0,*02
,$GPGSV,1,1,01,14,,,00,,,,,,,,,,,,,0*61
,$GNRMC,000058.00,V,3653.4881,S,17454.6037,E,,,060180,,,N,V*3A
,$GNVTG,,T,,M,,N,,K,N*32
,$GNZDA,000058.00,06,01,1980,,*72
,$PSGSA,1,,,,,,,,,,,,,5.5,5.4,1.0,946,00005800,,,0,00,3,0,B,,0,0,1,0,0,0,0,0,0,,0,1*3E
,$GPGGA,000059.00,3653.4881,S,17454.6037,E,0,00,5.4,41.4,M,28.3,M,,*42
,$GNGLL,3653.4881,S,17454.6037,E,000059.00,V,N*79
,$GNGSA,A,1,,,,,,,,,,,,,5.5,5.4,1.0,*02
,$GNRMC,000059.00,V,3653.4881,S,17454.6037,E,,,060180,,,N,V*3B
,$GNVTG,,T,,M,,N,,K,N*32
,$GNZDA,000059.00,06,01,1980,,*73
,$PSGSA,1,,,,,,,,,,,,,5.5,5.4,1.0,946,00005900,,,0,00,3,0,B,,0,0,0,0,0,0,0,0,0,,0,1*3E
,$GPGGA,000100.00,3653.4881,S,17454.6037,E,0,00,5.4,41.4,M,28.3,M,,*4F
,$GNGLL,3653.4881,S,17454.6037,E,000100.00,V,N*74
,$GNGSA,A,1,,,,,,,,,,,,,5.5,5.4,1.0,*02
,$GNRMC,000100.00,V,3653.4881,S,17454.6037,E,,,060180,,,N,V*36
,$GNVTG,,T,,M,,N,,K,N*32
,$GNZDA,000100.00,06,01,1980,,*7E
,$PSGSA,1,,,,,,,,,,,,,5.5,5.4,1.0,946,00010000,,,0,00,3,0,B,,0,0,0,0,0,0,0,0,0,,0,1*33
,$GPGGA,000101.00,3653.4881,S,17454.6037,E,0,00,5.4,41.4,M,28.3,M,,*4E
,$GNGLL,3653.4881,S,17454.6037,E,000101.00,V,N*75
,$GNGSA,A,1,,,,,,,,,,,,,5.5,5.4,1.0,*02
,$GNRMC,000101.00,V,3653.4881,S,17454.6037,E,,,060180,,,N,V*37
,$GNVTG,,T,,M,,N,,K,N*32
,$GNZDA,000101.00,06,01,1980,,*7F
,$PSGSA,1,,,,,,,,,,,,,5.5,5.4,1.0,946,00010100,,,0,00,3,0,B,,0,0,0,0,0,0,0,0,0,,0,1*32
,$GPGGA,000102.00,3653.4881,S,17454.6037,E,0,00,5.4,41.4,M,28.3,M,,*4D
,$GNGLL,3653.4881,S,17454.6037,E,000102.00,V,N*76
,$GNGSA,A,1,,,,,,,,,,,,,5.5,5.4,1.0,*02
,$GNRMC,000102.00,V,3653.4881,S,17454.6037,E,,,060180,,,N,V*34
,$GNVTG,,T,,M,,N,,K,N*32
,$GNZDA,000102.00,06,01,1980,,*7C
,$PSGSA,1,,,,,,,,,,,,,5.5,5.4,1.0,946,00010200,,,0,00,3,0,B,,0,0,0,0,0,0,0,0,0,,0,1*31
,$GPGGA,000103.00,3653.4881,S,17454.6037,E,0,00,5.4,41.4,M,28.3,M,,*4C
,$GNGLL,3653.4881,S,17454.6037,E,000103.00,V,N*77
,$GNGSA,A,1,,,,,,,,,,,,,5.5,5.4,1.0,*02
,$GNRMC,000103.00,V,3653.4881,S,17454.6037,E,,,060180,,,N,V*35
,$GNVTG,,T,,M,,N,,K,N*32
,$GNZDA,000103.00,06,01,1980,,*7D
,$PSGSA,1,,,,,,,,,,,,,5.5,5.4,1.0,946,00010300,,,0,00,3,0,B,,0,0,0,0,0,0,0,0,0,,0,1*30
,$GPGGA,000104.00,3653.4881,S,17454.6037,E,0,00,5.4,41.4,M,28.3,M,,*4B
,$GNGLL,3653.4881,S,17454.6037,E,000104.00,V,N*70
,$GNGSA,A,1,,,,,,,,,,,,,5.5,5.4,1.0,*02
,$GNRMC,000104.00,V,3653.4881,S,17454.6037,E,,,060180,,,N,V*32
,$GNVTG,,T,,M,,N,,K,N*32
,$GNZDA,000104.00,06,01,1980,,*7A
,$PSGSA,1,,,,,,,,,,,,,5.5,5.4,1.0,946,00010400,,,0,00,3,0,B,,0,0,0,0,0,0,0,0,0,,0,1*37
,$GPGGA,000105.00,3653.4881,S,17454.6037,E,0,00,5.4,41.4,M,28.3,M,,*4A
,$GNGLL,3653.4881,S,17454.6037,E,000105.00,V,N*71
,$GNGSA,A,1,,,,,,,,,,,,,5.5,5.4,1.0,*02
,$GNRMC,000105.00,V,3653.4881,S,17454.6037,E,,,060180,,,N,V*33
,$GNVTG,,T,,M,,N,,K,N*32
,$GNZDA,000105.00,06,01,1980,,*7B
,$PSGSA,1,,,,,,,,,,,,,5.5,5.4,1.0,946,00010500,,,0,00,3,0,B,,0,0,0,0,0,0,0,0,0,,0,1*36
,$GPGGA,000106.00,3653.4881,S,17454.6037,E,0,00,5.4,41.4,M,28.3,M,,*49
,$GNGLL,3653.4881,S,17454.6037,E,000106.00,V,N*72
,$GNGSA,A,1,,,,,,,,,,,,,5.5,5.4,1.0,*02
,$GNRMC,000106.00,V,3653.4881,S,17454.6037,E,,,060180,,,N,V*30
,$GNVTG,,T,,M,,N,,K,N*32
,$GNZDA,000106.00,06,01,1980,,*78
,$PSGSA,1,,,,,,,,,,,,,5.5,5.4,1.0,946,00010600,,,0,00,3,0,B,,0,0,0,0,0,0,0,0,0,,0,1*35
,$GPGGA,000107.00,3653.4881,S,17454.6037,E,0,00,5.4,41.4,M,28.3,M,,*48
,$GNGLL,3653.4881,S,17454.6037,E,000107.00,V,N*73
,$GNGSA,A,1,,,,,,,,,,,,,5.5,5.4,1.0,*02
,$GNRMC,000107.00,V,3653.4881,S,17454.6037,E,,,060180,,,N,V*31
,$GNVTG,,T,,M,,N,,K,N*32
,$GNZDA,000107.00,06,01,1980,,*79
,$PSGSA,1,,,,,,,,,,,,,5.5,5.4,1.0,946,00010700,,,0,00,3,0,B,,0,0,0,0,0,0,0,0,0,,0,1*34
,$GPGGA,000108.00,3653.4881,S,17454.6037,E,0,00,5.4,41.4,M,28.3,M,,*47
,$GNGLL,3653.4881,S,17454.6037,E,000108.00,V,N*7C
,$GNGSA,A,1,,,,,,,,,,,,,5.5,5.4,1.0,*02
,$GNRMC,000108.00,V,3653.4881,S,17454.6037,E,,,060180,,,N,V*3E
,$GNVTG,,T,,M,,N,,K,N*32
,$GNZDA,000108.00,06,01,1980,,*76
,$PSGSA,1,,,,,,,,,,,,,5.5,5.4,1.0,946,00010800,,,0,00,3,0,B,,0,0,0,0,0,0,0,0,0,,0,1*3B
,$GPGGA,000109.00,3653.4881,S,17454.6037,E,0,00,5.4,41.4,M,28.3,M,,*46
,$GNGLL,3653.4881,S,17454.6037,E,000109.00,V,N*7D
,$GNGSA,A,1,,,,,,,,,,,,,5.5,5.4,1.0,*02
,$GNRMC,000109.00,V,3653.4881,S,17454.6037,E,,,060180,,,N,V*3F
,$GNVTG,,T,,M,,N,,K,N*32
,$GNZDA,000109.00,06,01,1980,,*77
,$PSGSA,1,,,,,,,,,,,,,5.5,5.4,1.0,946,00010900,,,0,00,3,0,B,,0,0,0,0,0,0,0,0,0,,0,1*3A
,$GPGGA,000110.00,3653.4881,S,17454.6037,E,0,00,5.4,41.4,M,28.3,M,,*4E
,$GNGLL,3653.4881,S,17454.6037,E,000110.00,V,N*75
,$GNGSA,A,1,,,,,,,,,,,,,5.5,5.4,1.0,*02
,$GNRMC,000110.00,V,3653.4881,S,17454.6037,E,,,060180,,,N,V*37
,$GNVTG,,T,,M,,N,,K,N*32
,$GNZDA,000110.00,06,01,1980,,*7F
,$PSGSA,1,,,,,,,,,,,,,5.5,5.4,1.0,946,00011000,,,0,00,3,0,B,,0,0,0,0,0,0,0,0,0,,0,1*32
,$GPGGA,000111.00,3653.4881,S,17454.6037,E,0,00,5.4,41.4,M,28.3,M,,*4F
,$GNGLL,3653.4881,S,17454.6037,E,000111.00,V,N*74
,$GNGSA,A,1,,,,,,,,,,,,,5.5,5.4,1.0,*02
,$GNRMC,000111.00,V,3653.4881,S,17454.6037,E,,,060180,,,N,V*36
,$GNVTG,,T,,M,,N,,K,N*32
,$GNZDA,000111.00,06,01,1980,,*7E
,$PSGSA,1,,,,,,,,,,,,,5.5,5.4,1.0,946,00011100,,,0,00,3,0,B,,0,0,0,0,0,0,0,0,0,,0,1*33
,$GPGGA,000112.00,3653.4881,S,17454.6037,E,0,00,5.4,41.4,M,28.3,M,,*4C
,$GNGLL,3653.4881,S,17454.6037,E,000112.00,V,N*77
,$GNGSA,A,1,,,,,,,,,,,,,5.5,5.4,1.0,*02
,$GNRMC,000112.00,V,3653.4881,S,17454.6037,E,,,060180,,,N,V*35
,$GNVTG,,T,,M,,N,,K,N*32
,$GNZDA,000112.00,06,01,1980,,*7D
,$PSGSA,1,,,,,,,,,,,,,5.5,5.4,1.0,946,00011200,,,0,00,3,0,B,,0,0,0,0,0,0,0,0,0,,0,1*30
,$GPGGA,000113.00,3653.4881,S,17454.6037,E,0,00,5.4,41.4,M,28.3,M,,*4D
,$GNGLL,3653.4881,S,17454.6037,E,000113.00,V,N*76
,$GNGSA,A,1,,,,,,,,,,,,,5.5,5.4,1.0,*02
,$GNRMC,000113.00,V,3653.4881,S,17454.6037,E,,,060180,,,N,V*34
,$GNVTG,,T,,M,,N,,K,N*32
,$GNZDA,000113.00,06,01,1980,,*7C
,$PSGSA,1,,,,,,,,,,,,,5.5,5.4,1.0,946,00011300,,,0,00,3,0,B,,0,0,0,0,0,0,0,0,0,,0,1*31
,$GPGGA,000114.00,3653.4881,S,17454.6037,E,0,00,5.4,41.4,M,28.3,M,,*4A
,$GNGLL,3653.4881,S,17454.6037,E,000114.00,V,N*71
,$GNGSA,A,1,,,,,,,,,,,,,5.5,5.4,1.0,*02
,$GNRMC,000114.00,V,3653.4881,S,17454.6037,E,,,060180,,,N,V*33
,$GNVTG,,T,,M,,N,,K,N*32
,$GNZDA,000114.00,06,01,1980,,*7B
,$PSGSA,1,,,,,,,,,,,,,5.5,5.4,1.0,946,00011400,,,0,00,3,0,B,,0,0,0,0,0,0,0,0,0,,0,1*36
,$GPGGA,000115.00,3653.4881,S,17454.6037,E,0,00,5.4,41.4,M,28.3,M,,*4B
,$GNGLL,3653.4881,S,17454.6037,E,000115.00,V,N*70
,$GNGSA,A,1,,,,,,,,,,,,,5.5,5.4,1.0,*02
,$GNRMC,000115.00,V,3653.4881,S,17454.6037,E,,,060180,,,N,V*32
,$GNVTG,,T,,M,,N,,K,N*32
,$GNZDA,000115.00,06,01,1980,,*7A
,$PSGSA,1,,,,,,,,,,,,,5.5,5.4,1.0,946,00011500,,,0,00,3,0,B,,0,0,0,0,0,0,0,0,0,,0,1*37
,$GPGGA,000116.00,3653.4881,S,17454.6037,E,0,00,5.4,41.4,M,28.3,M,,*48
,$GNGLL,3653.4881,S,17454.6037,E,000116.00,V,N*73
,$GNGSA,A,1,,,,,,,,,,,,,5.5,5.4,1.0,*02
,$GNRMC,000116.00,V,3653.4881,S,17454.6037,E,,,060180,,,N,V*31
,$GNVTG,,T,,M,,N,,K,N*32
,$GNZDA,000116.00,06,01,1980,,*79
,$PSGSA,1,,,,,,,,,,,,,5.5,5.4,1.0,946,00011600,,,0,00,3,0,B,,0,0,0,0,0,0,0,0,0,,0,1*34
,$GPGGA,000117.00,3653.4881,S,17454.6037,E,0,00,5.4,41.4,M,28.3,M,,*49
,$GNGLL,3653.4881,S,17454.6037,E,000117.00,V,N*72
,$GNGSA,A,1,,,,,,,,,,,,,5.5,5.4,1.0,*02
,$GNRMC,000117.00,V,3653.4881,S,17454.6037,E,,,060180,,,N,V*30
,$GNVTG,,T,,M,,N,,K,N*32
,$GNZDA,000117.00,06,01,1980,,*78
,$PSGSA,1,,,,,,,,,,,,,5.5,5.4,1.0,946,00011700,,,0,00,3,0,B,,0,0,0,0,0,0,0,0,0,,0,1*35
,$GPGGA,000118.00,3653.4881,S,17454.6037,E,0,00,5.4,41.4,M,28.3,M,,*46
,$GNGLL,3653.4881,S,17454.6037,E,000118.00,V,N*7D
,$GNGSA,A,1,,,,,,,,,,,,,5.5,5.4,1.0,*02
,$GNRMC,000118.00,V,3653.4881,S,17454.6037,E,,,060180,,,N,V*3F
,$GNVTG,,T,,M,,N,,K,N*32
,$GNZDA,000118.00,06,01,1980,,*77
,$PSGSA,1,,,,,,,,,,,,,5.5,5.4,1.0,946,00011800,,,0,00,3,0,B,,0,0,0,0,0,0,0,0,0,,0,1*3A
,$GPGGA,000119.00,3653.4881,S,17454.6037,E,0,00,5.4,41.4,M,28.3,M,,*47
,$GNGLL,3653.4881,S,17454.6037,E,000119.00,V,N*7C
,$GNGSA,A,1,,,,,,,,,,,,,5.5,5.4,1.0,*02
,$GNRMC,000119.00,V,3653.4881,S,17454.6037,E,,,060180,,,N,V*3E
,$GNVTG,,T,,M,,N,,K,N*32
,$GNZDA,000119.00,06,01,1980,,*76
,$PSGSA,1,,,,,,,,,,,,,5.5,5.4,1.0,946,00011900,,,0,00,3,0,B,,0,0,0,0,0,0,0,0,0,,0,1*3B
,$GPGGA,000120.00,3653.4881,S,17454.6037,E,0,00,5.4,41.4,M,28.3,M,,*4D
,$GNGLL,3653.4881,S,17454.6037,E,000120.00,V,N*76
,$GNGSA,A,1,,,,,,,,,,,,,5.5,5.4,1.0,*02
,$GNRMC,000120.00,V,3653.4881,S,17454.6037,E,,,060180,,,N,V*34
,$GNVTG,,T,,M,,N,,K,N*32
,$GNZDA,000120.00,06,01,1980,,*7C
,$PSGSA,1,,,,,,,,,,,,,5.5,5.4,1.0,946,00012000,,,0,00,3,0,B,,0,0,0,0,0,0,0,0,0,,0,1*31
,$GPGGA,000121.00,3653.4881,S,17454.6037,E,0,00,5.4,41.4,M,28.3,M,,*4C
,$GNGLL,3653.4881,S,17454.6037,E,000121.00,V,N*77
,$GNGSA,A,1,,,,,,,,,,,,,5.5,5.4,1.0,*02
,$GNRMC,000121.00,V,3653.4881,S,17454.6037,E,,,060180,,,N,V*35
,$GNVTG,,T,,M,,N,,K,N*32
,$GNZDA,000121.00,06,01,1980,,*7D
,$PSGSA,1,,,,,,,,,,,,,5.5,5.4,1.0,946,00012100,,,0,00,3,0,B,,0,0,0,0,0,0,0,0,0,,0,1*30
,$GPGGA,000122.00,3653.4881,S,17454.6037,E,0,00,5.4,41.4,M,28.3,M,,*4F
,$GNGLL,3653.4881,S,17454.6037,E,000122.00,V,N*74
,$GNGSA,A,1,,,,,,,,,,,,,5.5,5.4,1.0,*02
,$GPGSV,1,1,01,30,,,00,,,,,,,,,,,,,0*67
,$GNRMC,000122.00,V,3653.4881,S,17454.6037,E,,,060180,,,N,V*36
,$GNVTG,,T,,M,,N,,K,N*32
,$GNZDA,000122.00,06,01,1980,,*7E
,$PSGSA,1,,,,,,,,,,,,,5.5,5.4,1.0,946,00012200,,,0,00,3,0,B,,0,0,1,0,0,0,0,0,0,,0,1*32
,$GPGGA,000123.00,3653.4881,S,17454.6037,E,0,00,5.4,41.4,M,28.3,M,,*4E
,$GNGLL,3653.4881,S,17454.6037,E,000123.00,V,N*75
,$GNGSA,A,1,,,,,,,,,,,,,5.5,5.4,1.0,*02
,$GPGSV,1,1,01,30,,,00,,,,,,,,,,,,,0*67
,$GNRMC,000123.00,V,3653.4881,S,17454.6037,E,,,060180,,,N,V*37
,$GNVTG,,T,,M,,N,,K,N*32
,$GNZDA,000123.00,06,01,1980,,*7F
,$PSGSA,1,,,,,,,,,,,,,5.5,5.4,1.0,946,00012300,,,0,00,3,0,B,,0,0,1,0,0,0,0,0,0,,0,1*33
,$GPGGA,000124.00,3653.4881,S,17454.6037,E,0,00,5.4,41.4,M,28.3,M,,*49
,$GNGLL,3653.4881,S,17454.6037,E,000124.00,V,N*72
,$GNGSA,A,1,,,,,,,,,,,,,5.5,5.4,1.0,*02
,$GNRMC,000124.00,V,3653.4881,S,17454.6037,E,,,060180,,,N,V*30
,$GNVTG,,T,,M,,N,,K,N*32
,$GNZDA,000124.00,06,01,1980,,*78
,$PSGSA,1,,,,,,,,,,,,,5.5,5.4,1.0,946,00012400,,,0,00,3,0,B,,0,0,0,0,0,0,0,0,0,,0,1*35
,$GPGGA,000125.00,3653.4881,S,17454.6037,E,0,00,5.4,41.4,M,28.3,M,,*48
,$GNGLL,3653.4881,S,17454.6037,E,000125.00,V,N*73
,$GNGSA,A,1,,,,,,,,,,,,,5.5,5.4,1.0,*02
,$GNRMC,000125.00,V,3653.4881,S,17454.6037,E,,,060180,,,N,V*31
,$GNVTG,,T,,M,,N,,K,N*32
,$GNZDA,000125.00,06,01,1980,,*79
,$PSGSA,1,,,,,,,,,,,,,5.5,5.4,1.0,946,00012500,,,0,00,3,0,B,,0,0,0,0,0,0,0,0,0,,0,1*34
,$GPGGA,000126.00,3653.4881,S,17454.6037,E,0,00,5.4,41.4,M,28.3,M,,*4B
,$GNGLL,3653.4881,S,17454.6037,E,000126.00,V,N*70
,$GNGSA,A,1,,,,,,,,,,,,,5.5,5.4,1.0,*02
,$GNRMC,000126.00,V,3653.4881,S,17454.6037,E,,,060180,,,N,V*32
,$GNVTG,,T,,M,,N,,K,N*32
,$GNZDA,000126.00,06,01,1980,,*7A
,$PSGSA,1,,,,,,,,,,,,,5.5,5.4,1.0,946,00012600,,,0,00,3,0,B,,0,0,0,0,0,0,0,0,0,,0,1*37
,$GPGGA,000127.00,3653.4881,S,17454.6037,E,0,00,5.4,41.4,M,28.3,M,,*4A
,$GNGLL,3653.4881,S,17454.6037,E,000127.00,V,N*71
,$GNGSA,A,1,,,,,,,,,,,,,5.5,5.4,1.0,*02
,$GNRMC,000127.00,V,3653.4881,S,17454.6037,E,,,060180,,,N,V*33
,$GNVTG,,T,,M,,N,,K,N*32
,$GNZDA,000127.00,06,01,1980,,*7B
,$PSGSA,1,,,,,,,,,,,,,5.5,5.4,1.0,946,00012700,,,0,00,3,0,B,,0,0,0,0,0,0,0,0,0,,0,1*36
,$GPGGA,000128.00,3653.4881,S,17454.6037,E,0,00,5.4,41.4,M,28.3,M,,*45
,$GNGLL,3653.4881,S,17454.6037,E,000128.00,V,N*7E
,$GNGSA,A,1,,,,,,,,,,,,,5.5,5.4,1.0,*02
,$GNRMC,000128.00,V,3653.4881,S,17454.6037,E,,,060180,,,N,V*3C
,$GNVTG,,T,,M,,N,,K,N*32
,$GNZDA,000128.00,06,01,1980,,*74
,$PSGSA,1,,,,,,,,,,,,,5.5,5.4,1.0,946,00012800,,,0,00,3,0,B,,0,0,0,0,0,0,0,0,0,,0,1*39
,$GPGGA,000129.00,3653.4881,S,17454.6037,E,0,00,5.4,41.4,M,28.3,M,,*44
,$GNGLL,3653.4881,S,17454.6037,E,000129.00,V,N*7F
,$GNGSA,A,1,,,,,,,,,,,,,5.5,5.4,1.0,*02
,$GNRMC,000129.00,V,3653.4881,S,17454.6037,E,,,060180,,,N,V*3D
,$GNVTG,,T,,M,,N,,K,N*32
,$GNZDA,000129.00,06,01,1980,,*75
,$PSGSA,1,,,,,,,,,,,,,5.5,5.4,1.0,946,00012900,,,0,00,3,0,B,,0,0,0,0,0,0,0,0,0,,0,1*38
,$GPGGA,000130.00,3653.4881,S,17454.6037,E,0,00,5.4,41.4,M,28.3,M,,*4C
,$GNGLL,3653.4881,S,17454.6037,E,000130.00,V,N*77
,$GNGSA,A,1,,,,,,,,,,,,,5.5,5.4,1.0,*02
,$GNRMC,000130.00,V,3653.4881,S,17454.6037,E,,,060180,,,N,V*35
,$GNVTG,,T,,M,,N,,K,N*32
,$GNZDA,000130.00,06,01,1980,,*7D
,$PSGSA,1,,,,,,,,,,,,,5.5,5.4,1.0,946,00013000,,,0,00,3,0,B,,0,0,0,0,0,0,0,0,0,,0,1*30
,$GPGGA,000131.00,3653.4881,S,17454.6037,E,0,00,5.4,41.4,M,28.3,M,,*4D
,$GNGLL,3653.4881,S,17454.6037,E,000131.00,V,N*76
,$GNGSA,A,1,,,,,,,,,,,,,5.5,5.4,1.0,*02
,$GNRMC,000131.00,V,3653.4881,S,17454.6037,E,,,060180,,,N,V*34
,$GNVTG,,T,,M,,N,,K,N*32
,$GNZDA,000131.00,06,01,1980,,*7C
,$PSGSA,1,,,,,,,,,,,,,5.5,5.4,1.0,946,00013100,,,0,00,3,0,B,,0,0,0,0,0,0,0,0,0,,0,1*31
,$GPGGA,000132.00,3653.4881,S,17454.6037,E,0,00,5.4,41.4,M,28.3,M,,*4E
,$GNGLL,3653.4881,S,17454.6037,E,000132.00,V,N*75
,$GNGSA,A,1,,,,,,,,,,,,,5.5,5.4,1.0,*02
,$GNRMC,000132.00,V,3653.4881,S,17454.6037,E,,,060180,,,N,V*37
,$GNVTG,,T,,M,,N,,K,N*32
,$GNZDA,000132.00,06,01,1980,,*7F
,$PSGSA,1,,,,,,,,,,,,,5.5,5.4,1.0,946,00013200,,,0,00,3,0,B,,0,0,0,0,0,0,0,0,0,,0,1*32
,$GPGGA,000133.00,3653.4881,S,17454.6037,E,0,00,5.4,41.4,M,28.3,M,,*4F
,$GNGLL,3653.4881,S,17454.6037,E,000133.00,V,N*74
,$GNGSA,A,1,,,,,,,,,,,,,5.5,5.4,1.0,*02
,$GNRMC,000133.00,V,3653.4881,S,17454.6037,E,,,060180,,,N,V*36
,$GNVTG,,T,,M,,N,,K,N*32
,$GNZDA,000133.00,06,01,1980,,*7E
,$PSGSA,1,,,,,,,,,,,,,5.5,5.4,1.0,946,00013300,,,0,00,3,0,B,,0,0,0,0,0,0,0,0,0,,0,1*33
,$GPGGA,000134.00,3653.4881,S,17454.6037,E,0,00,5.4,41.4,M,28.3,M,,*48
,$GNGLL,3653.4881,S,17454.6037,E,000134.00,V,N*73
,$GNGSA,A,1,,,,,,,,,,,,,5.5,5.4,1.0,*02
,$GNRMC,000134.00,V,3653.4881,S,17454.6037,E,,,060180,,,N,V*31
,$GNVTG,,T,,M,,N,,K,N*32
,$GNZDA,000134.00,06,01,1980,,*79
,$PSGSA,1,,,,,,,,,,,,,5.5,5.4,1.0,946,00013400,,,0,00,3,0,B,,0,0,0,0,0,0,0,0,0,,0,1*34
,$GPGGA,000135.00,3653.4881,S,17454.6037,E,0,00,5.4,41.4,M,28.3,M,,*49
,$GNGLL,3653.4881,S,17454.6037,E,000135.00,V,N*72
,$GNGSA,A,1,,,,,,,,,,,,,5.5,5.4,1.0,*02
,$GNRMC,000135.00,V,3653.4881,S,17454.6037,E,,,060180,,,N,V*30
,$GNVTG,,T,,M,,N,,K,N*32
,$GNZDA,000135.00,06,01,1980,,*78
,$PSGSA,1,,,,,,,,,,,,,5.5,5.4,1.0,946,00013500,,,0,00,3,0,B,,0,0,0,0,0,0,0,0,0,,0,1*35
,$GPGGA,000136.00,3653.4881,S,17454.6037,E,0,00,5.4,41.4,M,28.3,M,,*4A
,$GNGLL,3653.4881,S,17454.6037,E,000136.00,V,N*71
,$GNGSA,A,1,,,,,,,,,,,,,5.5,5.4,1.0,*02
,$GNRMC,000136.00,V,3653.4881,S,17454.6037,E,,,060180,,,N,V*33
,$GNVTG,,T,,M,,N,,K,N*32
,$GNZDA,000136.00,06,01,1980,,*7B
,$PSGSA,1,,,,,,,,,,,,,5.5,5.4,1.0,946,00013600,,,0,00,3,0,B,,0,0,0,0,0,0,0,0,0,,0,1*36
,$GPGGA,000137.00,3653.4881,S,17454.6037,E,0,00,5.4,41.4,M,28.3,M,,*4B
,$GNGLL,3653.4881,S,17454.6037,E,000137.00,V,N*70
,$GNGSA,A,1,,,,,,,,,,,,,5.5,5.4,1.0,*02
,$GPGSV,1,1,01,07,,,10,,,,,,,,,,,,,0*62
,$GNRMC,000137.00,V,3653.4881,S,17454.6037,E,,,060180,,,N,V*32
,$GNVTG,,T,,M,,N,,K,N*32
,$GNZDA,000137.00,06,01,1980,,*7A
,$PSGSA,1,,,,,,,,,,,,,5.5,5.4,1.0,946,00013700,,,0,02,3,0,B,,0,0,1,0,0,0,0,0,0,,0,1*34
,$GPGGA,000138.00,3653.4881,S,17454.6037,E,0,00,5.4,41.4,M,28.3,M,,*44
,$GNGLL,3653.4881,S,17454.6037,E,000138.00,V,N*7F
,$GNGSA,A,1,,,,,,,,,,,,,5.5,5.4,1.0,*02
,$GPGSV,1,1,01,07,,,04,,,,,,,,,,,,,0*67
,$GNRMC,000138.00,V,3653.4881,S,17454.6037,E,,,060180,,,N,V*3D
,$GNVTG,,T,,M,,N,,K,N*32
,$GNZDA,000138.00,06,01,1980,,*75
,$PSGSA,1,,,,,,,,,,,,,5.5,5.4,1.0,946,00013800,,,0,01,3,0,B,,0,0,1,0,0,0,0,0,0,,0,1*38
,$GPGGA,000139.00,3653.4881,S,17454.6037,E,0,00,5.4,41.4,M,28.3,M,,*45
,$GNGLL,3653.4881,S,17454.6037,E,000139.00,V,N*7E
,$GNGSA,A,1,,,,,,,,,,,,,5.5,5.4,1.0,*02
,$GPGSV,1,1,01,07,,,00,,,,,,,,,,,,,0*63
,$GNRMC,000139.00,V,3653.4881,S,17454.6037,E,,,060180,,,N,V*3C
,$GNVTG,,T,,M,,N,,K,N*32
,$GNZDA,000139.00,06,01,1980,,*74
,$PSGSA,1,,,,,,,,,,,,,5.5,5.4,1.0,946,00013900,,,0,00,3,0,B,,0,0,1,0,0,0,0,0,0,,0,1*38
,$GPGGA,000140.00,3653.4881,S,17454.6037,E,0,00,5.4,41.4,M,28.3,M,,*4B
,$GNGLL,3653.4881,S,17454.6037,E,000140.00,V,N*70
,$GNGSA,A,1,,,,,,,,,,,,,5.5,5.4,1.0,*02
,$GPGSV,1,1,01,26,,,00,,,,,,,,,,,,,0*60
,$GNRMC,000140.00,V,3653.4881,S,17454.6037,E,,,060180,,,N,V*32
,$GNVTG,,T,,M,,N,,K,N*32
,$GNZDA,000140.00,06,01,1980,,*7A
,$PSGSA,1,,,,,,,,,,,,,5.5,5.4,1.0,946,00014000,,,0,00,3,0,B,,0,0,1,0,0,0,0,0,0,,0,1*36
,$GPGGA,000141.00,3653.4881,S,17454.6037,E,0,00,5.4,41.4,M,28.3,M,,*4A
,$GNGLL,3653.4881,S,17454.6037,E,000141.00,V,N*71
,$GNGSA,A,1,,,,,,,,,,,,,5.5,5.4,1.0,*02
,$GPGSV,1,1,01,26,,,00,,,,,,,,,,,,,0*60
,$GNRMC,000141.00,V,3653.4881,S,17454.6037,E,,,060180,,,N,V*33
,$GNVTG,,T,,M,,N,,K,N*32
,$GNZDA,000141.00,06,01,1980,,*7B
,$PSGSA,1,,,,,,,,,,,,,5.5,5.4,1.0,946,00014100,,,0,00,3,0,B,,0,0,1,0,0,0,0,0,0,,0,1*37
,$GPGGA,000142.00,3653.4881,S,17454.6037,E,0,00,5.4,41.4,M,28.3,M,,*49
,$GNGLL,3653.4881,S,17454.6037,E,000142.00,V,N*72
,$GNGSA,A,1,,,,,,,,,,,,,5.5,5.4,1.0,*02
,$GNRMC,000142.00,V,3653.4881,S,17454.6037,E,,,060180,,,N,V*30
,$GNVTG,,T,,M,,N,,K,N*32
,$GNZDA,000142.00,06,01,1980,,*78
,$PSGSA,1,,,,,,,,,,,,,5.5,5.4,1.0,946,00014200,,,0,00,3,0,B,,0,0,0,0,0,0,0,0,0,,0,1*35
,$GPGGA,000143.00,3653.4881,S,17454.6037,E,0,00,5.4,41.4,M,28.3,M,,*48
,$GNGLL,3653.4881,S,17454.6037,E,000143.00,V,N*73
,$GNGSA,A,1,,,,,,,,,,,,,5.5,5.4,1.0,*02
,$GNRMC,000143.00,V,3653.4881,S,17454.6037,E,,,060180,,,N,V*31
,$GNVTG,,T,,M,,N,,K,N*32
,$GNZDA,000143.00,06,01,1980,,*79
,$PSGSA,1,,,,,,,,,,,,,5.5,5.4,1.0,946,00014300,,,0,00,3,0,B,,0,0,0,0,0,0,0,0,0,,0,1*34
,$GPGGA,000144.00,3653.4881,S,17454.6037,E,0,00,5.4,41.4,M,28.3,M,,*4F
,$GNGLL,3653.4881,S,17454.6037,E,000144.00,V,N*74
,$GNGSA,A,1,,,,,,,,,,,,,5.5,5.4,1.0,*02
,$GNRMC,000144.00,V,3653.4881,S,17454.6037,E,,,060180,,,N,V*36
,$GNVTG,,T,,M,,N,,K,N*32
,$GNZDA,000144.00,06,01,1980,,*7E
,$PSGSA,1,,,,,,,,,,,,,5.5,5.4,1.0,946,00014400,,,0,00,3,0,B,,0,0,0,0,0,0,0,0,0,,0,1*33
,$GPGGA,000145.00,3653.4881,S,17454.6037,E,0,00,5.4,41.4,M,28.3,M,,*4E
,$GNGLL,3653.4881,S,17454.6037,E,000145.00,V,N*75
,$GNGSA,A,1,,,,,,,,,,,,,5.5,5.4,1.0,*02
,$GNRMC,000145.00,V,3653.4881,S,17454.6037,E,,,060180,,,N,V*37
,$GNVTG,,T,,M,,N,,K,N*32
,$GNZDA,000145.00,06,01,1980,,*7F
,$PSGSA,1,,,,,,,,,,,,,5.5,5.4,1.0,946,00014500,,,0,00,3,0,B,,0,0,0,0,0,0,0,0,0,,0,1*32
,$GPGGA,000146.00,3653.4881,S,17454.6037,E,0,00,5.4,41.4,M,28.3,M,,*4D
,$GNGLL,3653.4881,S,17454.6037,E,000146.00,V,N*76
,$GNGSA,A,1,,,,,,,,,,,,,5.5,5.4,1.0,*02
,$GPGSV,1,1,01,23,,,27,,,,,,,,,,,,,0*60
,$GNRMC,000146.00,V,3653.4881,S,17454.6037,E,,,060180,,,N,V*34
,$GNVTG,,T,,M,,N,,K,N*32
,$GNZDA,000146.00,06,01,1980,,*7C
,$PSGSA,1,,,,,,,,,,,,,5.5,5.4,1.0,946,00014600,,,0,06,3,0,B,,0,0,1,0,0,0,0,0,0,,0,1*36
,$GPGGA,000147.00,3653.4881,S,17454.6037,E,0,00,5.4,41.4,M,28.3,M,,*4C
,$GNGLL,3653.4881,S,17454.6037,E,000147.00,V,N*77
,$GNGSA,A,1,,,,,,,,,,,,,5.5,5.4,1.0,*02
,$GPGSV,1,1,01,23,,,23,,,,,,,,,,,,,0*64
,$GNRMC,000147.00,V,3653.4881,S,17454.6037,E,,,060180,,,N,V*35
,$GNVTG,,T,,M,,N,,K,N*32
,$GNZDA,000147.00,06,01,1980,,*7D
,$PSGSA,1,,,,,,,,,,,,,5.5,5.4,1.0,946,00014700,,,0,05,3,0,B,,0,0,1,0,0,0,0,0,0,,0,1*34
,$GPGGA,000148.00,3653.4881,S,17454.6037,E,0,00,5.4,41.4,M,28.3,M,,*43
,$GNGLL,3653.4881,S,17454.6037,E,000148.00,V,N*78
,$GNGSA,A,1,,,,,,,,,,,,,5.5,5.4,1.0,*02
,$GPGSV,1,1,01,23,,,27,,,,,,,,,,,,,0*60
,$GNRMC,000148.00,V,3653.4881,S,17454.6037,E,,,060180,,,N,V*3A
,$GNVTG,,T,,M,,N,,K,N*32
,$GNZDA,000148.00,06,01,1980,,*72
,$PSGSA,1,,,,,,,,,,,,,5.5,5.4,1.0,946,00014800,,,0,06,3,0,B,,0,0,1,0,0,0,0,0,0,,0,1*38
,$GPGGA,000149.00,3653.4881,S,17454.6037,E,0,00,5.4,41.4,M,28.3,M,,*42
,$GNGLL,3653.4881,S,17454.6037,E,000149.00,V,N*79
,$GNGSA,A,1,,,,,,,,,,,,,5.5,5.4,1.0,*02
,$GPGSV,1,1,01,23,,,30,,,,,,,,,,,,,0*66
,$GNRMC,000149.00,V,3653.4881,S,17454.6037,E,,,060180,,,N,V*3B
,$GNVTG,,T,,M,,N,,K,N*32
,$GNZDA,000149.00,06,01,1980,,*73
,$PSGSA,1,,,,,,,,,,,,,5.5,5.4,1.0,946,00014900,,,0,07,3,0,B,,0,0,1,0,0,0,0,0,0,,0,1*38
,$GPGGA,000150.00,3653.4881,S,17454.6037,E,0,00,5.4,41.4,M,28.3,M,,*4A
,$GNGLL,3653.4881,S,17454.6037,E,000150.00,V,N*71
,$GNGSA,A,1,,,,,,,,,,,,,5.5,5.4,1.0,*02
,$GPGSV,1,1,02,10,,,24,23,,,25,,,,,,,,,0*66
,$GNRMC,000150.00,V,3653.4881,S,17454.6037,E,,,060180,,,N,V*33
,$GNVTG,,T,,M,,N,,K,N*32
,$GNZDA,000150.00,06,01,1980,,*7B
,$PSGSA,1,,,,,,,,,,,,,5.5,5.4,1.0,946,00015000,,,0,12,3,0,B,,0,0,2,0,0,0,0,0,0,,0,1*37
,$GPGGA,000151.00,3653.4881,S,17454.6037,E,0,00,5.4,41.4,M,28.3,M,,*4B
,$GNGLL,3653.4881,S,17454.6037,E,000151.00,V,N*70
,$GNGSA,A,1,,,,,,,,,,,,,5.5,5.4,1.0,*02
,$GPGSV,1,1,02,10,,,22,23,,,24,,,,,,,,,0*61
,$GNRMC,000151.00,V,3653.4881,S,17454.6037,E,,,060180,,,N,V*32
,$GNVTG,,T,,M,,N,,K,N*32
,$GNZDA,000151.00,06,01,1980,,*7A
,$PSGSA,1,,,,,,,,,,,,,5.5,5.4,1.0,946,00015100,,,0,11,3,0,B,,0,0,2,0,0,0,0,0,0,,0,1*35
,$GPGGA,000152.00,3653.4881,S,17454.6037,E,0,00,5.4,41.4,M,28.3,M,,*48
,$GNGLL,3653.4881,S,17454.6037,E,000152.00,V,N*73
,$GNGSA,A,1,,,,,,,,,,,,,5.5,5.4,1.0,*02
,$GPGSV,1,1,02,10,,,22,23,,,20,,,,,,,,,0*65
,$GNRMC,000152.00,V,3653.4881,S,17454.6037,E,,,060180,,,N,V*31
,$GNVTG,,T,,M,,N,,K,N*32
,$GNZDA,000152.00,06,01,1980,,*79
,$PSGSA,1,,,,,,,,,,,,,5.5,5.4,1.0,946,00015200,,,0,10,3,0,B,,0,0,2,0,0,0,0,0,0,,0,1*37
,$GPGGA,000153.00,3653.4881,S,17454.6037,E,0,00,5.4,41.4,M,28.3,M,,*49
,$GNGLL,3653.4881,S,17454.6037,E,000153.00,V,N*72
,$GNGSA,A,1,,,,,,,,,,,,,5.5,5.4,1.0,*02
,$GPGSV,1,1,02,10,,,21,23,,,20,,,,,,,,,0*66
,$GNRMC,000153.00,V,3653.4881,S,17454.6037,E,,,060180,,,N,V*30
,$GNVTG,,T,,M,,N,,K,N*32
,$GNZDA,000153.00,06,01,1980,,*78
,$PSGSA,1,,,,,,,,,,,,,5.5,5.4,1.0,946,00015300,,,0,10,3,0,B,,0,0,2,0,0,0,0,0,0,,0,1*36
,$GPGGA,000154.00,3653.4881,S,17454.6037,E,0,00,5.4,41.4,M,28.3,M,,*4E
,$GNGLL,3653.4881,S,17454.6037,E,000154.00,V,N*75
,$GNGSA,A,1,,,,,,,,,,,,,5.5,5.4,1.0,*02
,$GPGSV,1,1,02,10,,,17,23,,,14,,,,,,,,,0*64
,$GNRMC,000154.00,V,3653.4881,S,17454.6037,E,,,060180,,,N,V*37
,$GNVTG,,T,,M,,N,,K,N*32
,$GNZDA,000154.00,06,01,1980,,*7F
,$PSGSA,1,,,,,,,,,,,,,5.5,5.4,1.0,946,00015400,,,0,07,3,0,B,,0,0,2,0,0,0,0,0,0,,0,1*37
,$GPGGA,000155.00,3653.4881,S,17454.6037,E,0,00,5.4,41.4,M,28.3,M,,*4F
,$GNGLL,3653.4881,S,17454.6037,E,000155.00,V,N*74
,$GNGSA,A,1,,,,,,,,,,,,,5.5,5.4,1.0,*02
,$GPGSV,1,1,02,10,,,16,23,,,15,,,,,,,,,0*64
,$GNRMC,000155.00,V,3653.4881,S,17454.6037,E,,,060180,,,N,V*36
,$GNVTG,,T,,M,,N,,K,N*32
,$GNZDA,000155.00,06,01,1980,,*7E
,$PSGSA,1,,,,,,,,,,,,,5.5,5.4,1.0,946,00015500,,,0,07,3,0,B,,0,0,2,0,0,0,0,0,0,,0,1*36
,$GPGGA,000156.00,3653.4881,S,17454.6037,E,0,00,5.4,41.4,M,28.3,M,,*4C
,$GNGLL,3653.4881,S,17454.6037,E,000156.00,V,N*77
,$GNGSA,A,1,,,,,,,,,,,,,5.5,5.4,1.0,*02
,$GPGSV,1,1,01,23,,,11,,,,,,,,,,,,,0*65
,$GNRMC,000156.00,V,3653.4881,S,17454.6037,E,,,060180,,,N,V*35
,$GNVTG,,T,,M,,N,,K,N*32
,$GNZDA,000156.00,06,01,1980,,*7D
,$PSGSA,1,,,,,,,,,,,,,5.5,5.4,1.0,946,00015600,,,0,02,3,0,B,,0,0,1,0,0,0,0,0,0,,0,1*33
,$GPGGA,000157.00,3653.4881,S,17454.6037,E,0,00,5.4,41.4,M,28.3,M,,*4D
,$GNGLL,3653.4881,S,17454.6037,E,000157.00,V,N*76
,$GNGSA,A,1,,,,,,,,,,,,,5.5,5.4,1.0,*02
,$GPGSV,1,1,01,23,,,11,,,,,,,,,,,,,0*65
,$GNRMC,000157.00,V,3653.4881,S,17454.6037,E,,,060180,,,N,V*34
,$GNVTG,,T,,M,,N,,K,N*32
,$GNZDA,000157.00,06,01,1980,,*7C
,$PSGSA,1,,,,,,,,,,,,,5.5,5.4,1.0,946,00015700,,,0,02,3,0,B,,0,0,1,0,0,0,0,0,0,,0,1*32
,$GPGGA,000158.00,3653.4881,S,17454.6037,E,0,00,5.4,41.4,M,28.3,M,,*42
,$GNGLL,3653.4881,S,17454.6037,E,000158.00,V,N*79
,$GNGSA,A,1,,,,,,,,,,,,,5.5,5.4,1.0,*02
,$GPGSV,1,1,01,23,,,15,,,,,,,,,,,,,0*61
,$GNRMC,000158.00,V,3653.4881,S,17454.6037,E,,,060180,,,N,V*3B
,$GNVTG,,T,,M,,N,,K,N*32
,$GNZDA,000158.00,06,01,1980,,*73
,$PSGSA,1,,,,,,,,,,,,,5.5,5.4,1.0,946,00015800,,,0,03,3,0,B,,0,0,1,0,0,0,0,0,0,,0,1*3C
,$GPGGA,000159.00,3653.4881,S,17454.6037,E,0,00,5.4,41.4,M,28.3,M,,*43
,$GNGLL,3653.4881,S,17454.6037,E,000159.00,V,N*78
,$GNGSA,A,1,,,,,,,,,,,,,5.5,5.4,1.0,*02
,$GPGSV,1,1,01,23,,,15,,,,,,,,,,,,,0*61
,$GNRMC,000159.00,V,3653.4881,S,17454.6037,E,,,060180,,,N,V*3A
,$GNVTG,,T,,M,,N,,K,N*32
,$GNZDA,000159.00,06,01,1980,,*72
,$PSGSA,1,,,,,,,,,,,,,5.5,5.4,1.0,946,00015900,,,0,03,3,0,B,,0,0,1,0,0,0,0,0,0,,0,1*3D
,$GPGGA,000200.00,3653.4881,S,17454.6037,E,0,00,5.4,41.4,M,28.3,M,,*4C
,$GNGLL,3653.4881,S,17454.6037,E,000200.00,V,N*77
,$GNGSA,A,1,,,,,,,,,,,,,5.5,5.4,1.0,*02
,$GPGSV,1,1,01,23,,,21,,,,,,,,,,,,,0*66
,$GNRMC,000200.00,V,3653.4881,S,17454.6037,E,,,060180,,,N,V*35
,$GNVTG,,T,,M,,N,,K,N*32
,$GNZDA,000200.00,06,01,1980,,*7D
,$PSGSA,1,,,,,,,,,,,,,5.5,5.4,1.0,946,00020000,,,0,05,3,0,B,,0,0,1,0,0,0,0,0,0,,0,1*34
,$GPGGA,000201.00,3653.4881,S,17454.6037,E,0,00,5.4,41.4,M,28.3,M,,*4D
,$GNGLL,3653.4881,S,17454.6037,E,000201.00,V,N*76
,$GNGSA,A,1,,,,,,,,,,,,,5.5,5.4,1.0,*02
,$GPGSV,1,1,01,23,,,24,,,,,,,,,,,,,0*63
,$GNRMC,000201.00,V,3653.4881,S,17454.6037,E,,,060180,,,N,V*34
,$GNVTG,,T,,M,,N,,K,N*32
,$GNZDA,000201.00,06,01,1980,,*7C
,$PSGSA,1,,,,,,,,,,,,,5.5,5.4,1.0,946,00020100,,,0,06,3,0,B,,0,0,1,0,0,0,0,0,0,,0,1*36
,$GPGGA,000202.00,3653.4881,S,17454.6037,E,0,00,5.4,41.4,M,28.3,M,,*4E
,$GNGLL,3653.4881,S,17454.6037,E,000202.00,V,N*75
,$GNGSA,A,1,,,,,,,,,,,,,5.5,5.4,1.0,*02
,$GPGSV,1,1,02,02,,,17,23,,,27,,,,,,,,,0*67
,$GNRMC,000202.00,V,3653.4881,S,17454.6037,E,,,060180,,,N,V*37
,$GNVTG,,T,,M,,N,,K,N*32
,$GNZDA,000202.00,06,01,1980,,*7F
,$PSGSA,1,,,,,,,,,,,,,5.5,5.4,1.0,946,00020200,,,0,11,3,0,B,,0,0,2,0,0,0,0,0,0,,0,1*30
,$GPGGA,000203.00,3653.4881,S,17454.6037,E,0,00,5.4,41.4,M,28.3,M,,*4F
,$GNGLL,3653.4881,S,17454.6037,E,000203.00,V,N*74
,$GNGSA,A,1,,,,,,,,,,,,,5.5,5.4,1.0,*02
,$GPGSV,1,1,02,02,,,14,23,,,19,,,,,,,,,0*69
,$GQGSV,1,1,01,55,,,09,,,,,,,,,,,,,0*6C
,$GNRMC,000203.00,V,3653.4881,S,17454.6037,E,,,060180,,,N,V*36
,$GNVTG,,T,,M,,N,,K,N*32
,$GNZDA,000203.00,06,01,1980,,*7E
,$PSGSA,1,,,,,,,,,,,,,5.5,5.4,1.0,946,00020300,,,0,10,3,0,B,,0,0,3,0,0,0,0,0,0,,0,1*31
,$GPGGA,000204.00,3653.4881,S,17454.6037,E,0,00,5.4,41.4,M,28.3,M,,*48
,$GNGLL,3653.4881,S,17454.6037,E,000204.00,V,N*73
,$GNGSA,A,1,,,,,,,,,,,,,5.5,5.4,1.0,*02
,$GPGSV,1,1,03,02,,,13,23,,,19,32,,,19,,,,,0*66
,$GQGSV,1,1,01,55,,,09,,,,,,,,,,,,,0*6C
,$GNRMC,000204.00,V,3653.4881,S,17454.6037,E,,,060180,,,N,V*31
,$GNVTG,,T,,M,,N,,K,N*32
,$GNZDA,000204.00,06,01,1980,,*79
,$PSGSA,1,,,,,,,,,,,,,5.5,5.4,1.0,946,00020400,,,0,15,3,0,B,,0,0,4,0,0,0,0,0,0,,0,1*34
,$GPGGA,000205.00,3653.4881,S,17454.6037,E,0,00,5.4,41.4,M,28.3,M,,*49
,$GNGLL,3653.4881,S,17454.6037,E,000205.00,V,N*72
,$GNGSA,A,1,,,,,,,,,,,,,5.5,5.4,1.0,*02
,$GPGSV,1,1,03,02,,,06,23,,,22,32,,,27,,,,,0*67
,$GNRMC,000205.00,V,3653.4881,S,17454.6037,E,,,060180,,,N,V*30
,$GNVTG,,T,,M,,N,,K,N*32
,$GNZDA,000205.00,06,01,1980,,*78
,$PSGSA,1,,,,,,,,,,,,,5.5,5.4,1.0,946,00020500,,,0,13,3,0,B,,0,0,3,0,0,0,0,0,0,,0,1*34
,$GPGGA,000206.00,3653.4881,S,17454.6037,E,0,00,5.4,41.4,M,28.3,M,,*4A
,$GNGLL,3653.4881,S,17454.6037,E,000206.00,V,N*71
,$GNGSA,A,1,,,,,,,,,,,,,5.5,5.4,1.0,*02
,$GPGSV,1,1,03,02,,,10,23,,,22,32,,,26,,,,,0*61
,$GNRMC,000206.00,V,3653.4881,S,17454.6037,E,,,060180,,,N,V*33
,$GNVTG,,T,,M,,N,,K,N*32
,$GNZDA,000206.00,06,01,1980,,*7B
,$PSGSA,1,,,,,,,,,,,,,5.5,5.4,1.0,946,00020600,,,0,14,3,0,B,,0,0,3,0,0,0,0,0,0,,0,1*30
,$GPGGA,000207.00,3653.4881,S,17454.6037,E,0,00,5.4,41.4,M,28.3,M,,*4B
,$GNGLL,3653.4881,S,17454.6037,E,000207.00,V,N*70
,$GNGSA,A,1,,,,,,,,,,,,,5.5,5.4,1.0,*02
,$GPGSV,1,1,03,02,,,12,23,,,23,32,,,29,,,,,0*6D
,$GNRMC,000207.00,V,3653.4881,S,17454.6037,E,,,060180,,,N,V*32
,$GNVTG,,T,,M,,N,,K,N*32
,$GNZDA,000207.00,06,01,1980,,*7A
,$PSGSA,1,,,,,,,,,,,,,5.5,5.4,1.0,946,00020700,,,0,16,3,0,B,,0,0,3,0,0,0,0,0,0,,0,1*33
,$GPGGA,000208.00,3653.4881,S,17454.6037,E,0,00,5.4,41.4,M,28.3,M,,*44
,$GNGLL,3653.4881,S,17454.6037,E,000208.00,V,N*7F
,$GNGSA,A,1,,,,,,,,,,,,,5.5,5.4,1.0,*02
,$GPGSV,1,1,03,02,,,12,23,,,21,32,,,29,,,,,0*6F
,$GNRMC,000208.00,V,3653.4881,S,17454.6037,E,,,060180,,,N,V*3D
,$GNVTG,,T,,M,,N,,K,N*32
,$GNZDA,000208.00,06,01,1980,,*75
,$PSGSA,1,,,,,,,,,,,,,5.5,5.4,1.0,946,00020800,,,0,15,3,0,B,,0,0,3,0,0,0,0,0,0,,0,1*3F
,$GPGGA,000209.00,3653.4881,S,17454.6037,E,0,00,5.4,41.4,M,28.3,M,,*45
,$GNGLL,3653.4881,S,17454.6037,E,000209.00,V,N*7E
,$GNGSA,A,1,,,,,,,,,,,,,5.5,5.4,1.0,*02
,$GPGSV,1,1,02,23,,,21,32,,,29,,,,,,,,,0*6F
,$GNRMC,000209.00,V,3653.4881,S,17454.6037,E,,,060180,,,N,V*3C
,$GNVTG,,T,,M,,N,,K,N*32
,$GNZDA,000209.00,06,01,1980,,*74
,$PSGSA,1,,,,,,,,,,,,,5.5,5.4,1.0,946,00020900,,,0,12,3,0,B,,0,0,2,0,0,0,0,0,0,,0,1*38
,$GPGGA,000210.00,3653.4881,S,17454.6037,E,0,00,5.4,41.4,M,28.3,M,,*4D
,$GNGLL,3653.4881,S,17454.6037,E,000210.00,V,N*76
,$GNGSA,A,1,,,,,,,,,,,,,5.5,5.4,1.0,*02
,$GPGSV,1,1,02,23,,,20,32,,,30,,,,,,,,,0*66
,$GNRMC,000210.00,V,3653.4881,S,17454.6037,E,,,060180,,,N,V*34
,$GNVTG,,T,,M,,N,,K,N*32
,$GNZDA,000210.00,06,01,1980,,*7C
,$PSGSA,1,,,,,,,,,,,,,5.5,5.4,1.0,946,00021000,,,0,12,3,0,B,,0,0,2,0,0,0,0,0,0,,0,1*30
,$GPGGA,000211.00,3653.4881,S,17454.6037,E,0,00,5.4,41.4,M,28.3,M,,*4C
,$GNGLL,3653.4881,S,17454.6037,E,000211.00,V,N*77
,$GNGSA,A,1,,,,,,,,,,,,,5.5,5.4,1.0,*02
,$GPGSV,1,1,02,23,,,20,32,,,30,,,,,,,,,0*66
,$GNRMC,000211.00,V,3653.4881,S,17454.6037,E,,,060180,,,N,V*35
,$GNVTG,,T,,M,,N,,K,N*32
,$GNZDA,000211.00,06,01,1980,,*7D
,$PSGSA,1,,,,,,,,,,,,,5.5,5.4,1.0,946,00021100,,,0,12,3,0,B,,0,0,2,0,0,0,0,0,0,,0,1*31
,$GPGGA,000212.00,3653.4881,S,17454.6037,E,0,00,5.4,41.4,M,28.3,M,,*4F
,$GNGLL,3653.4881,S,17454.6037,E,000212.00,V,N*74
,$GNGSA,A,1,,,,,,,,,,,,,5.5,5.4,1.0,*02
,$GPGSV,1,1,02,23,,,20,32,,,29,,,,,,,,,0*6E
,$GNRMC,000212.00,V,3653.4881,S,17454.6037,E,,,060180,,,N,V*36
,$GNVTG,,T,,M,,N,,K,N*32
,$GNZDA,000212.00,06,01,1980,,*7E
,$PSGSA,1,,,,,,,,,,,,,5.5,5.4,1.0,946,00021200,,,0,12,3,0,B,,0,0,2,0,0,0,0,0,0,,0,1*32
,$GPGGA,000213.00,3653.4881,S,17454.6037,E,0,00,5.4,41.4,M,28.3,M,,*4E
,$GNGLL,3653.4881,S,17454.6037,E,000213.00,V,N*75
,$GNGSA,A,1,,,,,,,,,,,,,5.5,5.4,1.0,*02
,$GPGSV,1,1,02,23,,,21,32,,,30,,,,,,,,,0*67
,$GNRMC,000213.00,V,3653.4881,S,17454.6037,E,,,060180,,,N,V*37
,$GNVTG,,T,,M,,N,,K,N*32
,$GNZDA,000213.00,06,01,1980,,*7F
,$PSGSA,1,,,,,,,,,,,,,5.5,5.4,1.0,946,00021300,,,0,12,3,0,B,,0,0,2,0,0,0,0,0,0,,0,1*33
,$GPGGA,000214.00,3653.4881,S,17454.6037,E,0,00,5.4,41.4,M,28.3,M,,*49
,$GNGLL,3653.4881,S,17454.6037,E,000214.00,V,N*72
,$GNGSA,A,1,,,,,,,,,,,,,5.5,5.4,1.0,*02
,$GPGSV,1,1,02,23,,,22,32,,,29,,,,,,,,,0*6C
,$GNRMC,000214.00,V,3653.4881,S,17454.6037,E,,,060180,,,N,V*30
,$GNVTG,,T,,M,,N,,K,N*32
,$GNZDA,000214.00,06,01,1980,,*78
,$PSGSA,1,,,,,,,,,,,,,5.5,5.4,1.0,946,00021400,,,0,12,3,0,B,,0,0,2,0,0,0,0,0,0,,0,1*34
,$GPGGA,000215.00,3653.4881,S,17454.6037,E,0,00,5.4,41.4,M,28.3,M,,*48
,$GNGLL,3653.4881,S,17454.6037,E,000215.00,V,N*73
,$GNGSA,A,1,,,,,,,,,,,,,5.5,5.4,1.0,*02
,$GPGSV,1,1,02,23,,,21,32,,,30,,,,,,,,,0*67
,$GNRMC,000215.00,V,3653.4881,S,17454.6037,E,,,060180,,,N,V*31
,$GNVTG,,T,,M,,N,,K,N*32
,$GNZDA,000215.00,06,01,1980,,*79
,$PSGSA,1,,,,,,,,,,,,,5.5,5.4,1.0,946,00021500,,,0,12,3,0,B,,0,0,2,0,0,0,0,0,0,,0,1*35
,$GPGGA,000216.00,3653.4881,S,17454.6037,E,0,00,5.4,41.4,M,28.3,M,,*4B
,$GNGLL,3653.4881,S,17454.6037,E,000216.00,V,N*70
,$GNGSA,A,1,,,,,,,,,,,,,5.5,5.4,1.0,*02
,$GPGSV,1,1,02,23,,,20,32,,,30,,,,,,,,,0*66
,$GNRMC,000216.00,V,3653.4881,S,17454.6037,E,,,060180,,,N,V*32
,$GNVTG,,T,,M,,N,,K,N*32
,$GNZDA,000216.00,06,01,1980,,*7A
,$PSGSA,1,,,,,,,,,,,,,5.5,5.4,1.0,946,00021600,,,0,12,3,0,B,,0,0,2,0,0,0,0,0,0,,0,1*36
,$GPGGA,000217.00,3653.4881,S,17454.6037,E,0,00,5.4,41.4,M,28.3,M,,*4A
,$GNGLL,3653.4881,S,17454.6037,E,000217.00,V,N*71
,$GNGSA,A,1,,,,,,,,,,,,,5.5,5.4,1.0,*02
,$GPGSV,1,1,02,23,,,20,32,,,29,,,,,,,,,0*6E
,$GNRMC,000217.00,V,3653.4881,S,17454.6037,E,,,060180,,,N,V*33
,$GNVTG,,T,,M,,N,,K,N*32
,$GNZDA,000217.00,06,01,1980,,*7B
,$PSGSA,1,,,,,,,,,,,,,5.5,5.4,1.0,946,00021700,,,0,12,3,0,B,,0,0,2,0,0,0,0,0,0,,0,1*37
,$GPGGA,000218.00,3653.4881,S,17454.6037,E,0,00,5.4,41.4,M,28.3,M,,*45
,$GNGLL,3653.4881,S,17454.6037,E,000218.00,V,N*7E
,$GNGSA,A,1,,,,,,,,,,,,,5.5,5.4,1.0,*02
,$GPGSV,1,1,02,23,,,21,32,,,29,,,,,,,,,0*6F
,$GNRMC,000218.00,V,3653.4881,S,17454.6037,E,,,060180,,,N,V*3C
,$GNVTG,,T,,M,,N,,K,N*32
,$GNZDA,000218.00,06,01,1980,,*74
,$PSGSA,1,,,,,,,,,,,,,5.5,5.4,1.0,946,00021800,,,0,12,3,0,B,,0,0,2,0,0,0,0,0,0,,0,1*38
,$GPGGA,000219.00,3653.4881,S,17454.6037,E,0,00,5.4,41.4,M,28.3,M,,*44
,$GNGLL,3653.4881,S,17454.6037,E,000219.00,V,N*7F
,$GNGSA,A,1,,,,,,,,,,,,,5.5,5.4,1.0,*02
,$GPGSV,1,1,02,23,,,19,32,,,30,,,,,,,,,0*6C
,$GNRMC,000219.00,V,3653.4881,S,17454.6037,E,,,060180,,,N,V*3D
,$GNVTG,,T,,M,,N,,K,N*32
,$GNZDA,000219.00,06,01,1980,,*75
,$PSGSA,1,,,,,,,,,,,,,5.5,5.4,1.0,946,00021900,,,0,12,3,0,B,,0,0,1,1,0,0,0,0,0,,0,1*3B
,$GPGGA,000220.00,3653.4881,S,17454.6037,E,0,00,5.4,41.4,M,28.3,M,,*4E
,$GNGLL,3653.4881,S,17454.6037,E,000220.00,V,N*75
,$GNGSA,A,1,,,,,,,,,,,,,5.5,5.4,1.0,*02
,$GPGSV,1,1,02,23,,,20,32,,,29,,,,,,,,,0*6E
,$GNRMC,000220.00,V,3653.4881,S,17454.6037,E,,,060180,,,N,V*37
,$GNVTG,,T,,M,,N,,K,N*32
,$GNZDA,000220.00,06,01,1980,,*7F
,$PSGSA,1,,,,,,,,,,,,,5.5,5.4,1.0,946,00022000,,,0,12,3,0,B,,0,0,1,1,0,0,0,0,0,,0,1*31
,$GPGGA,000221.00,3653.4881,S,17454.6037,E,0,00,5.4,41.4,M,28.3,M,,*4F
,$GNGLL,3653.4881,S,17454.6037,E,000221.00,V,N*74
,$GNGSA,A,1,,,,,,,,,,,,,5.5,5.4,1.0,*02
,$GPGSV,1,1,02,23,,,19,32,,,29,,,,,,,,,0*64
,$GNRMC,000221.00,V,3653.4881,S,17454.6037,E,,,060180,,,N,V*36
,$GNVTG,,T,,M,,N,,K,N*32
,$GNZDA,000221.00,06,01,1980,,*7E
,$PSGSA,1,,,,,,,,,,,,,5.5,5.4,1.0,946,00022100,,,0,12,3,0,B,,0,0,1,1,0,0,0,0,0,,0,1*30
,$GPGGA,000222.00,3653.4881,S,17454.6037,E,0,00,5.4,41.4,M,28.3,M,,*4C
,$GNGLL,3653.4881,S,17454.6037,E,000222.00,V,N*77
,$GNGSA,A,1,,,,,,,,,,,,,5.5,5.4,1.0,*02
,$GPGSV,1,1,02,23,,,19,32,,,29,,,,,,,,,0*64
,$GNRMC,000222.00,V,3653.4881,S,17454.6037,E,,,060180,,,N,V*35
,$GNVTG,,T,,M,,N,,K,N*32
,$GNZDA,000222.00,06,01,1980,,*7D
,$PSGSA,1,,,,,,,,,,,,,5.5,5.4,1.0,946,00022200,,,0,12,3,0,B,,0,0,1,1,0,0,0,0,0,,0,1*33
,$GPGGA,000223.00,3653.4881,S,17454.6037,E,0,00,5.4,41.4,M,28.3,M,,*4D
,$GNGLL,3653.4881,S,17454.6037,E,000223.00,V,N*76
,$GNGSA,A,1,,,,,,,,,,,,,5.5,5.4,1.0,*02
,$GPGSV,1,1,02,23,,,20,32,,,29,,,,,,,,,0*6E
,$GNRMC,000223.00,V,3653.4881,S,17454.6037,E,,,060180,,,N,V*34
,$GNVTG,,T,,M,,N,,K,N*32
,$GNZDA,000223.00,06,01,1980,,*7C
,$PSGSA,1,,,,,,,,,,,,,5.5,5.4,1.0,946,00022300,,,0,12,3,0,B,,0,0,1,1,0,0,0,0,0,,0,1*32
,$GPGGA,000224.00,3653.4881,S,17454.6037,E,0,00,5.4,41.4,M,28.3,M,,*4A
,$GNGLL,3653.4881,S,17454.6037,E,000224.00,V,N*71
,$GNGSA,A,1,,,,,,,,,,,,,5.5,5.4,1.0,*02
,$GPGSV,1,1,02,23,,,21,32,,,29,,,,,,,,,0*6F
,$GNRMC,000224.00,V,3653.4881,S,17454.6037,E,,,060180,,,N,V*33
,$GNVTG,,T,,M,,N,,K,N*32
,$GNZDA,000224.00,06,01,1980,,*7B
,$PSGSA,1,,,,,,,,,,,,,5.5,5.4,1.0,946,00022400,,,0,12,3,0,B,,0,0,1,1,0,0,0,0,0,,0,1*35
,$GPGGA,000225.00,3653.4881,S,17454.6037,E,0,00,5.4,41.4,M,28.3,M,,*4B
,$GNGLL,3653.4881,S,17454.6037,E,000225.00,V,N*70
,$GNGSA,A,1,,,,,,,,,,,,,5.5,5.4,1.0,*02
,$GPGSV,1,1,02,23,,,20,32,,,30,,,,,,,,,0*66
,$GNRMC,000225.00,V,3653.4881,S,17454.6037,E,,,060180,,,N,V*32
,$GNVTG,,T,,M,,N,,K,N*32
,$GNZDA,000225.00,06,01,1980,,*7A
,$PSGSA,1,,,,,,,,,,,,,5.5,5.4,1.0,946,00022500,,,0,12,3,0,B,,0,0,1,1,0,0,0,0,0,,0,1*34
,$GPGGA,000226.00,3653.4881,S,17454.6037,E,0,00,5.4,41.4,M,28.3,M,,*48
,$GNGLL,3653.4881,S,17454.6037,E,000226.00,V,N*73
,$GNGSA,A,1,,,,,,,,,,,,,5.5,5.4,1.0,*02
,$GPGSV,1,1,02,23,,,19,32,,,30,,,,,,,,,0*6C
,$GNRMC,000226.00,V,3653.4881,S,17454.6037,E,,,060180,,,N,V*31
,$GNVTG,,T,,M,,N,,K,N*32
,$GNZDA,000226.00,06,01,1980,,*79
,$PSGSA,1,,,,,,,,,,,,,5.5,5.4,1.0,946,00022600,,,0,12,3,0,B,,0,0,1,1,0,0,0,0,0,,0,1*37
,$GPGGA,000227.00,3653.4881,S,17454.6037,E,0,00,5.4,41.4,M,28.3,M,,*49
,$GNGLL,3653.4881,S,17454.6037,E,000227.00,V,N*72
,$GNGSA,A,1,,,,,,,,,,,,,5.5,5.4,1.0,*02
,$GPGSV,1,1,02,23,,,19,32,,,29,,,,,,,,,0*64
,$GNRMC,000227.00,V,3653.4881,S,17454.6037,E,,,060180,,,N,V*30
,$GNVTG,,T,,M,,N,,K,N*32
,$GNZDA,000227.00,06,01,1980,,*78
,$PSGSA,1,,,,,,,,,,,,,5.5,5.4,1.0,946,00022700,,,0,12,3,0,B,,0,0,1,1,0,0,0,0,0,,0,1*36
,$GPGGA,000228.00,3653.4881,S,17454.6037,E,0,00,5.4,41.4,M,28.3,M,,*46
,$GNGLL,3653.4881,S,17454.6037,E,000228.00,V,N*7D
,$GNGSA,A,1,,,,,,,,,,,,,5.5,5.4,1.0,*02
,$GPGSV,1,1,02,23,,,20,32,,,29,,,,,,,,,0*6E
,$GNRMC,000228.00,V,3653.4881,S,17454.6037,E,,,060180,,,N,V*3F
,$GNVTG,,T,,M,,N,,K,N*32
,$GNZDA,000228.00,06,01,1980,,*77
,$PSGSA,1,,,,,,,,,,,,,5.5,5.4,1.0,946,00022800,,,0,12,3,0,B,,0,0,1,1,0,0,0,0,0,,0,1*39
,$GPGGA,000229.00,3653.4881,S,17454.6037,E,0,00,5.4,41.4,M,28.3,M,,*47
,$GNGLL,3653.4881,S,17454.6037,E,000229.00,V,N*7C
,$GNGSA,A,1,,,,,,,,,,,,,5.5,5.4,1.0,*02
,$GPGSV,1,1,02,23,,,18,32,,,29,,,,,,,,,0*65
,$GNRMC,000229.00,V,3653.4881,S,17454.6037,E,,,060180,,,N,V*3E
,$GNVTG,,T,,M,,N,,K,N*32
,$GNZDA,000229.00,06,01,1980,,*76
,$PSGSA,1,,,,,,,,,,,,,5.5,5.4,1.0,946,00022900,,,0,11,3,0,B,,0,0,1,1,0,0,0,0,0,,0,1*3B
,$GPGGA,000230.00,3653.4881,S,17454.6037,E,0,00,5.4,41.4,M,28.3,M,,*4F
,$GNGLL,3653.4881,S,17454.6037,E,000230.00,V,N*74
,$GNGSA,A,1,,,,,,,,,,,,,5.5,5.4,1.0,*02
,$GPGSV,1,1,02,23,,,18,32,,,29,,,,,,,,,0*65
,$GNRMC,000230.00,V,3653.4881,S,17454.6037,E,,,060180,,,N,V*36
,$GNVTG,,T,,M,,N,,K,N*32
,$GNZDA,000230.00,06,01,1980,,*7E
,$PSGSA,1,,,,,,,,,,,,,5.5,5.4,1.0,946,00023000,,,0,11,3,0,B,,0,0,1,1,0,0,0,0,0,,0,1*33
,$GPGGA,000231.00,3653.4881,S,17454.6037,E,0,00,5.4,41.4,M,28.3,M,,*4E
,$GNGLL,3653.4881,S,17454.6037,E,000231.00,V,N*75
,$GNGSA,A,1,,,,,,,,,,,,,5.5,5.4,1.0,*02
,$GPGSV,1,1,02,23,,,20,32,,,29,,,,,,,,,0*6E
,$GNRMC,000231.00,V,3653.4881,S,17454.6037,E,,,060180,,,N,V*37
,$GNVTG,,T,,M,,N,,K,N*32
,$GNZDA,000231.00,06,01,1980,,*7F
,$PSGSA,1,,,,,,,,,,,,,5.5,5.4,1.0,946,00023100,,,0,12,3,0,B,,0,0,1,1,0,0,0,0,0,,0,1*31
,$GPGGA,000232.00,3653.4881,S,17454.6037,E,0,00,5.4,41.4,M,28.3,M,,*4D
,$GNGLL,3653.4881,S,17454.6037,E,000232.00,V,N*76
,$GNGSA,A,1,,,,,,,,,,,,,5.5,5.4,1.0,*02
,$GPGSV,1,1,02,23,,,20,32,,,29,,,,,,,,,0*6E
,$GNRMC,000232.00,V,3653.4881,S,17454.6037,E,,,060180,,,N,V*34
,$GNVTG,,T,,M,,N,,K,N*32
,$GNZDA,000232.00,06,01,1980,,*7C
