,$GNRMC,220800.00,A,3653.49356,S,17454.61113,E,0.614,319.37,150621,,,A*61
,$GNVTG,319.37,T,,M,0.614,N,1.137,K,A*2B
,$GNGGA,220800.00,3653.49356,S,17454.61113,E,1,12,0.67,26.1,M,28.1,M,,*62
,$GNGSA,A,3,10,23,25,32,21,31,,,,,,,1.48,0.67,1.32*17
,$GNGSA,A,3,65,81,74,87,88,66,72,76,,,,,1.48,0.67,1.32*12
,$GPGSV,3,1,12,01,13,218,20,08,02,277,13,10,61,084,44,12,13,107,33*75
,$GPGSV,3,2,12,21,29,234,34,23,30,066,38,24,08,138,16,25,18,073,31*73
,$GPGSV,3,3,12,27,00,306,,31,34,343,34,32,70,190,40,48,15,071,*78
,$GLGSV,3,1,10,65,52,147,37,66,31,235,39,72,20,104,34,74,23,142,21*6B
,$GLGSV,3,2,10,75,48,079,41,76,21,018,31,81,32,244,36,82,07,201,24*6E
,$GLGSV,3,3,10,87,07,340,24,88,30,307,31*68
,$GNGLL,3653.49356,S,17454.61113,E,220800.00,A,A*6B
,$GNRMC,220801.00,A,3653.49350,S,17454.61100,E,0.557,312.70,150621,,,A*68
,$GNVTG,312.70,T,,M,0.557,N,1.032,K,A*23
,$GNGGA,220801.00,3653.49350,S,17454.61100,E,1,12,0.67,26.1,M,28.1,M,,*67
,$GNGSA,A,3,10,23,25,32,21,31,,,,,,,1.48,0.67,1.32*17
,$GNGSA,A,3,65,81,74,87,88,66,72,76,,,,,1.48,0.67,1.32*12
,$GPGSV,3,1,12,01,13,218,19,08,02,277,15,10,61,084,43,12,13,107,29*75
,$GPGSV,3,2,12,21,29,234,32,23,30,066,34,24,08,138,17,25,18,073,25*7D
,$GPGSV,3,3,12,27,00,306,,31,34,343,30,32,70,190,43,48,15,071,*7F
,$GLGSV,3,1,10,65,52,147,42,66,31,235,37,72,20,104,35,74,23,142,22*65
,$GLGSV,3,2,10,75,48,079,42,76,21,018,30,81,32,244,33,82,07,201,23*6E
,$GLGSV,3,3,10,87,07,340,23,88,30,307,34*6A
,$GNGLL,3653.49350,S,17454.61100,E,220801.00,A,A*6E
,$GNRMC,220802.00,A,3653.49341,S,17454.61083,E,0.616,302.56,150621,,,A*62
,$GNVTG,302.56,T,,M,0.616,N,1.141,K,A*25
,$GNGGA,220802.00,3653.49341,S,17454.61083,E,1,12,0.67,26.0,M,28.1,M,,*6F
,$GNGSA,A,3,10,23,25,32,21,31,,,,,,,1.48,0.67,1.32*17
,$GNGSA,A,3,65,81,74,87,88,66,72,76,,,,,1.48,0.67,1.32*12
,$GPGSV,3,1,12,01,13,218,18,08,02,277,18,10,61,084,42,12,13,107,30*70
,$GPGSV,3,2,12,21,29,234,31,23,30,066,39,24,08,138,16,25,18,073,34*72
,$GPGSV,3,3,12,27,00,306,,31,34,343,24,32,70,190,44,48,15,071,*7D
,$GLGSV,3,1,10,65,52,147,41,66,31,235,34,72,20,104,35,74,23,142,20*67
,$GLGSV,3,2,10,75,48,079,44,76,21,018,37,81,32,244,33,82,07,201,22*6E
,$GLGSV,3,3,10,87,07,340,23,88,30,307,34*6A
,$GNGLL,3653.49341,S,17454.61083,E,220802.00,A,A*67
,$GNRMC,220803.00,A,3653.49337,S,17454.61070,E,0.628,295.71,150621,,,A*69
,$GNVTG,295.71,T,,M,0.628,N,1.162,K,A*23
,$GNGGA,220803.00,3653.49337,S,17454.61070,E,1,12,0.67,25.7,M,28.1,M,,*67
,$GNGSA,A,3,10,23,25,32,21,31,,,,,,,1.48,0.67,1.32*17
,$GNGSA,A,3,65,81,74,87,88,66,72,76,,,,,1.48,0.67,1.32*12
,$GPGSV,3,1,12,01,13,218,20,08,02,277,21,10,61,084,44,12,13,107,32*75
,$GPGSV,3,2,12,21,29,234,31,23,30,066,41,24,08,138,16,25,18,073,31*78
,$GPGSV,3,3,12,27,00,306,,31,34,343,24,32,70,190,45,48,15,071,*7C
,$GLGSV,3,1,10,65,52,147,41,66,31,235,33,72,20,104,33,74,23,142,28*6E
,$GLGSV,3,2,10,75,48,079,43,76,21,018,31,81,32,244,29,82,07,201,22*64
,$GLGSV,3,3,10,87,07,340,24,88,30,307,24*6C
,$GNGLL,3653.49337,S,17454.61070,E,220803.00,A,A*6B
,$GNRMC,220804.00,A,3653.49338,S,17454.61059,E,0.501,,150621,,,A*74
,$GNVTG,,T,,M,0.501,N,0.928,K,A*3A
,$GNGGA,220804.00,3653.49338,S,17454.61059,E,1,12,0.67,25.5,M,28.1,M,,*66
,$GNGSA,A,3,10,23,25,32,21,31,,,,,,,1.48,0.67,1.32*17
,$GNGSA,A,3,65,81,74,87,88,66,72,76,,,,,1.48,0.67,1.32*12
,$GPGSV,3,1,12,01,13,218,21,08,02,277,21,10,61,084,44,12,13,107,26*71
,$GPGSV,3,2,12,21,29,234,26,23,30,066,39,24,08,138,16,25,18,073,25*74
,$GPGSV,3,3,12,27,00,306,,31,34,343,25,32,70,190,45,48,15,071,*7D
,$GLGSV,3,1,10,65,52,147,40,66,31,235,33,72,20,104,28,74,23,142,24*69
,$GLGSV,3,2,10,75,48,079,44,76,21,018,28,81,32,244,33,82,07,201,21*63
,$GLGSV,3,3,10,87,07,340,24,88,30,307,23*6B
,$GNGLL,3653.49338,S,17454.61059,E,220804.00,A,A*68
,$GNRMC,220805.00,A,3653.49341,S,17454.61044,E,0.539,,150621,,,A*7C
,$GNVTG,,T,,M,0.539,N,0.998,K,A*3A
,$GNGGA,220805.00,3653.49341,S,17454.61044,E,1,12,0.67,25.4,M,28.1,M,,*64
,$GNGSA,A,3,10,23,25,32,21,31,,,,,,,1.48,0.67,1.32*17
,$GNGSA,A,3,65,81,74,87,88,66,72,76,,,,,1.48,0.67,1.32*12
,$GPGSV,3,1,12,01,13,218,21,08,02,277,19,10,61,084,43,12,13,107,26*7D
,$GPGSV,3,2,12,21,29,234,24,23,30,066,39,24,08,138,16,25,18,073,32*70
,$GPGSV,3,3,12,27,00,306,,31,34,343,26,32,70,190,46,48,15,071,*7D
,$GLGSV,3,1,10,65,52,147,36,66,31,235,28,72,20,104,28,74,23,142,30*67
,$GLGSV,3,2,10,75,48,079,43,76,21,018,33,81,32,244,30,82,07,201,20*6C
,$GLGSV,3,3,10,87,07,340,24,88,30,307,30*69
,$GNGLL,3653.49341,S,17454.61044,E,220805.00,A,A*6B
,$GNRMC,220806.00,A,3653.49343,S,17454.61027,E,0.614,,150621,,,A*74
,$GNVTG,,T,,M,0.614,N,1.137,K,A*3A
,$GNGGA,220806.00,3653.49343,S,17454.61027,E,1,12,0.67,25.4,M,28.1,M,,*60
,$GNGSA,A,3,10,23,25,32,21,31,,,,,,,1.48,0.67,1.32*17
,$GNGSA,A,3,65,81,74,87,88,66,72,76,,,,,1.48,0.67,1.32*12
,$GPGSV,3,1,12,01,13,218,20,08,02,277,18,10,61,084,44,12,13,107,27*7B
,$GPGSV,3,2,12,21,29,234,22,23,30,066,42,24,08,138,14,25,18,073,32*78
,$GPGSV,3,3,12,27,00,306,,31,34,343,26,32,70,190,46,48,15,071,*7D
,$GLGSV,3,1,10,65,52,147,34,66,31,235,26,72,20,103,29,74,23,142,26*6A
,$GLGSV,3,2,10,75,48,079,42,76,21,018,28,81,32,244,30,82,07,201,20*67
,$GLGSV,3,3,10,87,07,340,32,88,30,307,25*6A
,$GNGLL,3653.49343,S,17454.61027,E,220806.00,A,A*6F
,$GNRMC,220807.00,A,3653.49349,S,17454.61019,E,0.491,,150621,,,A*7D
,$GNVTG,,T,,M,0.491,N,0.909,K,A*31
,$GNGGA,220807.00,3653.49349,S,17454.61019,E,1,12,0.67,25.6,M,28.1,M,,*64
,$GNGSA,A,3,10,23,25,32,21,31,,,,,,,1.48,0.67,1.32*17
,$GNGSA,A,3,65,81,74,87,88,66,72,76,,,,,1.48,0.67,1.32*12
,$GPGSV,3,1,12,01,13,218,19,08,02,277,16,10,61,084,44,12,13,107,25*7D
,$GPGSV,3,2,12,21,29,234,20,23,30,066,42,24,08,138,13,25,18,073,27*79
,$GPGSV,3,3,12,27,00,306,,31,34,343,31,32,70,190,46,48,15,071,*7B
,$GLGSV,3,1,10,65,52,147,39,66,31,235,27,72,20,103,28,74,23,142,31*61
,$GLGSV,3,2,10,75,48,079,44,76,21,018,28,81,32,244,30,82,07,201,19*6B
,$GLGSV,3,3,10,87,07,340,35,88,30,307,31*68
,$GNGLL,3653.49349,S,17454.61019,E,220807.00,A,A*69
,$GNRMC,220808.00,A,3653.49359,S,17454.61007,E,0.542,,150621,,,A*73
,$GNVTG,,T,,M,0.542,N,1.004,K,A*3B
,$GNGGA,220808.00,3653.49359,S,17454.61007,E,1,12,0.67,25.6,M,28.1,M,,*65
,$GNGSA,A,3,10,23,25,32,21,31,,,,,,,1.48,0.67,1.32*17
,$GNGSA,A,3,65,81,74,87,88,66,72,76,,,,,1.48,0.67,1.32*12
,$GPGSV,3,1,12,01,13,218,18,08,02,277,16,10,61,084,39,12,13,107,24*77
,$GPGSV,3,2,12,21,29,234,21,23,30,066,39,24,08,138,10,25,18,073,28*78
,$GPGSV,3,3,12,27,00,306,,31,34,343,24,32,70,190,45,48,15,071,*7C
,$GLGSV,3,1,10,65,52,147,39,66,31,235,25,72,20,103,28,74,23,143,27*65
,$GLGSV,3,2,10,75,48,079,47,76,21,018,33,81,32,244,22,82,07,201,20*6B
,$GLGSV,3,3,10,87,07,340,26,88,30,307,27*6D
,$GNGLL,3653.49359,S,17454.61007,E,220808.00,A,A*68
,$GNRMC,220809.00,A,3653.49371,S,17454.60999,E,0.466,,150621,,,A*70
,$GNVTG,,T,,M,0.466,N,0.864,K,A*33
,$GNGGA,220809.00,3653.49371,S,17454.60999,E,1,12,0.67,25.7,M,28.1,M,,*60
,$GNGSA,A,3,10,23,25,32,21,31,,,,,,,1.48,0.67,1.32*17
,$GNGSA,A,3,65,81,74,87,88,66,72,76,,,,,1.48,0.67,1.32*12
,$GPGSV,3,1,12,01,13,218,16,08,02,277,18,10,61,084,39,12,13,107,21*72
,$GPGSV,3,2,12,21,29,234,21,23,30,066,35,24,08,138,09,25,18,073,26*72
,$GPGSV,3,3,12,27,00,306,,31,34,343,39,32,70,190,46,48,15,071,*73
,$GLGSV,3,1,10,65,52,147,41,66,31,235,25,72,20,103,28,74,23,143,28*65
,$GLGSV,3,2,10,75,48,080,44,76,21,018,29,81,32,244,25,82,07,201,21*63
,$GLGSV,3,3,10,87,07,340,26,88,30,307,28*62
,$GNGLL,3653.49371,S,17454.60999,E,220809.00,A,A*6C
,$GNRMC,220810.00,A,3653.49383,S,17454.60989,E,0.613,,150621,,,A*74
,$GNVTG,,T,,M,0.613,N,1.136,K,A*3C
,$GNGGA,220810.00,3653.49383,S,17454.60989,E,1,12,0.67,26.0,M,28.1,M,,*60
,$GNGSA,A,3,10,23,25,32,21,31,,,,,,,1.48,0.67,1.32*17
,$GNGSA,A,3,65,81,74,87,88,66,72,76,,,,,1.48,0.67,1.32*12
,$GPGSV,3,1,12,01,13,218,17,08,02,277,17,10,61,084,37,12,13,107,19*79
,$GPGSV,3,2,12,21,29,234,20,23,30,066,33,24,08,138,10,25,18,073,25*7E
,$GPGSV,3,3,12,27,00,306,,31,34,343,40,32,70,190,46,48,15,071,*7D
,$GLGSV,3,1,10,65,52,147,40,66,31,235,25,72,20,103,27,74,23,143,24*67
,$GLGSV,3,2,10,75,48,080,41,76,22,018,28,81,32,244,24,82,07,201,20*64
,$GLGSV,3,3,10,87,07,340,31,88,30,307,18*67
,$GNGLL,3653.49383,S,17454.60989,E,220810.00,A,A*68
,$GNRMC,220811.00,A,3653.49403,S,17454.60980,E,0.523,,150621,,,A*73
,$GNVTG,,T,,M,0.523,N,0.969,K,A*3F
,$GNGGA,220811.00,3653.49403,S,17454.60980,E,1,12,0.67,26.0,M,28.1,M,,*67
,$GNGSA,A,3,10,23,25,32,21,31,,,,,,,1.48,0.67,1.32*17
,$GNGSA,A,3,65,81,74,87,88,66,72,76,,,,,1.48,0.67,1.32*12
,$GPGSV,3,1,12,01,13,218,17,08,02,277,13,10,61,084,32,12,13,107,27*75
,$GPGSV,3,2,12,21,29,234,19,23,30,066,27,24,08,138,09,25,18,073,23*7F
,$GPGSV,3,3,12,27,00,306,,31,34,343,44,32,70,190,44,48,15,071,*7B
,$GLGSV,3,1,10,65,52,147,40,66,31,235,23,72,20,103,25,74,23,143,30*66
,$GLGSV,3,2,10,75,48,080,35,76,22,018,28,81,32,244,24,82,07,201,20*67
,$GLGSV,3,3,10,87,07,340,25,88,30,307,33*6B
,$GNGLL,3653.49403,S,17454.60980,E,220811.00,A,A*6F
,$GNRMC,220812.00,A,3653.49417,S,17454.60970,E,0.531,,150621,,,A*79
,$GNVTG,,T,,M,0.531,N,0.983,K,A*38
,$GNGGA,220812.00,3653.49417,S,17454.60970,E,1,12,0.67,25.9,M,28.1,M,,*64
,$GNGSA,A,3,10,23,25,32,21,31,,,,,,,1.48,0.67,1.32*17
,$GNGSA,A,3,65,81,74,87,88,66,72,76,,,,,1.48,0.67,1.32*12
,$GPGSV,3,1,12,01,13,218,18,08,02,277,15,10,61,084,39,12,13,107,22*72
,$GPGSV,3,2,12,21,29,234,23,23,30,066,27,24,08,138,,25,18,073,23*7F
,$GPGSV,3,3,12,27,00,306,,31,34,343,43,32,70,190,44,48,15,071,*7C
,$GLGSV,3,1,10,65,52,147,37,66,31,235,24,72,20,103,24,74,23,143,34*64
,$GLGSV,3,2,10,75,48,080,34,76,22,018,27,81,32,244,24,82,07,201,21*68
,$GLGSV,3,3,10,87,07,340,32,88,30,307,30*6E
,$GNGLL,3653.49417,S,17454.60970,E,220812.00,A,A*66
,$GNRMC,220813.00,A,3653.49436,S,17454.60966,E,0.580,,150621,,,A*76
,$GNVTG,,T,,M,0.580,N,1.073,K,A*35
,$GNGGA,220813.00,3653.49436,S,17454.60966,E,1,12,0.67,25.9,M,28.1,M,,*61
,$GNGSA,A,3,10,23,25,32,21,31,,,,,,,1.48,0.67,1.32*17
,$GNGSA,A,3,65,81,74,87,88,66,72,76,,,,,1.48,0.67,1.32*12
,$GPGSV,3,1,12,01,13,218,19,08,02,277,13,10,61,084,42,12,13,107,21*7A
,$GPGSV,3,2,12,21,29,234,24,23,30,066,32,24,08,138,,25,18,073,25*7A
,$GPGSV,3,3,12,27,00,306,,31,34,343,43,32,70,190,42,48,15,071,*7A
,$GLGSV,3,1,10,65,52,147,38,66,31,235,25,72,20,103,23,74,23,143,30*69
,$GLGSV,3,2,10,75,48,080,36,76,22,018,35,81,32,244,23,82,07,201,20*6F
,$GLGSV,3,3,10,87,07,340,27,88,30,307,33*69
,$GNGLL,3653.49436,S,17454.60966,E,220813.00,A,A*63
,$GNRMC,220814.00,A,3653.49454,S,17454.60965,E,0.585,240.02,150621,,,A*69
,$GNVTG,240.02,T,,M,0.585,N,1.084,K,A*22
,$GNGGA,220814.00,3653.49454,S,17454.60965,E,1,12,0.67,25.7,M,28.1,M,,*6F
,$GNGSA,A,3,10,23,25,32,21,31,,,,,,,1.48,0.67,1.32*17
,$GNGSA,A,3,65,81,74,87,88,66,72,76,,,,,1.48,0.67,1.32*12
,$GPGSV,3,1,12,01,13,218,19,08,02,277,10,10,61,084,45,12,13,107,22*7D
,$GPGSV,3,2,12,21,29,234,26,23,30,066,27,24,08,138,,25,18,073,30*78
,$GPGSV,3,3,12,27,00,306,,31,34,343,43,32,70,190,42,48,15,071,*7A
,$GLGSV,3,1,10,65,52,147,39,66,31,235,25,72,20,103,22,74,23,143,31*68
,$GLGSV,3,2,10,75,48,080,35,76,22,018,35,81,32,244,22,82,07,201,19*67
,$GLGSV,3,3,10,87,07,340,28,88,30,307,30*65
,$GNGLL,3653.49454,S,17454.60965,E,220814.00,A,A*63
,$GNRMC,220815.00,A,3653.49478,S,17454.60964,E,0.702,210.96,150621,,,A*62
,$GNVTG,210.96,T,,M,0.702,N,1.301,K,A*29
,$GNGGA,220815.00,3653.49478,S,17454.60964,E,1,12,0.67,25.5,M,28.1,M,,*63
,$GNGSA,A,3,10,23,25,32,21,31,,,,,,,1.48,0.67,1.32*17
,$GNGSA,A,3,65,81,74,87,88,66,72,76,,,,,1.48,0.67,1.32*12
,$GPGSV,3,1,12,01,13,218,19,08,02,277,09,10,61,084,44,12,13,107,22*74
,$GPGSV,3,2,12,21,29,234,22,23,30,066,35,24,08,138,,25,18,073,30*7F
,$GPGSV,3,3,12,27,00,306,,31,34,343,45,32,70,190,43,48,15,071,*7D
,$GLGSV,3,1,10,65,52,147,39,66,31,235,22,72,20,103,22,74,23,143,35*6B
,$GLGSV,3,2,10,75,48,080,44,76,22,018,30,81,32,245,22,82,07,201,19*65
,$GLGSV,3,3,10,87,07,340,27,88,30,307,23*68
,$GNGLL,3653.49478,S,17454.60964,E,220815.00,A,A*6D
,$GNRMC,220816.00,A,3653.49505,S,17454.60962,E,0.659,197.85,150621,,,A*6D
,$GNVTG,197.85,T,,M,0.659,N,1.221,K,A*2B
,$GNGGA,220816.00,3653.49505,S,17454.60962,E,1,12,0.67,25.3,M,28.1,M,,*6B
,$GNGSA,A,3,10,23,25,32,21,31,,,,,,,1.48,0.67,1.32*17
,$GNGSA,A,3,65,81,74,87,88,66,72,76,,,,,1.48,0.67,1.32*12
,$GPGSV,3,1,12,01,13,218,20,08,02,277,,10,61,084,46,12,13,107,24*73
,$GPGSV,3,2,12,21,29,234,20,23,30,066,39,24,08,138,,25,18,073,31*70
,$GPGSV,3,3,12,27,00,306,,31,34,343,45,32,70,190,42,48,15,071,*7C
,$GLGSV,3,1,10,65,52,147,41,66,31,235,29,72,20,103,25,74,23,143,35*68
,$GLGSV,3,2,10,75,48,080,46,76,22,018,30,81,32,245,21,82,07,201,18*65
,$GLGSV,3,3,10,87,07,340,32,88,30,307,24*6B
,$GNGLL,3653.49505,S,17454.60962,E,220816.00,A,A*63
,$GNRMC,220817.00,A,3653.49525,S,17454.60959,E,0.716,193.22,150621,,,A*65
,$GNVTG,193.22,T,,M,0.716,N,1.325,K,A*2D
,$GNGGA,220817.00,3653.49525,S,17454.60959,E,1,12,0.67,25.4,M,28.1,M,,*67
,$GNGSA,A,3,10,23,25,32,21,31,,,,,,,1.48,0.67,1.32*17
,$GNGSA,A,3,65,81,74,87,88,66,72,76,,,,,1.48,0.67,1.32*12
,$GPGSV,3,1,12,01,13,218,21,08,02,277,,10,61,084,46,12,13,107,23*75
,$GPGSV,3,2,12,21,29,234,19,23,30,066,44,24,08,138,,25,18,073,32*73
,$GPGSV,3,3,12,27,00,306,,31,34,343,41,32,70,190,43,48,15,071,*79
,$GLGSV,3,1,10,65,52,147,39,66,31,235,29,72,20,103,25,74,23,143,34*66
,$GLGSV,3,2,10,75,48,080,43,76,22,018,25,81,32,245,20,82,07,201,19*64
,$GLGSV,3,3,10,87,07,340,25,88,30,307,25*6C
,$GNGLL,3653.49525,S,17454.60959,E,220817.00,A,A*68
,$GNRMC,220818.00,A,3653.49544,S,17454.60959,E,0.623,,150621,,,A*7F
,$GNVTG,,T,,M,0.623,N,1.153,K,A*3C
,$GNGGA,220818.00,3653.49544,S,17454.60959,E,1,12,0.67,25.5,M,28.1,M,,*6E
,$GNGSA,A,3,10,23,25,32,21,31,,,,,,,1.48,0.67,1.32*17
,$GNGSA,A,3,65,81,74,87,88,66,72,76,,,,,1.48,0.67,1.32*12
,$GPGSV,3,1,12,01,13,218,19,08,02,277,,10,61,084,44,12,13,107,22*7D
,$GPGSV,3,2,12,21,29,234,19,23,30,066,28,24,08,138,,25,18,073,38*73
,$GPGSV,3,3,12,27,00,306,,31,34,343,35,32,70,190,42,48,15,071,*7B
,$GLGSV,3,1,10,65,52,147,39,66,31,235,20,72,20,103,26,74,23,143,31*69
,$GLGSV,3,2,10,75,48,080,42,76,22,018,25,81,32,245,21,82,07,201,18*65
,$GLGSV,3,3,10,87,07,340,23,88,30,307,23*6C
,$GNGLL,3653.49544,S,17454.60959,E,220818.00,A,A*60
,$GNRMC,220819.00,A,3653.49562,S,17454.60960,E,0.657,,150621,,,A*73
,$GNVTG,,T,,M,0.657,N,1.218,K,A*33
,$GNGGA,220819.00,3653.49562,S,17454.60960,E,1,12,0.67,25.6,M,28.1,M,,*62
,$GNGSA,A,3,10,23,25,32,21,31,,,,,,,1.48,0.67,1.32*17
,$GNGSA,A,3,65,81,74,87,88,66,72,76,,,,,1.48,0.67,1.32*12
,$GPGSV,3,1,12,01,13,218,19,08,02,277,,10,61,084,45,12,13,107,21*7F
,$GPGSV,3,2,12,21,29,234,19,23,30,066,33,24,08,138,,25,18,073,33*72
,$GPGSV,3,3,12,27,00,306,,31,34,343,37,32,70,190,40,48,15,071,*7B
,$GLGSV,3,1,10,65,52,147,38,66,31,235,20,72,20,103,30,74,23,143,31*6F
,$GLGSV,3,2,10,75,48,080,42,76,22,018,24,81,32,245,23,82,07,201,19*67
,$GLGSV,3,3,10,87,07,340,23,88,30,307,23*6C
,$GNGLL,3653.49562,S,17454.60960,E,220819.00,A,A*6F
,$GNRMC,220820.00,A,3653.49571,S,17454.60968,E,0.432,,150621,,,A*72
,$GNVTG,,T,,M,0.432,N,0.800,K,A*30
,$GNGGA,220820.00,3653.49571,S,17454.60968,E,1,12,0.67,26.0,M,28.1,M,,*67
,$GNGSA,A,3,10,23,25,32,21,31,,,,,,,1.48,0.67,1.32*17
,$GNGSA,A,3,65,81,74,87,88,66,72,76,,,,,1.48,0.67,1.32*12
,$GPGSV,3,1,12,01,13,218,17,08,02,277,,10,61,084,45,12,13,107,22*72
,$GPGSV,3,2,12,21,29,234,20,23,30,066,34,24,08,138,,25,18,073,30*7C
,$GPGSV,3,3,12,27,00,306,,31,34,343,34,32,70,190,44,48,15,071,*7C
,$GLGSV,3,1,10,65,52,147,38,66,31,235,20,72,20,103,34,74,23,143,27*6C
,$GLGSV,3,2,10,75,48,080,40,76,22,018,25,81,32,245,23,82,07,201,19*64
,$GLGSV,3,3,10,87,07,340,25,88,30,307,24*6D
,$GNGLL,3653.49571,S,17454.60968,E,220820.00,A,A*6F
,$GNRMC,220821.00,A,3653.49577,S,17454.60977,E,0.218,,150621,,,A*75
,$GNVTG,,T,,M,0.218,N,0.404,K,A*36
,$GNGGA,220821.00,3653.49577,S,17454.60977,E,1,12,0.67,26.3,M,28.1,M,,*6D
,$GNGSA,A,3,10,23,25,32,21,31,,,,,,,1.48,0.67,1.32*17
,$GNGSA,A,3,65,81,74,87,88,66,72,76,,,,,1.48,0.67,1.32*12
,$GPGSV,3,1,12,01,13,218,15,08,02,277,,10,61,084,45,12,13,107,32*71
,$GPGSV,3,2,12,21,29,234,21,23,30,066,33,24,08,138,,25,18,073,30*7A
,$GPGSV,3,3,12,27,00,306,,31,34,343,33,32,70,190,44,48,15,071,*7B
,$GLGSV,3,1,10,65,52,147,37,66,31,235,22,72,20,103,33,74,23,143,32*62
,$GLGSV,3,2,10,75,48,080,41,76,22,018,27,81,32,245,23,82,07,201,20*6D
,$GLGSV,3,3,10,87,06,341,25,88,30,307,24*6D
,$GNGLL,3653.49577,S,17454.60977,E,220821.00,A,A*66
,$GNRMC,220822.00,A,3653.49577,S,17454.60988,E,0.284,,150621,,,A*73
,$GNVTG,,T,,M,0.284,N,0.527,K,A*33
,$GNGGA,220822.00,3653.49577,S,17454.60988,E,1,12,0.67,26.6,M,28.1,M,,*6B
,$GNGSA,A,3,10,23,25,32,21,31,,,,,,,1.48,0.67,1.32*17
,$GNGSA,A,3,65,81,74,87,88,66,72,76,,,,,1.48,0.67,1.32*12
,$GPGSV,3,1,12,01,13,218,16,08,02,277,,10,61,084,46,12,13,107,28*7A
,$GPGSV,3,2,12,21,29,234,21,23,30,066,33,24,08,138,,25,18,073,26*7D
,$GPGSV,3,3,12,27,00,306,,31,34,343,27,32,70,190,45,48,15,071,*7F
,$GLGSV,3,1,10,65,52,147,36,66,31,235,25,72,20,103,32,74,23,143,26*60
,$GLGSV,3,2,10,75,48,080,39,76,22,018,31,81,32,245,24,82,07,201,24*66
,$GLGSV,3,3,10,87,06,341,25,88,29,307,22*63
,$GNGLL,3653.49577,S,17454.60988,E,220822.00,A,A*65
,$GNRMC,220823.00,A,3653.49577,S,17454.61005,E,0.439,,150621,,,A*7F
,$GNVTG,,T,,M,0.439,N,0.812,K,A*38
,$GNGGA,220823.00,3653.49577,S,17454.61005,E,1,12,0.67,26.9,M,28.1,M,,*68
,$GNGSA,A,3,10,23,25,32,21,31,,,,,,,1.48,0.67,1.32*17
,$GNGSA,A,3,65,81,74,87,88,66,72,76,,,,,1.48,0.67,1.32*12
,$GPGSV,3,1,12,01,13,218,19,08,02,277,,10,61,084,45,12,13,107,28*76
,$GPGSV,3,2,12,21,29,234,23,23,30,066,29,24,08,138,,25,18,073,32*71
,$GPGSV,3,3,12,27,00,306,,31,34,343,33,32,70,190,45,48,15,071,*7A
,$GLGSV,3,1,10,65,52,147,33,66,31,235,25,72,20,103,25,74,23,143,26*63
,$GLGSV,3,2,10,75,48,080,40,76,22,018,22,81,32,245,25,82,07,201,24*6B
,$GLGSV,3,3,10,87,06,341,24,88,29,307,21*61
,$GNGLL,3653.49577,S,17454.61005,E,220823.00,A,A*69
,$GNRMC,220824.00,A,3653.49576,S,17454.61025,E,0.626,,150621,,,A*77
,$GNVTG,,T,,M,0.626,N,1.159,K,A*33
,$GNGGA,220824.00,3653.49576,S,17454.61025,E,1,12,0.67,27.0,M,28.1,M,,*64
,$GNGSA,A,3,10,23,25,32,21,31,,,,,,,1.48,0.67,1.32*17
,$GNGSA,A,3,65,81,74,87,88,66,72,76,,,,,1.48,0.67,1.32*12
,$GPGSV,3,1,12,01,13,218,20,08,02,277,,10,61,084,43,12,13,107,27*75
,$GPGSV,3,2,12,21,29,234,25,23,30,066,33,24,08,138,,25,18,073,26*79
,$GPGSV,3,3,12,27,00,306,,31,34,343,35,32,70,190,45,48,15,071,*7C
,$GLGSV,3,1,10,65,52,147,35,66,31,235,31,72,20,103,24,74,23,143,24*63
,$GLGSV,3,2,10,75,48,080,40,76,22,018,23,81,32,245,30,82,07,201,24*6E
,$GLGSV,3,3,10,87,06,341,23,88,29,307,23*64
,$GNGLL,3653.49576,S,17454.61025,E,220824.00,A,A*6D
,$GNRMC,220825.00,A,3653.49573,S,17454.61047,E,0.512,,150621,,,A*73
,$GNVTG,,T,,M,0.512,N,0.948,K,A*3E
,$GNGGA,220825.00,3653.49573,S,17454.61047,E,1,12,0.67,27.2,M,28.1,M,,*66
,$GNGSA,A,3,10,23,25,32,21,31,,,,,,,1.48,0.67,1.32*17
,$GNGSA,A,3,65,81,74,87,88,66,72,76,,,,,1.48,0.67,1.32*12
,$GPGSV,3,1,12,01,13,218,22,08,02,277,,10,61,084,42,12,13,107,20*71
,$GPGSV,3,2,12,21,29,234,31,23,30,066,28,24,08,138,,25,18,073,25*75
,$GPGSV,3,3,12,27,00,306,,31,34,343,35,32,70,190,45,48,15,071,*7C
,$GLGSV,3,1,10,65,52,147,32,66,31,235,35,72,20,103,23,74,23,143,22*61
,$GLGSV,3,2,10,75,48,080,43,76,22,018,31,81,32,245,33,82,07,201,26*6F
,$GLGSV,3,3,10,87,06,341,22,88,29,307,24*62
,$GNGLL,3653.49573,S,17454.61047,E,220825.00,A,A*6D
,$GNRMC,220826.00,A,3653.49563,S,17454.61061,E,0.635,,150621,,,A*73
,$GNVTG,,T,,M,0.635,N,1.177,K,A*3D
,$GNGGA,220826.00,3653.49563,S,17454.61061,E,1,12,0.67,27.3,M,28.1,M,,*61
,$GNGSA,A,3,10,23,25,32,21,31,,,,,,,1.48,0.67,1.32*17
,$GNGSA,A,3,65,81,74,87,88,66,72,76,,,,,1.48,0.67,1.32*12
,$GPGSV,3,1,12,01,13,218,22,08,02,277,,10,61,084,41,12,13,107,28*7A
,$GPGSV,3,2,12,21,29,234,31,23,30,066,28,24,08,138,17,25,18,073,25*73
,$GPGSV,3,3,12,27,00,306,,31,34,343,37,32,70,190,46,48,15,071,*7D
,$GLGSV,3,1,10,65,52,147,32,66,31,235,34,72,20,103,29,74,23,143,29*61
,$GLGSV,3,2,10,75,48,080,40,76,22,018,37,81,32,245,34,82,07,201,27*6C
,$GLGSV,3,3,10,87,06,341,23,88,29,307,23*64
,$GNGLL,3653.49563,S,17454.61061,E,220826.00,A,A*6B
,$GNRMC,220827.00,A,3653.49537,S,17454.61069,E,0.581,140.52,150621,,,A*6B
,$GNVTG,140.52,T,,M,0.581,N,1.076,K,A*2D
,$GNGGA,220827.00,3653.49537,S,17454.61069,E,1,12,0.67,27.5,M,28.1,M,,*6F
,$GNGSA,A,3,10,23,25,32,21,31,,,,,,,1.48,0.67,1.32*17
,$GNGSA,A,3,65,81,74,87,88,66,72,76,,,,,1.48,0.67,1.32*12
,$GPGSV,3,1,12,01,13,218,24,08,02,277,,10,61,084,42,12,13,107,21*76
,$GPGSV,3,2,12,21,29,234,32,23,30,066,26,24,08,138,14,25,18,073,27*7F
,$GPGSV,3,3,12,27,00,306,,31,34,343,41,32,70,190,46,48,15,071,*7C
,$GLGSV,3,1,10,65,52,147,33,66,31,235,37,72,20,103,25,74,23,143,29*6F
,$GLGSV,3,2,10,75,48,080,33,76,22,018,37,81,32,245,36,82,07,201,25*68
,$GLGSV,3,3,10,87,06,341,22,88,29,307,23*65
,$GNGLL,3653.49537,S,17454.61069,E,220827.00,A,A*63
,$GNRMC,220828.00,A,3653.49518,S,17454.61101,E,0.561,,150621,,,A*74
,$GNVTG,,T,,M,0.561,N,1.038,K,A*35
,$GNGGA,220828.00,3653.49518,S,17454.61101,E,1,12,0.67,28.1,M,28.1,M,,*69
,$GNGSA,A,3,10,23,25,32,21,31,,,,,,,1.48,0.67,1.32*17
,$GNGSA,A,3,65,81,74,87,88,66,72,76,,,,,1.48,0.67,1.32*12
,$GPGSV,3,1,12,01,13,218,25,08,02,277,,10,61,084,37,12,13,107,23*77
,$GPGSV,3,2,12,21,29,234,34,23,30,066,26,24,08,138,13,25,18,073,26*7F
,$GPGSV,3,3,12,27,00,306,,31,34,343,41,32,70,190,46,48,15,071,*7C
,$GLGSV,3,1,10,65,52,147,32,66,31,235,37,72,20,103,31,74,23,143,19*68
,$GLGSV,3,2,10,75,48,080,38,76,22,018,39,81,32,245,39,82,07,201,35*63
,$GLGSV,3,3,10,87,06,341,22,88,29,307,30*67
,$GNGLL,3653.49518,S,17454.61101,E,220828.00,A,A*6E
,$GNRMC,220829.00,A,3653.49502,S,17454.61125,E,0.654,82.94,150621,,,A*54
,$GNVTG,82.94,T,,M,0.654,N,1.212,K,A*13
,$GNGGA,220829.00,3653.49502,S,17454.61125,E,1,12,0.67,28.5,M,28.1,M,,*61
,$GNGSA,A,3,10,23,25,32,21,31,,,,,,,1.48,0.67,1.32*17
,$GNGSA,A,3,65,81,74,87,88,66,72,76,,,,,1.48,0.67,1.32*12
,$GPGSV,3,1,12,01,13,218,24,08,02,277,,10,61,084,31,12,13,107,24*77
,$GPGSV,3,2,12,21,29,234,30,23,30,066,25,24,08,138,15,25,18,073,27*7F
,$GPGSV,3,3,12,27,00,306,,31,34,343,40,32,70,190,46,48,15,071,*7D
,$GLGSV,3,1,10,65,52,147,36,66,31,235,35,72,20,103,30,74,23,143,20*65
,$GLGSV,3,2,10,75,48,080,21,76,22,018,37,81,32,245,39,82,07,201,31*61
,$GLGSV,3,3,10,87,06,341,19,88,29,307,30*6F
,$GNGLL,3653.49502,S,17454.61125,E,220829.00,A,A*62
,$GNRMC,220830.00,A,3653.49488,S,17454.61146,E,0.676,58.28,150621,,,A*5A
,$GNVTG,58.28,T,,M,0.676,N,1.251,K,A*14
,$GNGGA,220830.00,3653.49488,S,17454.61146,E,1,12,0.67,28.3,M,28.1,M,,*69
,$GNGSA,A,3,10,23,25,32,21,31,,,,,,,1.48,0.67,1.32*17
,$GNGSA,A,3,65,81,74,87,88,66,72,76,,,,,1.48,0.67,1.32*12
,$GPGSV,3,1,12,01,13,218,23,08,02,278,,10,61,084,26,12,13,107,22*7F
,$GPGSV,3,2,12,21,29,234,22,23,30,066,25,24,08,138,16,25,18,073,32*7B
,$GPGSV,3,3,12,27,00,306,,31,34,343,40,32,70,190,44,48,15,071,*7F
,$GLGSV,3,1,10,65,52,147,38,66,31,235,37,72,20,103,30,74,23,143,20*69
,$GLGSV,3,2,10,75,48,080,33,76,22,018,40,81,32,245,40,82,07,201,25*69
,$GLGSV,3,3,10,87,06,341,24,88,29,307,34*65
,$GNGLL,3653.49488,S,17454.61146,E,220830.00,A,A*6C
,$GNRMC,220831.00,A,3653.49489,S,17454.61151,E,0.651,44.77,150621,,,A*5E
,$GNVTG,44.77,T,,M,0.651,N,1.206,K,A*14
,$GNGGA,220831.00,3653.49489,S,17454.61151,E,1,12,0.67,27.4,M,28.1,M,,*67
,$GNGSA,A,3,10,23,25,32,21,31,,,,,,,1.48,0.67,1.32*17
,$GNGSA,A,3,65,81,74,87,88,66,72,76,,,,,1.48,0.67,1.32*12
,$GPGSV,3,1,12,01,13,218,25,08,02,278,,10,61,084,32,12,13,107,21*7F
,$GPGSV,3,2,12,21,29,234,32,23,30,066,30,24,08,138,13,25,18,073,32*7B
,$GPGSV,3,3,12,27,00,306,,31,34,343,40,32,70,190,42,48,15,071,*79
,$GLGSV,3,1,10,65,52,147,35,66,31,235,40,72,20,103,25,74,23,143,20*60
,$GLGSV,3,2,10,75,48,080,27,76,22,018,39,81,32,245,39,82,07,201,34*6C
,$GLGSV,3,3,10,87,06,341,24,88,29,307,29*69
,$GNGLL,3653.49489,S,17454.61151,E,220831.00,A,A*6A
,$GNRMC,220832.00,A,3653.49475,S,17454.61157,E,0.724,29.29,150621,,,A*5B
,$GNVTG,29.29,T,,M,0.724,N,1.342,K,A*16
,$GNGGA,220832.00,3653.49475,S,17454.61157,E,1,12,0.67,27.3,M,28.1,M,,*66
,$GNGSA,A,3,10,23,25,32,21,31,,,,,,,1.48,0.67,1.32*17
,$GNGSA,A,3,65,81,74,87,88,66,72,76,,,,,1.48,0.67,1.32*12
,$GPGSV,3,1,12,01,13,218,25,08,02,278,,10,61,083,37,12,13,107,22*7E
,$GPGSV,3,2,12,21,29,234,26,23,30,066,23,24,08,138,13,25,18,073,18*74
,$GPGSV,3,3,12,27,00,306,,31,34,343,41,32,70,190,36,48,15,071,*7B
,$GLGSV,3,1,10,65,52,147,24,66,31,235,37,72,20,103,31,74,23,143,19*6F
,$GLGSV,3,2,10,75,48,080,37,76,22,018,31,81,32,245,35,82,07,201,30*6D
,$GLGSV,3,3,10,87,06,341,31,88,29,307,29*6D
,$GNGLL,3653.49475,S,17454.61157,E,220832.00,A,A*6C
,$GNRMC,220833.00,A,3653.49466,S,17454.61162,E,0.569,,150621,,,A*7B
,$GNVTG,,T,,M,0.569,N,1.054,K,A*37
,$GNGGA,220833.00,3653.49466,S,17454.61162,E,1,12,0.67,26.9,M,28.1,M,,*68
,$GNGSA,A,3,10,23,25,32,21,31,,,,,,,1.48,0.67,1.32*17
,$GNGSA,A,3,65,81,74,87,88,66,72,76,,,,,1.48,0.67,1.32*12
,$GPGSV,3,1,12,01,13,218,21,08,02,278,,10,61,083,41,12,13,108,20*76
,$GPGSV,3,2,12,21,29,234,32,23,30,066,34,24,08,138,15,25,18,073,28*72
,$GPGSV,3,3,12,27,00,306,,31,34,343,29,32,70,190,36,48,15,071,*75
,$GLGSV,3,1,10,65,52,147,26,66,31,235,38,72,20,103,26,74,23,143,20*6E
,$GLGSV,3,2,10,75,48,080,34,76,22,018,34,81,32,245,27,82,07,201,29*60
,$GLGSV,3,3,10,87,06,341,31,88,29,307,37*62
,$GNGLL,3653.49466,S,17454.61162,E,220833.00,A,A*69
,$GNRMC,220834.00,A,3653.49443,S,17454.61159,E,0.664,18.91,150621,,,A*52
,$GNVTG,18.91,T,,M,0.664,N,1.230,K,A*16
,$GNGGA,220834.00,3653.49443,S,17454.61159,E,1,12,0.67,27.2,M,28.1,M,,*6A
,$GNGSA,A,3,10,23,25,32,21,31,,,,,,,1.48,0.67,1.32*17
,$GNGSA,A,3,65,81,74,87,88,66,72,76,,,,,1.48,0.67,1.32*12
,$GPGSV,3,1,12,01,13,218,22,08,02,278,,10,61,083,37,12,13,108,23*77
,$GPGSV,3,2,12,21,29,234,32,23,30,066,35,24,08,138,16,25,18,073,26*7E
,$GPGSV,3,3,12,27,00,306,,31,34,343,37,32,70,190,39,48,15,071,*75
,$GLGSV,3,1,10,65,52,147,37,66,31,235,33,72,20,103,27,74,23,143,22*66
,$GLGSV,3,2,10,75,48,080,29,76,22,018,31,81,32,245,28,82,07,201,27*68
,$GLGSV,3,3,10,87,06,341,31,88,29,307,40*62
,$GNGLL,3653.49443,S,17454.61159,E,220834.00,A,A*61
,$GNRMC,220835.00,A,3653.49426,S,17454.61149,E,0.574,6.49,150621,,,A*69
,$GNVTG,6.49,T,,M,0.574,N,1.062,K,A*2B
,$GNGGA,220835.00,3653.49426,S,17454.61149,E,1,12,0.67,27.0,M,28.1,M,,*6B
,$GNGSA,A,3,10,23,25,32,21,31,,,,,,,1.48,0.67,1.32*17
,$GNGSA,A,3,65,81,74,87,88,66,72,76,,,,,1.48,0.67,1.32*12
,$GPGSV,3,1,12,01,13,218,23,08,02,278,,10,61,083,37,12,13,108,22*77
,$GPGSV,3,2,12,21,29,234,27,23,30,066,31,24,08,138,16,25,18,073,31*78
,$GPGSV,3,3,12,27,00,306,,31,34,343,32,32,70,190,41,48,15,071,*7F
,$GLGSV,3,1,10,65,52,147,31,66,31,235,33,72,20,103,28,74,23,143,33*6F
,$GLGSV,3,2,10,75,48,080,36,76,22,018,31,81,32,245,38,82,07,201,27*67
,$GLGSV,3,3,10,87,06,341,25,88,29,307,42*65
,$GNGLL,3653.49426,S,17454.61149,E,220835.00,A,A*62
,$GNRMC,220836.00,A,3653.49413,S,17454.61138,E,0.708,349.08,150621,,,A*6E
,$GNVTG,349.08,T,,M,0.708,N,1.310,K,A*29
,$GNGGA,220836.00,3653.49413,S,17454.61138,E,1,12,0.67,26.9,M,28.1,M,,*60
,$GNGSA,A,3,10,23,25,32,21,31,,,,,,,1.48,0.67,1.32*17
,$GNGSA,A,3,65,81,74,87,88,66,72,76,,,,,1.48,0.67,1.32*12
,$GPGSV,3,1,12,01,13,218,21,08,02,278,,10,61,083,42,12,13,108,24*71
,$GPGSV,3,2,12,21,29,234,32,23,30,066,31,24,08,138,17,25,18,073,25*78
,$GPGSV,3,3,12,27,00,306,,31,34,343,36,32,70,190,41,48,15,071,*7B
,$GLGSV,3,1,10,65,52,147,37,66,31,235,32,72,20,103,26,74,23,143,32*67
,$GLGSV,3,2,10,75,48,080,34,76,22,018,33,81,32,245,38,82,07,201,28*68
,$GLGSV,3,3,10,87,06,341,24,88,29,307,37*66
,$GNGLL,3653.49413,S,17454.61138,E,220836.00,A,A*61
,$GNRMC,220837.00,A,3653.49404,S,17454.61125,E,0.550,335.27,150621,,,A*6C
,$GNVTG,335.27,T,,M,0.550,N,1.018,K,A*2B
,$GNGGA,220837.00,3653.49404,S,17454.61125,E,1,12,0.67,26.9,M,28.1,M,,*6B
,$GNGSA,A,3,10,23,25,32,21,31,,,,,,,1.48,0.67,1.32*17
,$GNGSA,A,3,65,81,74,87,88,66,72,76,,,,,1.48,0.67,1.32*12
,$GPGSV,3,1,12,01,13,218,22,08,02,278,,10,61,083,40,12,13,108,24*70
,$GPGSV,3,2,12,21,29,234,33,23,30,066,32,24,08,138,16,25,18,073,31*7E
,$GPGSV,3,3,12,27,00,306,,31,34,343,36,32,70,190,41,48,15,071,*7B
,$GLGSV,3,1,10,65,52,147,35,66,31,235,39,72,20,103,33,74,23,143,26*6F
,$GLGSV,3,2,10,75,48,080,38,76,22,018,32,81,32,245,38,82,07,201,27*6A
,$GLGSV,3,3,10,87,06,341,25,88,29,307,35*65
,$GNGLL,3653.49404,S,17454.61125,E,220837.00,A,A*6A
,$GNRMC,220838.00,A,3653.49385,S,17454.61117,E,0.603,330.79,150621,,,A*67
,$GNVTG,330.79,T,,M,0.603,N,1.117,K,A*2E
,$GNGGA,220838.00,3653.49385,S,17454.61117,E,1,12,0.67,27.1,M,28.1,M,,*62
,$GNGSA,A,3,10,23,25,32,21,31,,,,,,,1.48,0.67,1.32*17
,$GNGSA,A,3,65,81,74,87,88,66,72,76,,,,,1.48,0.67,1.32*12
,$GPGSV,3,1,12,01,13,218,21,08,02,278,,10,61,083,44,12,13,108,31*73
,$GPGSV,3,2,12,21,29,234,36,23,30,066,33,24,08,138,15,25,18,073,31*79
,$GPGSV,3,3,12,27,00,306,,31,34,343,35,32,70,190,39,48,15,071,*77
,$GLGSV,3,1,10,65,52,147,32,66,31,235,39,72,20,103,27,74,23,143,25*6E
,$GLGSV,3,2,10,75,48,080,43,76,22,018,26,81,32,245,39,82,07,201,20*65
,$GLGSV,3,3,10,87,06,341,27,88,29,307,36*64
,$GNGLL,3653.49385,S,17454.61117,E,220838.00,A,A*6A
,$GNRMC,220839.00,A,3653.49372,S,17454.61106,E,0.638,324.75,150621,,,A*6F
,$GNVTG,324.75,T,,M,0.638,N,1.182,K,A*23
,$GNGGA,220839.00,3653.49372,S,17454.61106,E,1,12,0.67,27.1,M,28.1,M,,*6B
,$GNGSA,A,3,10,23,25,32,21,31,,,,,,,1.48,0.67,1.31*14
,$GNGSA,A,3,65,81,74,87,88,66,72,76,,,,,1.48,0.67,1.31*11
,$GPGSV,3,1,12,01,13,218,20,08,02,278,,10,61,083,43,12,13,108,35*71
,$GPGSV,3,2,12,21,29,234,36,23,30,066,34,24,08,138,16,25,18,073,25*78
,$GPGSV,3,3,12,27,00,306,,31,34,343,34,32,70,190,40,48,15,071,*78
,$GLGSV,3,1,10,65,52,147,36,66,31,235,38,72,20,103,35,74,23,143,23*6E
,$GLGSV,3,2,10,75,48,080,44,76,22,018,32,81,32,245,35,82,07,201,30*6A
,$GLGSV,3,3,10,87,06,341,25,88,29,307,29*68
,$GNGLL,3653.49372,S,17454.61106,E,220839.00,A,A*63
,$GNRMC,220840.00,A,3653.49359,S,17454.61088,E,0.707,316.05,150621,,,A*64
,$GNVTG,316.05,T,,M,0.707,N,1.310,K,A*21
,$GNGGA,220840.00,3653.49359,S,17454.61088,E,1,12,0.67,27.3,M,28.1,M,,*69
,$GNGSA,A,3,10,23,25,32,21,31,,,,,,,1.48,0.67,1.31*14
,$GNGSA,A,3,65,81,74,87,88,66,72,76,,,,,1.48,0.67,1.31*11
,$GPGSV,3,1,12,01,13,218,20,08,02,278,,10,61,083,43,12,13,108,34*70
,$GPGSV,3,2,12,21,29,234,33,23,29,065,35,24,08,138,15,25,18,073,26*77
,$GPGSV,3,3,12,27,00,306,,31,34,343,31,32,70,190,41,48,15,071,*7C
,$GLGSV,3,1,10,65,52,147,40,66,31,235,34,72,20,103,36,74,23,143,21*62
,$GLGSV,3,2,10,75,48,080,43,76,22,018,26,81,32,245,36,82,07,201,21*6B
,$GLGSV,3,3,10,87,06,341,25,88,29,307,33*63
,$GNGLL,3653.49359,S,17454.61088,E,220840.00,A,A*63
,$GNRMC,220841.00,A,3653.49347,S,17454.61064,E,0.635,306.87,150621,,,A*63
,$GNVTG,306.87,T,,M,0.635,N,1.175,K,A*2B
,$GNGGA,220841.00,3653.49347,S,17454.61064,E,1,12,0.67,27.4,M,28.1,M,,*62
,$GNGSA,A,3,10,23,25,32,21,31,,,,,,,1.48,0.67,1.31*14
,$GNGSA,A,3,65,81,74,87,88,66,72,76,,,,,1.48,0.67,1.31*11
,$GPGSV,3,1,12,01,13,218,20,08,02,278,,10,61,083,42,12,13,108,24*70
,$GPGSV,3,2,12,21,29,234,33,23,29,065,39,24,08,138,15,25,18,073,32*7E
,$GPGSV,3,3,12,27,00,306,,31,34,343,23,32,70,190,42,48,15,071,*7C
,$GLGSV,3,1,10,65,52,147,41,66,31,235,30,72,20,103,36,74,23,143,23*65
,$GLGSV,3,2,10,75,48,080,44,76,22,018,31,81,32,245,33,82,07,201,23*6D
,$GLGSV,3,3,10,87,06,341,25,88,29,307,37*67
,$GNGLL,3653.49347,S,17454.61064,E,220841.00,A,A*6F
,$GNRMC,220842.00,A,3653.49340,S,17454.61049,E,0.605,297.91,150621,,,A*65
,$GNVTG,297.91,T,,M,0.605,N,1.120,K,A*26
,$GNGGA,220842.00,3653.49340,S,17454.61049,E,1,12,0.67,27.3,M,28.1,M,,*6E
,$GNGSA,A,3,10,23,25,32,21,31,,,,,,,1.48,0.67,1.31*14
,$GNGSA,A,3,65,81,74,87,88,66,72,76,,,,,1.48,0.67,1.31*11
,$GPGSV,3,1,12,01,13,218,21,08,02,278,,10,61,083,44,12,13,108,31*73
,$GPGSV,3,2,12,21,29,234,33,23,29,065,37,24,08,138,15,25,18,073,35*77
,$GPGSV,3,3,12,27,00,306,,31,34,343,24,32,70,190,43,48,15,071,*7A
,$GLGSV,3,1,10,65,52,147,41,66,31,235,33,72,20,103,34,74,23,143,22*65
,$GLGSV,3,2,10,75,48,080,44,76,22,018,37,81,32,245,29,82,07,201,24*67
,$GLGSV,3,3,10,87,06,341,24,88,29,307,31*60
,$GNGLL,3653.49340,S,17454.61049,E,220842.00,A,A*64
,$GNRMC,220843.00,A,3653.49335,S,17454.61034,E,0.470,,150621,,,A*76
,$GNVTG,,T,,M,0.470,N,0.870,K,A*31
,$GNGGA,220843.00,3653.49335,S,17454.61034,E,1,12,0.67,27.4,M,28.1,M,,*60
,$GNGSA,A,3,10,23,25,32,21,31,,,,,,,1.48,0.67,1.31*14
,$GNGSA,A,3,65,81,74,87,88,66,72,76,,,,,1.48,0.67,1.31*11
,$GPGSV,3,1,12,01,13,218,22,08,02,278,19,10,61,083,44,12,13,108,24*7C
,$GPGSV,3,2,12,21,29,234,27,23,29,065,40,24,08,138,15,25,18,073,26*70
,$GPGSV,3,3,12,27,00,306,,31,34,343,30,32,70,190,44,48,15,071,*78
,$GLGSV,3,1,10,65,52,147,40,66,31,235,33,72,20,103,31,74,23,143,25*66
,$GLGSV,3,2,10,75,48,080,45,76,22,018,31,81,32,245,34,82,07,201,23*6B
,$GLGSV,3,3,10,87,06,341,24,88,29,307,25*65
,$GNGLL,3653.49335,S,17454.61034,E,220843.00,A,A*6D
,$GNRMC,220844.00,A,3653.49331,S,17454.61012,E,0.757,,150621,,,A*77
,$GNVTG,,T,,M,0.757,N,1.403,K,A*3E
,$GNGGA,220844.00,3653.49331,S,17454.61012,E,1,12,0.67,27.4,M,28.1,M,,*67
,$GNGSA,A,3,10,23,25,32,21,31,,,,,,,1.48,0.67,1.31*14
,$GNGSA,A,3,65,81,74,87,88,66,72,76,,,,,1.48,0.67,1.31*11
,$GPGSV,3,1,11,01,13,218,22,08,02,278,17,10,61,083,44,12,13,108,22*77
,$GPGSV,3,2,11,21,29,234,27,23,29,065,40,24,08,138,15,25,18,073,27*72
,$GPGSV,3,3,11,31,34,343,24,32,70,190,46,48,15,071,*4C
,$GLGSV,3,1,10,65,52,147,36,66,31,235,28,72,20,103,30,74,23,143,30*68
,$GLGSV,3,2,10,75,48,080,43,76,22,018,26,81,32,245,29,82,07,201,22*66
,$GLGSV,3,3,10,87,06,341,22,88,29,307,31*66
,$GNGLL,3653.49331,S,17454.61012,E,220844.00,A,A*6A
,$GNRMC,220845.00,A,3653.49329,S,17454.60992,E,0.571,,150621,,,A*79
,$GNVTG,,T,,M,0.571,N,1.058,K,A*32
,$GNGGA,220845.00,3653.49329,S,17454.60992,E,1,12,0.67,27.6,M,28.1,M,,*6D
,$GNGSA,A,3,10,23,25,32,21,31,,,,,,,1.47,0.67,1.31*1B
,$GNGSA,A,3,65,81,74,87,88,66,72,76,,,,,1.47,0.67,1.31*1E
,$GPGSV,3,1,11,01,13,218,21,08,02,278,17,10,61,083,42,12,13,108,30*71
,$GPGSV,3,2,11,21,29,234,27,23,29,065,41,24,08,138,14,25,18,073,28*7D
,$GPGSV,3,3,11,31,34,343,24,32,70,190,46,48,15,071,*4C
,$GLGSV,3,1,10,65,52,147,34,66,31,235,26,72,20,103,30,74,23,143,30*64
,$GLGSV,3,2,10,75,48,080,42,76,22,018,27,81,32,245,33,82,07,201,21*6E
,$GLGSV,3,3,10,87,06,341,33,88,29,307,30*67
,$GNGLL,3653.49329,S,17454.60992,E,220845.00,A,A*62
,$GNRMC,220846.00,A,3653.49329,S,17454.60979,E,0.440,,150621,,,A*7C
,$GNVTG,,T,,M,0.440,N,0.815,K,A*31
,$GNGGA,220846.00,3653.49329,S,17454.60979,E,1,12,0.67,27.7,M,28.1,M,,*6A
,$GNGSA,A,3,10,23,25,32,21,31,,,,,,,1.47,0.67,1.31*1B
,$GNGSA,A,3,65,81,74,87,88,66,72,76,,,,,1.47,0.67,1.31*1E
,$GPGSV,3,1,11,01,13,218,20,08,02,278,16,10,61,083,44,12,13,108,28*7E
,$GPGSV,3,2,11,21,29,234,23,23,29,065,38,24,08,138,,25,18,073,32*79
,$GPGSV,3,3,11,31,34,343,25,32,70,190,46,48,15,071,*4D
,$GLGSV,3,1,10,65,52,147,35,66,31,235,26,72,20,103,21,74,23,143,24*60
,$GLGSV,3,2,10,75,48,080,45,76,22,018,26,81,32,245,29,82,07,201,*60
,$GLGSV,3,3,10,87,06,341,36,88,29,307,32*60
,$GNGLL,3653.49329,S,17454.60979,E,220846.00,A,A*64
,$GNRMC,220847.00,A,3653.49333,S,17454.60977,E,0.396,,150621,,,A*74
,$GNVTG,,T,,M,0.396,N,0.733,K,A*36
,$GNGGA,220847.00,3653.49333,S,17454.60977,E,1,12,0.67,27.5,M,28.1,M,,*6C
,$GNGSA,A,3,10,23,25,32,21,31,,,,,,,1.47,0.67,1.31*1B
,$GNGSA,A,3,65,81,74,87,88,66,72,76,,,,,1.47,0.67,1.31*1E
,$GPGSV,3,1,11,01,13,218,18,08,02,278,14,10,61,083,41,12,13,108,19*70
,$GPGSV,3,2,11,21,29,234,21,23,29,065,40,24,08,138,,25,18,073,31*77
,$GPGSV,3,3,11,31,34,343,25,32,70,190,46,48,15,071,*4D
,$GLGSV,3,1,10,65,52,147,38,66,31,235,25,72,20,103,23,74,23,143,26*6E
,$GLGSV,3,2,10,75,48,080,45,76,22,018,32,81,32,245,28,82,07,201,*64
,$GLGSV,3,3,10,87,06,341,28,88,29,307,35*68
,$GNGLL,3653.49333,S,17454.60977,E,220847.00,A,A*60
,$GNRMC,220848.00,A,3653.49343,S,17454.60971,E,0.374,,150621,,,A*76
,$GNVTG,,T,,M,0.374,N,0.693,K,A*31
,$GNGGA,220848.00,3653.49343,S,17454.60971,E,1,12,0.67,27.7,M,28.1,M,,*60
,$GNGSA,A,3,10,23,25,32,21,31,,,,,,,1.47,0.67,1.31*1B
,$GNGSA,A,3,65,81,74,87,88,66,72,76,,,,,1.47,0.67,1.31*1E
,$GPGSV,3,1,11,01,13,218,15,08,02,278,14,10,61,083,40,12,13,108,18*7D
,$GPGSV,3,2,11,21,29,234,18,23,29,065,35,24,08,138,,25,18,073,25*7A
,$GPGSV,3,3,11,31,34,343,27,32,70,190,46,48,15,071,*4F
,$GLGSV,3,1,10,65,52,147,39,66,31,235,24,72,20,103,25,74,23,143,34*6B
,$GLGSV,3,2,10,75,48,080,45,76,22,018,36,81,32,245,28,82,07,201,*60
,$GLGSV,3,3,10,87,06,341,23,88,29,307,25*62
,$GNGLL,3653.49343,S,17454.60971,E,220848.00,A,A*6E
,$GNRMC,220849.00,A,3653.49356,S,17454.60962,E,0.524,,150621,,,A*72
,$GNVTG,,T,,M,0.524,N,0.970,K,A*30
,$GNGGA,220849.00,3653.49356,S,17454.60962,E,1,12,0.67,27.7,M,28.1,M,,*67
,$GNGSA,A,3,10,23,25,32,21,31,,,,,,,1.47,0.67,1.31*1B
,$GNGSA,A,3,65,81,74,87,88,66,72,76,,,,,1.47,0.67,1.31*1E
,$GPGSV,3,1,11,01,13,218,,08,02,278,16,10,61,083,39,12,13,108,18*75
,$GPGSV,3,2,11,21,29,234,17,23,29,065,35,24,08,138,,25,18,073,25*75
,$GPGSV,3,3,11,31,34,343,38,32,69,188,47,48,15,071,*41
,$GLGSV,3,1,10,65,52,147,37,66,31,235,24,72,20,103,26,74,23,143,31*63
,$GLGSV,3,2,10,75,48,080,43,76,22,018,23,81,32,245,24,82,07,201,21*6D
,$GLGSV,3,3,10,87,06,341,25,88,29,307,27*66
,$GNGLL,3653.49356,S,17454.60962,E,220849.00,A,A*69
,$GNRMC,220850.00,A,3653.49382,S,17454.60951,E,0.588,,150621,,,A*75
,$GNVTG,,T,,M,0.588,N,1.090,K,A*30
,$GNGGA,220850.00,3653.49382,S,17454.60951,E,1,12,0.67,27.4,M,28.1,M,,*65
,$GNGSA,A,3,10,23,25,32,21,31,,,,,,,1.47,0.67,1.31*1B
,$GNGSA,A,3,65,81,74,87,88,66,72,76,,,,,1.47,0.67,1.31*1E
,$GPGSV,3,1,11,01,13,218,,08,02,278,14,10,61,083,38,12,13,108,29*74
,$GPGSV,3,2,11,21,29,234,19,23,29,065,22,24,08,138,,25,18,073,22*7A
,$GPGSV,3,3,11,31,34,343,42,32,69,188,46,48,15,071,*4D
,$GLGSV,3,1,10,65,52,147,40,66,31,235,31,72,20,103,25,74,23,143,34*61
,$GLGSV,3,2,10,75,48,080,39,76,22,018,34,81,32,245,28,82,07,201,20*6B
,$GLGSV,3,3,10,87,06,341,30,88,29,307,26*63
,$GNGLL,3653.49382,S,17454.60951,E,220850.00,A,A*68
,$GNRMC,220851.00,A,3653.49400,S,17454.60948,E,0.420,,150621,,,A*72
,$GNVTG,,T,,M,0.420,N,0.778,K,A*33
,$GNGGA,220851.00,3653.49400,S,17454.60948,E,1,12,0.67,27.2,M,28.1,M,,*67
,$GNGSA,A,3,10,23,25,32,21,31,,,,,,,1.47,0.67,1.31*1B
,$GNGSA,A,3,65,81,74,87,88,66,72,76,,,,,1.47,0.67,1.31*1E
,$GPGSV,3,1,11,01,13,218,,08,02,278,14,10,61,083,32,12,13,108,18*7C
,$GPGSV,3,2,11,21,29,234,21,23,29,065,24,24,08,138,,25,18,073,20*75
,$GPGSV,3,3,11,31,34,343,44,32,69,188,44,48,15,071,*49
,$GLGSV,3,1,10,65,52,147,40,66,31,235,25,72,20,103,23,74,23,143,34*62
,$GLGSV,3,2,10,75,48,080,38,76,22,018,26,81,32,245,26,82,07,201,22*65
,$GLGSV,3,3,10,87,06,341,34,88,29,307,32*62
,$GNGLL,3653.49400,S,17454.60948,E,220851.00,A,A*6C
,$GNRMC,220852.00,A,3653.49427,S,17454.60937,E,0.830,241.77,150621,,,A*68
,$GNVTG,241.77,T,,M,0.830,N,1.537,K,A*2F
,$GNGGA,220852.00,3653.49427,S,17454.60937,E,1,12,0.67,27.1,M,28.1,M,,*6A
,$GNGSA,A,3,10,23,25,32,21,31,,,,,,,1.47,0.67,1.31*1B
,$GNGSA,A,3,65,81,74,87,88,66,72,76,,,,,1.47,0.67,1.31*1E
,$GPGSV,3,1,11,01,13,218,,08,02,278,13,10,61,083,41,12,13,108,20*74
,$GPGSV,3,2,11,21,29,234,22,23,29,065,22,24,08,138,,25,18,073,20*70
,$GPGSV,3,3,11,31,34,343,43,32,69,188,42,48,15,071,*48
,$GLGSV,3,1,10,65,52,147,38,66,31,235,25,72,20,103,23,74,23,143,34*6D
,$GLGSV,3,2,10,75,48,080,24,76,22,018,35,81,32,245,24,82,07,201,21*6B
,$GLGSV,3,3,10,87,06,341,28,88,29,307,36*6B
,$GNGLL,3653.49427,S,17454.60937,E,220852.00,A,A*62
,$GNRMC,220853.00,A,3653.49451,S,17454.60928,E,0.664,223.68,150621,,,A*63
,$GNVTG,223.68,T,,M,0.664,N,1.229,K,A*22
,$GNGGA,220853.00,3653.49451,S,17454.60928,E,1,12,0.67,26.9,M,28.1,M,,*6D
,$GNGSA,A,3,10,23,25,32,21,31,,,,,,,1.47,0.67,1.31*1B
,$GNGSA,A,3,65,81,74,87,88,66,72,76,,,,,1.47,0.67,1.31*1E
,$GPGSV,3,1,11,01,13,218,,08,02,278,12,10,61,083,45,12,13,108,19*7B
,$GPGSV,3,2,11,21,29,234,23,23,29,065,30,24,08,138,,25,18,073,30*73
,$GPGSV,3,3,11,31,34,343,43,32,69,188,43,48,15,071,*49
,$GLGSV,3,1,10,65,52,147,40,66,31,235,25,72,20,103,22,74,23,143,30*67
,$GLGSV,3,2,10,75,48,080,35,76,22,018,35,81,32,245,25,82,07,201,20*6B
,$GLGSV,3,3,10,87,06,341,26,88,29,307,32*61
,$GNGLL,3653.49451,S,17454.60928,E,220853.00,A,A*6C
,$GNRMC,220854.00,A,3653.49478,S,17454.60926,E,0.792,202.88,150621,,,A*64
,$GNVTG,202.88,T,,M,0.792,N,1.467,K,A*2B
,$GNGGA,220854.00,3653.49478,S,17454.60926,E,1,12,0.67,26.6,M,28.1,M,,*60
,$GNGSA,A,3,10,23,25,32,21,31,,,,,,,1.47,0.67,1.31*1B
,$GNGSA,A,3,65,81,74,87,88,66,72,76,,,,,1.47,0.67,1.31*1E
,$GPGSV,3,1,11,01,13,218,,08,02,278,12,10,61,083,41,12,13,108,21*74
,$GPGSV,3,2,11,21,29,234,24,23,29,065,30,24,08,138,,25,18,073,35*71
,$GPGSV,3,3,11,31,34,343,44,32,69,188,42,48,15,071,*4F
,$GLGSV,3,1,10,65,52,147,40,66,31,235,22,72,20,103,22,74,23,143,36*66
,$GLGSV,3,2,10,75,48,080,40,76,22,018,26,81,32,245,24,82,07,201,19*60
,$GLGSV,3,3,10,87,06,341,27,88,29,307,26*65
,$GNGLL,3653.49478,S,17454.60926,E,220854.00,A,A*6E
,$GNRMC,220855.00,A,3653.49494,S,17454.60933,E,0.716,,150621,,,A*71
,$GNVTG,,T,,M,0.716,N,1.326,K,A*3B
,$GNGGA,220855.00,3653.49494,S,17454.60933,E,1,12,0.67,26.4,M,28.1,M,,*65
,$GNGSA,A,3,10,23,25,32,21,31,,,,,,,1.47,0.67,1.31*1B
,$GNGSA,A,3,65,81,74,87,88,66,72,76,,,,,1.47,0.67,1.31*1E
,$GPGSV,3,1,11,01,13,218,,08,02,278,11,10,61,083,44,12,13,108,28*7B
,$GPGSV,3,2,11,21,29,234,22,23,29,065,37,24,08,138,,25,18,073,26*72
,$GPGSV,3,3,11,31,34,343,44,32,69,188,42,48,15,071,*4F
,$GLGSV,3,1,10,65,52,147,41,66,31,235,29,72,20,103,29,74,23,143,33*62
,$GLGSV,3,2,10,75,48,080,31,76,22,018,25,81,32,245,23,82,07,201,20*68
,$GLGSV,3,3,10,87,06,341,25,88,29,307,28*69
,$GNGLL,3653.49494,S,17454.60933,E,220855.00,A,A*69
,$GNRMC,220856.00,A,3653.49510,S,17454.60943,E,0.748,192.54,150621,,,A*66
,$GNVTG,192.54,T,,M,0.748,N,1.386,K,A*2F
,$GNGGA,220856.00,3653.49510,S,17454.60943,E,1,12,0.67,26.3,M,28.1,M,,*6B
,$GNGSA,A,3,10,23,25,32,21,31,,,,,,,1.47,0.67,1.31*1B
,$GNGSA,A,3,65,81,74,87,88,66,72,76,,,,,1.47,0.67,1.31*1E
,$GPGSV,3,1,11,01,13,218,,08,02,278,11,10,61,083,45,12,13,108,21*73
,$GPGSV,3,2,11,21,29,234,20,23,29,065,39,24,08,138,,25,18,073,35*7C
,$GPGSV,3,3,11,31,34,343,43,32,69,188,45,48,15,071,*4F
,$GLGSV,3,1,10,65,52,147,38,66,31,235,25,72,20,103,29,74,23,143,34*67
,$GLGSV,3,2,10,75,48,080,40,76,22,018,31,81,32,245,22,82,07,201,18*61
,$GLGSV,3,3,10,87,06,341,26,88,29,307,26*64
,$GNGLL,3653.49510,S,17454.60943,E,220856.00,A,A*60
,$GNRMC,220857.00,A,3653.49531,S,17454.60940,E,0.808,193.90,150621,,,A*65
,$GNVTG,193.90,T,,M,0.808,N,1.497,K,A*2A
,$GNGGA,220857.00,3653.49531,S,17454.60940,E,1,12,0.67,26.3,M,28.1,M,,*6A
,$GNGSA,A,3,10,23,25,32,21,31,,,,,,,1.47,0.67,1.31*1B
,$GNGSA,A,3,65,81,74,87,88,66,72,76,,,,,1.47,0.67,1.31*1E
,$GPGSV,3,1,11,01,13,218,20,08,02,278,11,10,61,083,45,12,13,108,21*71
,$GPGSV,3,2,11,21,29,234,18,23,29,065,41,24,08,138,,25,18,073,38*75
,$GPGSV,3,3,11,31,34,343,37,32,69,188,43,48,15,071,*4A
,$GLGSV,3,1,10,65,52,147,40,66,31,235,23,72,20,103,29,74,23,143,31*6B
,$GLGSV,3,2,10,75,48,080,44,76,22,018,23,81,32,245,21,82,07,201,16*6B
,$GLGSV,3,3,10,87,06,341,24,88,29,307,26*66
,$GNGLL,3653.49531,S,17454.60940,E,220857.00,A,A*61
,$GNRMC,220858.00,A,3653.49548,S,17454.60933,E,0.585,,150621,,,A*74
,$GNVTG,,T,,M,0.585,N,1.083,K,A*3F
,$GNGGA,220858.00,3653.49548,S,17454.60933,E,1,12,0.70,26.5,M,28.1,M,,*6F
,$GNGSA,A,3,10,23,25,32,21,31,,,,,,,1.49,0.70,1.31*13
,$GNGSA,A,3,65,81,74,87,88,66,72,76,,,,,1.49,0.70,1.31*16
,$GPGSV,3,1,11,01,13,218,18,08,02,278,11,10,61,083,45,12,13,108,21*7A
,$GPGSV,3,2,11,21,29,234,19,23,29,065,26,24,08,138,,25,18,073,33*7E
,$GPGSV,3,3,11,31,34,343,34,32,69,188,36,48,15,071,*4B
,$GLGSV,3,1,10,65,52,147,38,66,31,235,21,72,20,103,34,74,23,143,32*69
,$GLGSV,3,2,10,75,48,080,42,76,22,018,25,81,32,245,22,82,07,201,15*6B
,$GLGSV,3,3,10,87,06,341,21,88,29,307,23*66
,$GNGLL,3653.49548,S,17454.60933,E,220858.00,A,A*64
,$GNRMC,220859.00,A,3653.49563,S,17454.60939,E,0.644,,150621,,,A*78
,$GNVTG,,T,,M,0.644,N,1.193,K,A*31
,$GNGGA,220859.00,3653.49563,S,17454.60939,E,1,12,0.67,26.7,M,28.1,M,,*69
,$GNGSA,A,3,10,23,25,32,21,31,,,,,,,1.47,0.67,1.31*1B
,$GNGSA,A,3,65,81,74,87,88,66,72,76,,,,,1.47,0.67,1.31*1E
,$GPGSV,3,1,11,01,13,218,18,08,02,278,12,10,61,083,47,12,13,108,23*79
,$GPGSV,3,2,11,21,29,234,21,23,29,065,36,24,08,138,,25,18,073,31*76
,$GPGSV,3,3,11,31,34,343,36,32,69,188,42,48,15,071,*4A
,$GLGSV,3,1,10,65,52,147,38,66,31,235,21,72,20,103,34,74,23,143,28*62
,$GLGSV,3,2,10,75,48,080,40,76,22,018,25,81,32,245,18,82,07,201,18*6D
,$GLGSV,3,3,10,87,06,341,21,88,29,307,22*67
,$GNGLL,3653.49563,S,17454.60939,E,220859.00,A,A*66
,$GNRMC,220900.00,A,3653.49574,S,17454.60945,E,0.392,,150621,,,A*76
,$GNVTG,,T,,M,0.392,N,0.726,K,A*36
,$GNGGA,220900.00,3653.49574,S,17454.60945,E,1,12,0.67,27.1,M,28.1,M,,*6E
,$GNGSA,A,3,10,23,25,32,21,31,,,,,,,1.47,0.67,1.31*1B
,$GNGSA,A,3,65,81,74,87,88,66,72,76,,,,,1.47,0.67,1.31*1E
,$GPGSV,3,1,11,01,13,218,18,08,02,278,12,10,61,083,46,12,13,108,29*72
,$GPGSV,3,2,11,21,29,234,21,23,29,065,36,24,08,138,,25,18,073,32*75
,$GPGSV,3,3,11,31,34,343,36,32,69,188,42,48,15,071,*4A
,$GLGSV,3,1,10,65,52,147,36,66,31,235,21,72,20,103,33,74,23,143,28*6B
,$GLGSV,3,2,10,75,48,080,40,76,22,018,32,81,32,245,23,82,07,201,19*62
,$GLGSV,3,3,10,87,06,341,22,88,29,307,22*64
,$GNGLL,3653.49574,S,17454.60945,E,220900.00,A,A*66
,$GNRMC,220901.00,A,3653.49577,S,17454.60956,E,0.265,,150621,,,A*7F
,$GNVTG,,T,,M,0.265,N,0.491,K,A*30
,$GNGGA,220901.00,3653.49577,S,17454.60956,E,1,12,0.67,27.3,M,28.1,M,,*6C
,$GNGSA,A,3,10,23,25,32,21,31,,,,,,,1.47,0.67,1.31*1B
,$GNGSA,A,3,65,81,74,87,88,66,72,76,,,,,1.47,0.67,1.31*1E
,$GPGSV,3,1,11,01,13,218,17,08,02,278,10,10,61,083,45,12,13,108,22*77
,$GPGSV,3,2,11,21,29,234,21,23,29,065,33,24,08,138,,25,18,073,25*76
,$GPGSV,3,3,11,31,34,343,32,32,69,188,43,48,15,071,*4F
,$GLGSV,3,1,10,65,52,147,36,66,31,235,23,72,20,103,33,74,23,143,26*67
,$GLGSV,3,2,10,75,48,080,40,76,22,018,32,81,32,245,23,82,07,201,20*68
,$GLGSV,3,3,10,87,06,341,22,88,29,307,22*64
,$GNGLL,3653.49577,S,17454.60956,E,220901.00,A,A*66
,$GNRMC,220902.00,A,3653.49575,S,17454.60971,E,0.395,,150621,,,A*75
,$GNVTG,,T,,M,0.395,N,0.731,K,A*37
,$GNGGA,220902.00,3653.49575,S,17454.60971,E,1,12,0.67,27.5,M,28.1,M,,*6E
,$GNGSA,A,3,10,23,25,32,21,31,,,,,,,1.47,0.67,1.31*1B
,$GNGSA,A,3,65,81,74,87,88,66,72,76,,,,,1.47,0.67,1.31*1E
,$GPGSV,3,1,11,01,13,218,16,08,02,278,12,10,61,083,45,12,13,108,28*7E
,$GPGSV,3,2,11,21,29,234,23,23,29,065,32,24,08,138,,25,18,073,27*77
,$GPGSV,3,3,11,31,34,343,36,32,69,188,45,48,15,071,*4D
,$GLGSV,3,1,10,65,52,147,36,66,31,235,25,72,20,103,30,74,23,143,26*62
,$GLGSV,3,2,10,75,48,080,39,76,22,018,31,81,32,245,25,82,07,201,29*6A
,$GLGSV,3,3,10,87,06,341,24,88,29,307,20*60
,$GNGLL,3653.49575,S,17454.60971,E,220902.00,A,A*62
,$GNRMC,220903.00,A,3653.49574,S,17454.60990,E,0.499,,150621,,,A*71
,$GNVTG,,T,,M,0.499,N,0.925,K,A*37
,$GNGGA,220903.00,3653.49574,S,17454.60990,E,1,12,0.67,27.5,M,28.1,M,,*61
,$GNGSA,A,3,10,23,25,32,21,31,,,,,,,1.47,0.67,1.31*1B
,$GNGSA,A,3,65,81,74,87,88,66,72,76,,,,,1.47,0.67,1.31*1E
,$GPGSV,3,1,11,01,13,218,20,08,02,278,14,10,61,083,44,12,13,108,27*73
,$GPGSV,3,2,11,21,29,234,30,23,29,065,33,24,08,138,,25,18,073,28*7B
,$GPGSV,3,3,11,31,34,343,38,32,69,188,45,48,15,071,*43
,$GLGSV,3,1,10,65,52,147,34,66,31,235,31,72,20,103,24,74,23,143,24*62
,$GLGSV,3,2,10,75,48,080,40,76,22,018,24,81,32,245,26,82,07,201,22*68
,$GLGSV,3,3,10,87,06,341,22,88,29,307,28*6E
,$GNGLL,3653.49574,S,17454.60990,E,220903.00,A,A*6D
,$GNRMC,220904.00,A,3653.49572,S,17454.61012,E,0.510,,150621,,,A*72
,$GNVTG,,T,,M,0.510,N,0.944,K,A*30
,$GNGGA,220904.00,3653.49572,S,17454.61012,E,1,12,0.67,27.5,M,28.1,M,,*62
,$GNGSA,A,3,10,23,25,32,21,31,,,,,,,1.47,0.67,1.31*1B
,$GNGSA,A,3,65,81,74,87,88,66,72,76,,,,,1.47,0.67,1.31*1E
,$GPGSV,3,1,11,01,13,218,20,08,02,278,14,10,61,083,43,12,13,108,27*74
,$GPGSV,3,2,11,21,29,234,29,23,29,065,28,24,08,138,,25,18,073,27*76
,$GPGSV,3,3,11,31,34,343,37,32,69,188,46,48,15,071,*4F
,$GLGSV,3,1,10,65,52,147,34,66,31,235,31,72,20,103,24,74,23,143,23*65
,$GLGSV,3,2,10,75,48,080,43,76,22,018,27,81,32,245,31,82,07,201,24*68
,$GLGSV,3,3,10,87,06,341,20,88,29,307,26*62
,$GNGLL,3653.49572,S,17454.61012,E,220904.00,A,A*6E
,$GNRMC,220905.00,A,3653.49570,S,17454.61025,E,0.578,,150621,,,A*7B
,$GNVTG,,T,,M,0.578,N,1.070,K,A*31
,$GNGGA,220905.00,3653.49570,S,17454.61025,E,1,12,0.67,27.5,M,28.1,M,,*65
,$GNGSA,A,3,10,23,25,32,21,31,,,,,,,1.47,0.67,1.31*1B
,$GNGSA,A,3,65,81,74,87,88,66,72,76,,,,,1.47,0.67,1.31*1E
,$GPGSV,3,1,11,01,13,218,21,08,02,278,13,10,61,083,39,12,13,108,26*7E
,$GPGSV,3,2,11,21,29,234,30,23,29,065,27,24,08,138,18,25,18,073,24*7B
,$GPGSV,3,3,11,31,34,343,39,32,69,188,46,48,15,071,*41
,$GLGSV,3,1,10,65,52,147,31,66,31,235,35,72,20,103,23,74,23,143,23*63
,$GLGSV,3,2,10,75,48,080,41,76,22,018,35,81,32,245,35,82,07,201,25*6C
,$GLGSV,3,3,10,87,06,341,21,88,29,307,24*61
,$GNGLL,3653.49570,S,17454.61025,E,220905.00,A,A*69
,$GNRMC,220906.00,A,3653.49560,S,17454.61042,E,0.545,,150621,,,A*76
,$GNVTG,,T,,M,0.545,N,1.010,K,A*39
,$GNGGA,220906.00,3653.49560,S,17454.61042,E,1,12,0.67,27.6,M,28.1,M,,*65
,$GNGSA,A,3,10,23,25,32,21,31,,,,,,,1.47,0.67,1.31*1B
,$GNGSA,A,3,65,81,74,87,88,66,72,76,,,,,1.47,0.67,1.31*1E
,$GPGSV,3,1,11,01,13,218,23,08,02,278,11,10,61,083,41,12,13,108,25*72
,$GPGSV,3,2,11,21,29,234,34,23,29,065,26,24,08,138,16,25,18,073,30*75
,$GPGSV,3,3,11,31,34,343,38,32,69,188,46,48,15,071,*40
,$GLGSV,3,1,10,65,52,147,34,66,31,235,36,72,20,103,25,74,23,143,26*66
,$GLGSV,3,2,10,75,48,080,39,76,22,018,38,81,32,245,33,82,07,201,34*68
,$GLGSV,3,3,10,87,06,341,21,88,29,307,21*64
,$GNGLL,3653.49560,S,17454.61042,E,220906.00,A,A*6A
,$GNRMC,220907.00,A,3653.49546,S,17454.61051,E,0.603,130.26,150621,,,A*68
,$GNVTG,130.26,T,,M,0.603,N,1.116,K,A*27
,$GNGGA,220907.00,3653.49546,S,17454.61051,E,1,12,0.67,27.8,M,28.1,M,,*6C
,$GNGSA,A,3,10,23,25,32,21,31,,,,,,,1.47,0.67,1.31*1B
,$GNGSA,A,3,65,81,74,87,88,66,72,76,,,,,1.47,0.67,1.31*1E
,$GPGSV,3,1,11,01,13,218,24,08,02,278,,10,61,083,39,12,13,108,25*7A
,$GPGSV,3,2,11,21,29,234,37,23,29,065,24,24,08,138,13,25,18,073,25*75
,$GPGSV,3,3,11,31,34,343,43,32,69,188,45,48,15,071,*4F
,$GLGSV,3,1,10,65,52,146,34,66,31,235,38,72,20,103,25,74,23,143,26*69
,$GLGSV,3,2,10,75,48,080,39,76,22,018,36,81,32,245,34,82,07,201,24*60
,$GLGSV,3,3,10,87,06,341,20,88,29,307,29*6D
,$GNGLL,3653.49546,S,17454.61051,E,220907.00,A,A*6D
,$GNRMC,220908.00,A,3653.49527,S,17454.61077,E,0.691,81.83,150621,,,A*5B
,$GNVTG,81.83,T,,M,0.691,N,1.279,K,A*12
,$GNGGA,220908.00,3653.49527,S,17454.61077,E,1,12,0.67,28.0,M,28.1,M,,*67
,$GNGSA,A,3,10,23,25,32,21,31,,,,,,,1.47,0.67,1.31*1B
,$GNGSA,A,3,65,81,74,87,88,66,72,76,,,,,1.47,0.67,1.31*1E
,$GPGSV,3,1,11,01,13,218,25,08,02,278,,10,61,083,30,12,13,108,25*72
,$GPGSV,3,2,11,21,29,234,30,23,29,065,25,24,08,138,10,25,18,073,25*70
,$GPGSV,3,3,11,31,34,343,38,32,69,188,47,48,15,071,*41
,$GLGSV,3,1,10,65,52,146,37,66,31,234,34,72,20,103,27,74,23,143,24*67
,$GLGSV,3,2,10,75,48,080,35,76,22,018,40,81,32,245,39,82,07,201,33*66
,$GLGSV,3,3,10,87,06,341,21,88,29,307,36*62
,$GNGLL,3653.49527,S,17454.61077,E,220908.00,A,A*61
,$GNRMC,220909.00,A,3653.49510,S,17454.61097,E,0.689,45.66,150621,,,A*5A
,$GNVTG,45.66,T,,M,0.689,N,1.275,K,A*14
,$GNGGA,220909.00,3653.49510,S,17454.61097,E,1,12,0.67,28.1,M,28.1,M,,*6D
,$GNGSA,A,3,10,23,25,32,21,31,,,,,,,1.47,0.67,1.31*1B
,$GNGSA,A,3,65,81,74,87,88,66,72,76,,,,,1.47,0.67,1.31*1E
,$GPGSV,3,1,11,01,13,218,25,08,02,278,,10,61,083,25,12,13,108,25*76
,$GPGSV,3,2,11,21,29,234,34,23,29,065,24,24,08,138,13,25,18,073,26*75
,$GPGSV,3,3,11,31,34,343,41,32,69,188,46,48,15,071,*4E
,$GLGSV,3,1,10,65,52,146,37,66,31,234,39,72,20,103,28,74,23,143,22*63
,$GLGSV,3,2,10,75,48,080,32,76,22,018,40,81,32,245,41,82,07,201,27*6B
,$GLGSV,3,3,10,87,06,341,23,88,29,307,30*66
,$GNGLL,3653.49510,S,17454.61097,E,220909.00,A,A*6A
,$GNRMC,220910.00,A,3653.49494,S,17454.61112,E,0.628,34.86,150621,,,A*50
,$GNVTG,34.86,T,,M,0.628,N,1.163,K,A*13
,$GNGGA,220910.00,3653.49494,S,17454.61112,E,1,12,0.67,27.8,M,28.1,M,,*62
,$GNGSA,A,3,10,23,25,32,21,31,,,,,,,1.47,0.67,1.31*1B
,$GNGSA,A,3,65,81,74,87,88,66,72,76,,,,,1.47,0.67,1.31*1E
,$GPGSV,3,1,11,01,13,218,24,08,02,278,,10,61,083,23,12,13,108,22*76
,$GPGSV,3,2,11,21,29,234,29,23,29,065,30,24,08,138,14,25,18,073,32*7E
,$GPGSV,3,3,11,31,34,343,40,32,69,188,42,48,15,071,*4B
,$GLGSV,3,1,10,65,52,146,36,66,31,234,40,72,20,103,32,74,23,143,22*67
,$GLGSV,3,2,10,75,48,080,28,76,22,018,41,81,32,245,43,82,07,201,26*62
,$GLGSV,3,3,10,87,06,341,25,88,29,307,28*69
,$GNGLL,3653.49494,S,17454.61112,E,220910.00,A,A*63
,$GNRMC,220911.00,A,3653.49477,S,17454.61130,E,0.694,33.03,150621,,,A*51
,$GNVTG,33.03,T,,M,0.694,N,1.285,K,A*15
,$GNGGA,220911.00,3653.49477,S,17454.61130,E,1,12,0.67,27.7,M,28.1,M,,*61
,$GNGSA,A,3,10,23,25,32,21,31,,,,,,,1.47,0.67,1.31*1B
,$GNGSA,A,3,65,81,74,87,88,66,72,76,,,,,1.47,0.67,1.31*1E
,$GPGSV,3,1,11,01,13,218,25,08,02,278,,10,61,083,31,12,13,108,21*77
,$GPGSV,3,2,11,21,29,234,31,23,29,065,24,24,08,138,12,25,18,073,32*74
,$GPGSV,3,3,11,31,34,343,41,32,69,188,39,48,15,071,*46
,$GLGSV,3,1,10,65,52,146,27,66,31,234,42,72,20,103,32,74,23,143,20*67
,$GLGSV,3,2,10,75,48,080,35,76,22,018,38,81,32,245,41,82,07,201,34*61
,$GLGSV,3,3,10,87,06,341,26,88,29,307,30*63
,$GNGLL,3653.49477,S,17454.61130,E,220911.00,A,A*6F
,$GNRMC,220912.00,A,3653.49462,S,17454.61135,E,0.771,22.78,150621,,,A*55
,$GNVTG,22.78,T,,M,0.771,N,1.429,K,A*13
,$GNGGA,220912.00,3653.49462,S,17454.61135,E,1,12,0.67,27.5,M,28.1,M,,*61
,$GNGSA,A,3,10,23,25,32,21,31,,,,,,,1.47,0.67,1.31*1B
,$GNGSA,A,3,65,81,74,87,88,66,72,76,,,,,1.47,0.67,1.31*1E
,$GPGSV,3,1,11,01,13,218,23,08,02,278,,10,61,083,39,12,13,108,20*78
,$GPGSV,3,2,11,21,29,234,30,23,29,065,30,24,08,138,13,25,18,073,31*72
,$GPGSV,3,3,11,31,34,343,38,32,69,188,35,48,15,071,*44
,$GLGSV,3,1,10,65,52,146,25,66,31,234,39,72,20,103,26,74,23,143,18*67
,$GLGSV,3,2,10,75,48,080,30,76,22,018,33,81,32,245,28,82,07,201,25*60
,$GLGSV,3,3,10,87,06,341,31,88,29,307,35*60
,$GNGLL,3653.49462,S,17454.61135,E,220912.00,A,A*6D
,$GNRMC,220913.00,A,3653.49446,S,17454.61138,E,0.511,19.73,150621,,,A*58
,$GNVTG,19.73,T,,M,0.511,N,0.947,K,A*10
,$GNGGA,220913.00,3653.49446,S,17454.61138,E,1,12,0.67,27.3,M,28.1,M,,*6D
,$GNGSA,A,3,10,23,25,32,21,31,,,,,,,1.47,0.67,1.31*1B
,$GNGSA,A,3,65,81,74,87,88,66,72,76,,,,,1.47,0.67,1.31*1E
,$GPGSV,3,1,11,01,13,218,22,08,02,278,,10,61,083,39,12,13,108,20*79
,$GPGSV,3,2,11,21,29,234,33,23,29,065,30,24,08,138,13,25,18,073,26*77
,$GPGSV,3,3,11,31,34,343,35,32,69,188,42,48,15,071,*49
,$GLGSV,3,1,10,65,52,146,35,66,31,234,37,72,20,103,31,74,23,143,21*64
,$GLGSV,3,2,10,75,48,080,29,76,22,018,35,81,32,245,32,82,07,201,23*63
,$GLGSV,3,3,10,87,06,341,31,88,29,307,38*6D
,$GNGLL,3653.49446,S,17454.61138,E,220913.00,A,A*67
,$GNRMC,220914.00,A,3653.49426,S,17454.61136,E,0.593,356.31,150621,,,A*63
,$GNVTG,356.31,T,,M,0.593,N,1.099,K,A*2F
,$GNGGA,220914.00,3653.49426,S,17454.61136,E,1,12,0.67,27.4,M,28.1,M,,*65
,$GNGSA,A,3,10,23,25,32,21,31,,,,,,,1.47,0.67,1.31*1B
,$GNGSA,A,3,65,81,74,87,88,66,72,76,,,,,1.47,0.67,1.31*1E
,$GPGSV,3,1,11,01,13,218,23,08,02,278,,10,61,083,41,12,13,108,21*76
,$GPGSV,3,2,11,21,29,234,29,23,29,065,33,24,08,138,15,25,18,073,26*79
,$GPGSV,3,3,11,31,34,343,29,32,69,188,41,48,15,071,*47
,$GLGSV,3,1,10,65,52,146,32,66,31,234,28,72,19,103,26,74,23,143,30*61
,$GLGSV,3,2,10,75,48,080,22,76,22,018,32,81,32,245,37,82,07,201,29*60
,$GLGSV,3,3,10,87,06,341,23,88,29,307,41*60
,$GNGLL,3653.49426,S,17454.61136,E,220914.00,A,A*68
,$GNRMC,220915.00,A,3653.49406,S,17454.61136,E,0.716,350.84,150621,,,A*67
,$GNVTG,350.84,T,,M,0.716,N,1.326,K,A*2F
,$GNGGA,220915.00,3653.49406,S,17454.61136,E,1,12,0.67,27.2,M,28.1,M,,*60
,$GNGSA,A,3,10,23,25,32,21,31,,,,,,,1.47,0.67,1.31*1B
,$GNGSA,A,3,65,81,74,87,88,66,72,76,,,,,1.47,0.67,1.31*1E
,$GPGSV,3,1,11,01,13,218,21,08,02,278,,10,61,083,39,12,13,108,23*79
,$GPGSV,3,2,11,21,29,234,28,23,29,065,29,24,08,138,16,25,18,073,31*76
,$GPGSV,3,3,11,31,34,343,33,32,69,188,41,48,15,071,*4C
,$GLGSV,3,1,10,65,52,146,38,66,31,234,37,72,19,103,26,74,23,143,30*65
,$GLGSV,3,2,10,75,48,080,29,76,22,018,34,81,32,245,42,82,07,201,31*66
,$GLGSV,3,3,10,87,06,341,22,88,29,307,38*6F
,$GNGLL,3653.49406,S,17454.61136,E,220915.00,A,A*6B
,$GNRMC,220916.00,A,3653.49389,S,17454.61117,E,0.652,346.21,150621,,,A*6E
,$GNVTG,346.21,T,,M,0.652,N,1.207,K,A*24
,$GNGGA,220916.00,3653.49389,S,17454.61117,E,1,12,0.67,27.2,M,28.1,M,,*60
,$GNGSA,A,3,10,23,25,32,21,31,,,,,,,1.47,0.67,1.31*1B
,$GNGSA,A,3,65,81,74,87,88,66,72,76,,,,,1.47,0.67,1.31*1E
,$GPGSV,3,1,11,01,13,218,22,08,02,278,,10,61,083,43,12,13,108,22*76
,$GPGSV,3,2,11,21,29,234,33,23,29,065,30,24,08,138,15,25,18,073,31*77
,$GPGSV,3,3,11,31,34,343,36,32,69,188,42,48,15,071,*4A
,$GLGSV,3,1,10,65,52,146,36,66,31,234,30,72,19,103,37,74,23,143,25*68
,$GLGSV,3,2,10,75,48,080,29,76,22,018,26,81,32,245,39,82,07,201,24*6D
,$GLGSV,3,3,10,87,06,341,22,88,29,307,33*64
,$GNGLL,3653.49389,S,17454.61117,E,220916.00,A,A*6B
,$GNRMC,220917.00,A,3653.49380,S,17454.61104,E,0.604,336.64,150621,,,A*61
,$GNVTG,336.64,T,,M,0.604,N,1.119,K,A*2D
,$GNGGA,220917.00,3653.49380,S,17454.61104,E,1,12,0.67,27.4,M,28.1,M,,*6C
,$GNGSA,A,3,10,23,25,32,21,31,,,,,,,1.47,0.67,1.31*1B
,$GNGSA,A,3,65,81,74,87,88,66,72,76,,,,,1.47,0.67,1.31*1E
,$GPGSV,3,1,11,01,13,218,23,08,02,278,,10,61,083,39,12,13,108,30*79
,$GPGSV,3,2,11,21,29,234,36,23,29,065,26,24,08,138,14,25,18,073,26*72
,$GPGSV,3,3,11,31,34,343,36,32,69,188,40,48,15,071,*48
,$GLGSV,3,1,10,65,52,146,34,66,31,234,39,72,19,103,30,74,23,143,25*64
,$GLGSV,3,2,10,75,48,081,41,76,22,018,29,81,32,245,40,82,07,201,23*64
,$GLGSV,3,3,10,87,06,341,30,88,29,307,29*6C
,$GNGLL,3653.49380,S,17454.61104,E,220917.00,A,A*61
,$GNRMC,220918.00,A,3653.49364,S,17454.61086,E,0.789,331.79,150621,,,A*60
,$GNVTG,331.79,T,,M,0.789,N,1.462,K,A*2B
,$GNGGA,220918.00,3653.49364,S,17454.61086,E,1,12,0.67,27.4,M,28.1,M,,*62
,$GNGSA,A,3,10,23,25,32,21,31,,,,,,,1.47,0.67,1.31*1B
,$GNGSA,A,3,65,81,74,87,88,66,72,76,,,,,1.47,0.67,1.31*1E
,$GPGSV,3,1,11,01,13,218,24,08,02,278,,10,61,083,43,12,13,108,34*77
,$GPGSV,3,2,11,21,29,234,36,23,29,065,31,24,08,138,13,25,18,073,26*73
,$GPGSV,3,3,11,31,34,343,33,32,69,188,40,48,15,071,*4D
,$GLGSV,3,1,10,65,52,146,34,66,31,234,39,72,19,103,36,74,23,143,25*62
,$GLGSV,3,2,10,75,48,081,44,76,22,018,30,81,32,245,36,82,07,201,23*68
,$GLGSV,3,3,10,87,06,341,24,88,29,307,33*62
,$GNGLL,3653.49364,S,17454.61086,E,220918.00,A,A*6F
,$GNRMC,220919.00,A,3653.49348,S,17454.61072,E,0.629,324.51,150621,,,A*61
,$GNVTG,324.51,T,,M,0.629,N,1.164,K,A*2D
,$GNGGA,220919.00,3653.49348,S,17454.61072,E,1,12,0.67,27.5,M,28.1,M,,*67
,$GNGSA,A,3,10,23,25,32,21,31,,,,,,,1.47,0.67,1.31*1B
,$GNGSA,A,3,65,81,74,87,88,66,72,76,,,,,1.47,0.67,1.31*1E
,$GPGSV,3,1,11,01,13,218,22,08,02,278,,10,61,083,43,12,13,108,34*71
,$GPGSV,3,2,11,21,29,234,38,23,29,065,38,24,08,138,14,25,18,073,31*75
,$GPGSV,3,3,11,31,34,343,34,32,69,188,40,48,15,071,*4A
,$GLGSV,3,1,10,65,52,146,37,66,31,234,37,72,19,103,36,74,23,143,23*69
,$GLGSV,3,2,10,75,48,081,41,76,22,018,34,81,32,245,33,82,07,201,25*6A
,$GLGSV,3,3,10,87,06,341,24,88,29,307,35*64
,$GNGLL,3653.49348,S,17454.61072,E,220919.00,A,A*6B
,$GNRMC,220920.00,A,3653.49333,S,17454.61054,E,0.663,315.55,150621,,,A*6B
,$GNVTG,315.55,T,,M,0.663,N,1.228,K,A*2E
,$GNGGA,220920.00,3653.49333,S,17454.61054,E,1,12,0.67,27.7,M,28.1,M,,*67
,$GNGSA,A,3,10,23,25,32,21,31,,,,,,,1.47,0.67,1.31*1B
,$GNGSA,A,3,65,81,74,87,88,66,72,76,,,,,1.47,0.67,1.31*1E
,$GPGSV,3,1,11,01,13,218,20,08,02,278,,10,61,083,41,12,13,108,30*75
,$GPGSV,3,2,11,21,29,234,34,23,29,065,37,24,08,138,14,25,18,073,26*70
,$GPGSV,3,3,11,31,34,343,27,32,69,188,42,48,15,071,*4A
,$GLGSV,3,1,10,65,52,146,41,66,31,234,35,72,19,103,36,74,23,143,23*6A
,$GLGSV,3,2,10,75,48,081,42,76,22,018,31,81,32,245,34,82,07,201,24*6A
