,$GNRMC,220800.00,A,3653.49375,S,17454.61175,E,0.610,323.65,150621,,,A*6A
,$GNVTG,323.65,T,,M,0.610,N,1.129,K,A*2E
,$GNGGA,220800.00,3653.49375,S,17454.61175,E,1,12,0.57,25.4,M,28.1,M,,*66
,$GNGSA,A,3,31,10,24,25,23,32,12,,,,,,1.15,0.57,1.00*1B
,$GNGSA,A,3,88,65,76,81,82,87,66,72,74,,,,1.15,0.57,1.00*12
,$GPGSV,3,1,12,01,13,218,26,08,02,277,22,10,61,084,43,12,13,107,39*7C
,$GPGSV,3,2,12,21,,,38,23,30,066,36,24,08,138,20,25,18,073,31*4A
,$GPGSV,3,3,12,27,00,306,,31,34,343,36,32,70,190,47,48,15,071,*7D
,$GLGSV,3,1,10,65,52,147,33,66,30,235,36,72,20,103,29,74,23,143,25*6F
,$GLGSV,3,2,10,75,48,080,39,76,21,018,29,81,32,244,36,82,06,201,34*6E
,$GLGSV,3,3,10,87,07,340,24,88,30,307,35*6C
,$GNGLL,3653.49375,S,17454.61175,E,220800.00,A,A*6A
,$GNRMC,220801.00,A,3653.49362,S,17454.61159,E,0.645,317.29,150621,,,A*6C
,$GNVTG,317.29,T,,M,0.645,N,1.194,K,A*27
,$GNGGA,220801.00,3653.49362,S,17454.61159,E,1,12,0.57,25.4,M,28.1,M,,*6F
,$GNGSA,A,3,31,10,24,25,23,32,12,,,,,,1.15,0.57,1.00*1B
,$GNGSA,A,3,88,65,76,81,82,87,66,72,74,,,,1.15,0.57,1.00*12
,$GPGSV,3,1,12,01,13,218,,08,02,277,25,10,61,084,39,12,13,107,34*7F
,$GPGSV,3,2,12,21,,,38,23,30,066,39,24,08,138,19,25,18,073,35*4B
,$GPGSV,3,3,12,27,00,306,,31,34,343,32,32,70,190,47,48,15,071,*79
,$GLGSV,3,1,10,65,52,147,37,66,30,235,38,72,20,103,31,74,23,143,28*61
,$GLGSV,3,2,10,75,48,080,40,76,21,018,30,81,32,245,33,82,06,201,28*61
,$GLGSV,3,3,10,87,07,340,27,88,30,307,38*62
,$GNGLL,3653.49362,S,17454.61159,E,220801.00,A,A*63
,$GNRMC,220802.00,A,3653.49354,S,17454.61143,E,0.572,305.46,150621,,,A*6C
,$GNVTG,305.46,T,,M,0.572,N,1.059,K,A*2A
,$GNGGA,220802.00,3653.49354,S,17454.61143,E,1,12,0.57,25.4,M,28.1,M,,*62
,$GNGSA,A,3,31,10,24,25,23,32,12,,,,,,1.15,0.57,1.00*1B
,$GNGSA,A,3,88,65,76,81,82,87,66,72,74,,,,1.15,0.57,1.00*12
,$GPGSV,3,1,12,01,13,218,25,08,02,277,27,10,61,084,44,12,13,107,34*70
,$GPGSV,3,2,12,21,,,35,23,30,066,39,24,08,138,19,25,18,073,34*47
,$GPGSV,3,3,12,27,00,306,,31,34,343,31,32,70,190,49,48,15,071,*74
,$GLGSV,3,1,10,65,52,147,35,66,30,235,34,72,20,103,31,74,23,143,27*60
,$GLGSV,3,2,10,75,48,080,41,76,21,018,29,81,32,245,33,82,07,201,34*64
,$GLGSV,3,3,10,87,07,340,25,88,30,307,34*6C
,$GNGLL,3653.49354,S,17454.61143,E,220802.00,A,A*6E
,$GNRMC,220803.00,A,3653.49347,S,17454.61127,E,0.642,298.06,150621,,,A*6C
,$GNVTG,298.06,T,,M,0.642,N,1.189,K,A*27
,$GNGGA,220803.00,3653.49347,S,17454.61127,E,1,12,0.58,25.4,M,28.1,M,,*6C
,$GNGSA,A,3,31,10,25,23,32,12,,,,,,,1.21,0.58,1.06*13
,$GNGSA,A,3,88,65,76,81,82,87,66,72,74,,,,1.21,0.58,1.06*1C
,$GPGSV,3,1,12,01,13,218,23,08,02,277,24,10,61,084,43,12,13,107,37*71
,$GPGSV,3,2,12,21,,,29,23,30,066,37,24,08,138,20,25,18,073,30*4A
,$GPGSV,3,3,12,27,00,306,,31,34,343,28,32,70,190,48,48,15,071,*7D
,$GLGSV,3,1,10,65,52,147,34,66,30,235,34,72,20,103,30,74,23,143,23*64
,$GLGSV,3,2,10,75,48,080,42,76,21,018,31,81,32,245,34,82,07,201,22*6E
,$GLGSV,3,3,10,87,07,340,21,88,30,307,31*6D
,$GNGLL,3653.49347,S,17454.61127,E,220803.00,A,A*6F
,$GNRMC,220804.00,A,3653.49343,S,17454.61109,E,0.595,,150621,,,A*71
,$GNVTG,,T,,M,0.595,N,1.102,K,A*36
,$GNGGA,220804.00,3653.49343,S,17454.61109,E,1,12,0.58,25.4,M,28.1,M,,*63
,$GNGSA,A,3,31,10,25,23,32,12,,,,,,,1.21,0.58,1.06*13
,$GNGSA,A,3,88,65,76,81,82,87,66,72,74,,,,1.21,0.58,1.06*1C
,$GPGSV,3,1,12,01,13,218,20,08,02,277,23,10,61,084,42,12,13,107,34*77
,$GPGSV,3,2,12,21,,,29,23,30,066,37,24,08,138,18,25,18,073,28*48
,$GPGSV,3,3,12,27,00,306,,31,34,343,26,32,70,190,48,48,15,071,*73
,$GLGSV,3,1,10,65,52,147,34,66,30,235,28,72,20,103,30,74,23,143,26*6C
,$GLGSV,3,2,10,75,48,080,40,76,21,018,23,81,32,245,32,82,07,201,22*69
,$GLGSV,3,3,10,87,07,340,22,88,30,307,37*68
,$GNGLL,3653.49343,S,17454.61109,E,220804.00,A,A*60
,$GNRMC,220805.00,A,3653.49343,S,17454.61093,E,0.579,,150621,,,A*70
,$GNVTG,,T,,M,0.579,N,1.073,K,A*33
,$GNGGA,220805.00,3653.49343,S,17454.61093,E,1,12,0.58,25.4,M,28.1,M,,*60
,$GNGSA,A,3,31,10,25,23,32,12,,,,,,,1.21,0.58,1.06*13
,$GNGSA,A,3,88,65,76,81,82,87,66,72,74,,,,1.21,0.58,1.06*1C
,$GPGSV,3,1,12,01,13,218,21,08,02,277,23,10,61,084,42,12,13,107,32*70
,$GPGSV,3,2,12,21,,,23,23,30,066,37,24,08,138,17,25,18,073,35*41
,$GPGSV,3,3,12,27,00,306,,31,34,343,32,32,70,190,48,48,15,071,*76
,$GLGSV,3,1,10,65,52,147,37,66,30,235,27,72,20,103,29,74,23,143,31*6E
,$GLGSV,3,2,10,75,48,080,40,76,21,018,29,81,32,245,26,82,07,201,22*66
,$GLGSV,3,3,10,87,07,340,29,88,30,307,29*6C
,$GNGLL,3653.49343,S,17454.61093,E,220805.00,A,A*63
,$GNRMC,220806.00,A,3653.49351,S,17454.61081,E,0.530,,150621,,,A*7E
,$GNVTG,,T,,M,0.530,N,0.981,K,A*3B
,$GNGGA,220806.00,3653.49351,S,17454.61081,E,1,12,0.58,25.3,M,28.1,M,,*64
,$GNGSA,A,3,31,10,25,23,32,12,,,,,,,1.21,0.58,1.06*13
,$GNGSA,A,3,88,65,76,81,82,87,66,72,74,,,,1.21,0.58,1.06*1C
,$GPGSV,3,1,12,01,13,218,20,08,02,277,23,10,61,084,42,12,13,107,35*76
,$GPGSV,3,2,12,21,,,23,23,30,066,42,24,08,138,16,25,18,073,35*42
,$GPGSV,3,3,12,27,00,306,,31,34,343,31,32,70,190,48,48,15,071,*75
,$GLGSV,3,1,10,65,52,147,38,66,30,235,26,72,20,103,29,74,23,143,31*60
,$GLGSV,3,2,10,75,48,080,42,76,21,018,29,81,32,245,24,82,07,201,21*65
,$GLGSV,3,3,10,87,07,340,27,88,30,307,27*6C
,$GNGLL,3653.49351,S,17454.61081,E,220806.00,A,A*60
,$GNRMC,220807.00,A,3653.49362,S,17454.61066,E,0.735,269.80,150621,,,A*6A
,$GNVTG,269.80,T,,M,0.735,N,1.362,K,A*21
,$GNGGA,220807.00,3653.49362,S,17454.61066,E,1,12,0.58,25.2,M,28.1,M,,*6D
,$GNGSA,A,3,31,10,24,25,23,32,12,,,,,,1.21,0.58,1.06*15
,$GNGSA,A,3,88,65,76,81,82,87,66,72,74,,,,1.21,0.58,1.06*1C
,$GPGSV,3,1,12,01,13,218,17,08,02,277,22,10,61,084,44,12,13,107,37*77
,$GPGSV,3,2,12,21,,,25,23,30,066,43,24,08,138,17,25,18,073,32*43
,$GPGSV,3,3,12,27,00,306,,31,34,343,26,32,70,190,49,48,15,071,*72
,$GLGSV,3,1,10,65,52,147,40,66,30,235,30,72,20,103,28,74,23,143,31*69
,$GLGSV,3,2,10,75,48,080,42,76,21,018,21,81,32,245,24,82,07,201,21*6D
,$GLGSV,3,3,10,87,06,341,28,88,30,307,27*63
,$GNGLL,3653.49362,S,17454.61066,E,220807.00,A,A*68
,$GNRMC,220808.00,A,3653.49371,S,17454.61050,E,0.676,,150621,,,A*7F
,$GNVTG,,T,,M,0.676,N,1.252,K,A*3E
,$GNGGA,220808.00,3653.49371,S,17454.61050,E,1,12,0.61,25.1,M,28.1,M,,*6C
,$GNGSA,A,3,31,10,24,25,23,32,12,,,,,,1.22,0.61,1.06*1C
,$GNGSA,A,3,88,65,76,81,82,87,66,72,74,,,,1.22,0.61,1.06*15
,$GPGSV,3,1,12,01,13,218,19,08,02,277,21,10,61,084,43,12,13,107,33*79
,$GPGSV,3,2,12,21,,,24,23,30,066,43,24,08,138,18,25,18,073,35*4A
,$GPGSV,3,3,12,27,00,306,,31,34,343,26,32,70,190,47,48,15,071,*7C
,$GLGSV,3,1,10,65,52,147,40,66,30,235,24,72,20,103,33,74,23,143,37*60
,$GLGSV,3,2,10,75,48,080,42,76,21,018,30,81,32,245,22,82,07,201,19*60
,$GLGSV,3,3,10,87,06,341,20,88,29,307,26*62
,$GNGLL,3653.49371,S,17454.61050,E,220808.00,A,A*60
,$GNRMC,220809.00,A,3653.49386,S,17454.61035,E,0.779,243.43,150621,,,A*67
,$GNVTG,243.43,T,,M,0.779,N,1.443,K,A*2A
,$GNGGA,220809.00,3653.49386,S,17454.61035,E,1,12,0.61,24.9,M,28.1,M,,*6F
,$GNGSA,A,3,31,10,24,25,23,32,12,,,,,,1.22,0.61,1.06*1C
,$GNGSA,A,3,88,65,76,81,82,87,66,72,74,,,,1.22,0.61,1.06*15
,$GPGSV,3,1,12,01,13,218,20,08,02,277,19,10,61,084,45,12,13,107,33*7E
,$GPGSV,3,2,12,21,,,23,23,30,066,41,24,08,138,18,25,18,073,38*42
,$GPGSV,3,3,12,27,00,306,,31,34,343,31,32,70,190,48,48,15,071,*75
,$GLGSV,3,1,10,65,52,147,40,66,30,235,24,72,20,103,28,74,23,143,36*6B
,$GLGSV,3,2,10,75,48,080,38,76,21,018,26,81,32,245,25,82,07,201,18*6C
,$GLGSV,3,3,10,87,06,341,23,88,29,307,26*61
,$GNGLL,3653.49386,S,17454.61035,E,220809.00,A,A*6A
,$GNRMC,220810.00,A,3653.49400,S,17454.61020,E,0.676,227.89,150621,,,A*68
,$GNVTG,227.89,T,,M,0.676,N,1.253,K,A*27
,$GNGGA,220810.00,3653.49400,S,17454.61020,E,1,12,0.58,24.8,M,28.1,M,,*61
,$GNGSA,A,3,31,10,24,25,23,32,12,,,,,,1.21,0.58,1.06*15
,$GNGSA,A,3,88,65,76,81,82,87,66,72,74,,,,1.21,0.58,1.06*1C
,$GPGSV,3,1,12,01,13,218,22,08,02,277,16,10,61,084,44,12,13,107,29*79
,$GPGSV,3,2,12,21,,,23,23,30,066,40,24,08,138,16,25,18,073,39*4C
,$GPGSV,3,3,12,27,00,306,,31,34,343,35,32,70,190,46,48,15,071,*7F
,$GLGSV,3,1,10,65,52,147,40,66,30,235,24,72,20,103,27,74,23,143,36*64
,$GLGSV,3,2,10,75,48,080,42,76,21,018,27,81,32,245,25,82,07,201,19*61
,$GLGSV,3,3,10,87,06,341,29,88,29,307,32*6E
,$GNGLL,3653.49400,S,17454.61020,E,220810.00,A,A*6F
,$GNRMC,220811.00,A,3653.49411,S,17454.61007,E,0.704,219.58,150621,,,A*69
,$GNVTG,219.58,T,,M,0.704,N,1.304,K,A*21
,$GNGGA,220811.00,3653.49411,S,17454.61007,E,1,12,0.58,24.4,M,28.1,M,,*69
,$GNGSA,A,3,31,10,24,25,23,32,12,,,,,,1.21,0.58,1.06*15
,$GNGSA,A,3,88,65,76,81,82,87,66,72,74,,,,1.21,0.58,1.06*1C
,$GPGSV,3,1,12,01,13,218,19,08,02,277,15,10,61,084,46,12,13,107,19*73
,$GPGSV,3,2,12,21,,,22,23,30,066,42,24,08,138,16,25,18,073,40*41
,$GPGSV,3,3,12,27,00,306,,31,34,343,39,32,70,190,45,48,15,071,*70
,$GLGSV,3,1,10,65,52,147,40,66,30,235,23,72,20,103,26,74,23,143,35*61
,$GLGSV,3,2,10,75,48,080,38,76,21,018,26,81,32,245,24,82,07,201,21*67
,$GLGSV,3,3,10,87,06,341,22,88,29,307,26*60
,$GNGLL,3653.49411,S,17454.61007,E,220811.00,A,A*6B
,$GNRMC,220812.00,A,3653.49427,S,17454.61000,E,0.664,211.22,150621,,,A*6A
,$GNVTG,211.22,T,,M,0.664,N,1.230,K,A*25
,$GNGGA,220812.00,3653.49427,S,17454.61000,E,1,12,0.58,24.3,M,28.1,M,,*6F
,$GNGSA,A,3,31,10,24,25,23,32,12,,,,,,1.21,0.58,1.06*15
,$GNGSA,A,3,88,65,76,81,82,87,66,72,74,,,,1.21,0.58,1.06*1C
,$GPGSV,3,1,12,01,13,218,21,08,02,277,15,10,61,084,45,12,13,107,29*78
,$GPGSV,3,2,12,21,,,25,23,30,066,43,24,08,138,14,25,18,073,37*45
,$GPGSV,3,3,12,27,00,306,,31,34,343,34,32,70,190,41,48,15,071,34*7E
,$GLGSV,3,1,10,65,52,147,42,66,30,235,23,72,20,103,25,74,23,143,34*61
,$GLGSV,3,2,10,75,48,080,41,76,21,018,27,81,32,245,22,82,07,201,20*6F
,$GLGSV,3,3,10,87,06,341,32,88,29,307,32*64
,$GNGLL,3653.49427,S,17454.61000,E,220812.00,A,A*6A
,$GNRMC,220813.00,A,3653.49444,S,17454.60994,E,0.647,201.63,150621,,,A*6E
,$GNVTG,201.63,T,,M,0.647,N,1.197,K,A*2E
,$GNGGA,220813.00,3653.49444,S,17454.60994,E,1,12,0.61,24.2,M,28.1,M,,*65
,$GNGSA,A,3,31,10,24,25,23,32,12,,,,,,1.22,0.61,1.06*1C
,$GNGSA,A,3,88,65,76,81,82,87,66,72,74,,,,1.22,0.61,1.06*15
,$GPGSV,3,1,12,01,13,218,19,08,02,277,13,10,61,084,48,12,13,107,20*71
,$GPGSV,3,2,12,21,,,24,23,30,066,44,24,08,138,11,25,18,073,38*49
,$GPGSV,3,3,12,27,00,306,,31,34,343,36,32,70,190,40,48,15,071,39*70
,$GLGSV,3,1,10,65,52,147,41,66,30,235,24,72,20,103,31,74,23,143,37*63
,$GLGSV,3,2,10,75,48,080,42,76,21,018,36,81,32,245,23,82,07,201,19*67
,$GLGSV,3,3,10,87,06,341,24,88,29,307,29*69
,$GNGLL,3653.49444,S,17454.60994,E,220813.00,A,A*6B
,$GNRMC,220814.00,A,3653.49465,S,17454.60995,E,0.544,193.27,150621,,,A*63
,$GNVTG,193.27,T,,M,0.544,N,1.007,K,A*2E
,$GNGGA,220814.00,3653.49465,S,17454.60995,E,1,12,0.61,24.1,M,28.1,M,,*63
,$GNGSA,A,3,31,10,24,25,23,32,12,,,,,,1.22,0.61,1.06*1C
,$GNGSA,A,3,88,65,76,81,82,87,66,72,74,,,,1.22,0.61,1.06*15
,$GPGSV,3,1,12,01,13,218,21,08,02,277,10,10,61,084,48,12,13,107,24*7D
,$GPGSV,3,2,12,21,,,23,23,30,066,44,24,08,138,14,25,18,073,38*4B
,$GPGSV,3,3,12,27,00,306,,31,34,343,40,32,70,190,40,48,15,071,31*79
,$GLGSV,3,1,10,65,52,147,41,66,30,235,23,72,20,103,30,74,23,143,30*62
,$GLGSV,3,2,10,75,48,080,40,76,21,018,38,81,32,245,22,82,07,201,20*60
,$GLGSV,3,3,10,87,06,341,25,88,29,307,21*60
,$GNGLL,3653.49465,S,17454.60995,E,220814.00,A,A*6E
,$GNRMC,220815.00,A,3653.49481,S,17454.60996,E,0.593,179.06,150621,,,A*66
,$GNVTG,179.06,T,,M,0.593,N,1.098,K,A*25
,$GNGGA,220815.00,3653.49481,S,17454.60996,E,1,12,0.61,24.2,M,28.1,M,,*68
,$GNGSA,A,3,31,10,24,25,23,32,12,,,,,,1.22,0.61,1.06*1C
,$GNGSA,A,3,88,65,76,81,82,87,66,72,74,,,,1.22,0.61,1.06*15
,$GPGSV,3,1,12,01,13,218,20,08,02,277,10,10,61,084,48,12,13,107,26*7E
,$GPGSV,3,2,12,21,,,21,23,30,066,44,24,08,138,15,25,18,073,38*48
,$GPGSV,3,3,12,27,00,306,,31,34,343,43,32,70,190,40,48,15,071,38*73
,$GLGSV,3,1,10,65,52,147,41,66,30,235,25,72,20,103,29,74,23,143,30*6C
,$GLGSV,3,2,10,75,48,080,44,76,21,018,36,81,32,245,21,82,07,201,19*63
,$GLGSV,3,3,10,87,06,341,27,88,29,307,20*63
,$GNGLL,3653.49481,S,17454.60996,E,220815.00,A,A*66
,$GNRMC,220816.00,A,3653.49496,S,17454.60997,E,0.600,168.77,150621,,,A*6D
,$GNVTG,168.77,T,,M,0.600,N,1.111,K,A*2A
,$GNGGA,220816.00,3653.49496,S,17454.60997,E,1,12,0.61,24.2,M,28.1,M,,*6C
,$GNGSA,A,3,31,10,24,25,23,32,12,,,,,,1.22,0.61,1.06*1C
,$GNGSA,A,3,88,65,76,81,82,87,66,72,74,,,,1.22,0.61,1.06*15
,$GPGSV,3,1,12,01,13,218,18,08,02,278,09,10,61,084,47,12,13,107,27*7C
,$GPGSV,3,2,12,21,,,20,23,30,066,46,24,08,138,14,25,18,073,29*4A
,$GPGSV,3,3,12,27,00,306,,31,34,343,43,32,70,190,43,48,15,071,33*7B
,$GLGSV,3,1,10,65,52,147,35,66,30,235,25,72,20,103,33,74,23,143,31*65
,$GLGSV,3,2,10,75,48,080,42,76,21,018,32,81,32,245,20,82,07,201,20*6A
,$GLGSV,3,3,10,87,06,341,26,88,29,307,20*62
,$GNGLL,3653.49496,S,17454.60997,E,220816.00,A,A*62
,$GNRMC,220817.00,A,3653.49512,S,17454.60996,E,0.625,176.45,150621,,,A*69
,$GNVTG,176.45,T,,M,0.625,N,1.157,K,A*21
,$GNGGA,220817.00,3653.49512,S,17454.60996,E,1,12,0.58,24.5,M,28.1,M,,*6C
,$GNGSA,A,3,31,10,24,25,23,32,12,,,,,,1.21,0.58,1.06*15
,$GNGSA,A,3,88,65,76,81,82,87,66,72,74,,,,1.21,0.58,1.06*1C
,$GPGSV,3,1,11,01,13,218,17,08,02,278,08,10,61,084,49,12,13,107,26*7E
,$GPGSV,3,2,11,23,30,066,39,24,08,138,14,25,18,073,39,27,00,306,*71
,$GPGSV,3,3,11,31,34,343,40,32,70,190,43,48,15,071,38*40
,$GLGSV,3,1,10,65,52,147,37,66,30,235,26,72,20,103,28,74,23,143,36*69
,$GLGSV,3,2,10,75,48,080,43,76,21,018,33,81,32,245,20,82,07,201,21*6B
,$GLGSV,3,3,10,87,06,341,25,88,29,307,19*6B
,$GNGLL,3653.49512,S,17454.60996,E,220817.00,A,A*6F
,$GNRMC,220818.00,A,3653.49529,S,17454.60997,E,0.532,,150621,,,A*75
,$GNVTG,,T,,M,0.532,N,0.985,K,A*3D
,$GNGGA,220818.00,3653.49529,S,17454.60997,E,1,12,0.58,24.4,M,28.1,M,,*6B
,$GNGSA,A,3,31,10,24,25,23,32,12,,,,,,1.21,0.58,1.06*15
,$GNGSA,A,3,88,65,76,81,82,87,66,72,74,,,,1.21,0.58,1.06*1C
,$GPGSV,3,1,11,01,13,218,18,08,02,278,08,10,61,083,47,12,13,107,26*78
,$GPGSV,3,2,11,23,30,066,41,24,08,138,14,25,18,073,36,27,00,306,*71
,$GPGSV,3,3,11,31,34,343,39,32,70,190,42,48,15,071,37*40
,$GLGSV,3,1,10,65,52,147,37,66,30,235,25,72,20,103,27,74,23,143,34*67
,$GLGSV,3,2,10,75,48,080,41,76,21,018,30,81,32,245,21,82,07,201,20*6A
,$GLGSV,3,3,10,87,06,341,23,88,29,307,20*67
,$GNGLL,3653.49529,S,17454.60997,E,220818.00,A,A*69
,$GNRMC,220819.00,A,3653.49544,S,17454.61000,E,0.501,,150621,,,A*79
,$GNVTG,,T,,M,0.501,N,0.928,K,A*3A
,$GNGGA,220819.00,3653.49544,S,17454.61000,E,1,12,0.58,24.5,M,28.1,M,,*66
,$GNGSA,A,3,31,10,24,25,23,32,12,,,,,,1.21,0.58,1.06*15
,$GNGSA,A,3,88,65,76,81,82,87,66,72,74,,,,1.21,0.58,1.06*1C
,$GPGSV,3,1,11,01,13,218,20,08,02,278,09,10,61,083,48,12,13,108,26*72
,$GPGSV,3,2,11,23,30,066,42,24,08,138,15,25,18,073,27,27,00,306,*73
,$GPGSV,3,3,11,31,34,343,40,32,70,190,41,48,15,071,31*4B
,$GLGSV,3,1,10,65,52,147,40,66,30,235,26,72,20,103,32,74,23,143,26*63
,$GLGSV,3,2,10,75,48,080,42,76,21,018,34,81,32,245,22,82,07,201,22*6C
,$GLGSV,3,3,10,87,06,341,21,88,29,307,21*64
,$GNGLL,3653.49544,S,17454.61000,E,220819.00,A,A*65
,$GNRMC,220820.00,A,3653.49555,S,17454.61007,E,0.405,,150621,,,A*71
,$GNVTG,,T,,M,0.405,N,0.750,K,A*3E
,$GNGGA,220820.00,3653.49555,S,17454.61007,E,1,12,0.58,24.8,M,28.1,M,,*66
,$GNGSA,A,3,31,10,24,25,23,32,12,,,,,,1.21,0.58,1.06*15
,$GNGSA,A,3,88,65,76,81,82,87,66,72,74,,,,1.21,0.58,1.06*1C
,$GPGSV,3,1,11,01,13,218,22,08,02,278,09,10,61,083,47,12,13,108,25*7C
,$GPGSV,3,2,11,23,30,066,40,24,08,138,14,25,18,073,33,27,00,306,*75
,$GPGSV,3,3,11,31,34,343,43,32,70,190,40,48,15,071,*4B
,$GLGSV,3,1,10,65,52,147,38,66,30,235,26,72,20,103,29,74,23,143,33*62
,$GLGSV,3,2,10,75,48,080,43,76,21,018,34,81,32,245,22,82,07,201,25*6A
,$GLGSV,3,3,10,87,06,341,21,88,29,307,23*66
,$GNGLL,3653.49555,S,17454.61007,E,220820.00,A,A*68
,$GNRMC,220821.00,A,3653.49562,S,17454.61019,E,0.433,,150621,,,A*7E
,$GNVTG,,T,,M,0.433,N,0.802,K,A*33
,$GNGGA,220821.00,3653.49562,S,17454.61019,E,1,12,0.58,25.0,M,28.1,M,,*65
,$GNGSA,A,3,31,10,24,25,23,32,12,,,,,,1.21,0.58,1.06*15
,$GNGSA,A,3,88,65,76,81,82,87,66,72,74,,,,1.21,0.58,1.06*1C
,$GPGSV,3,1,11,01,13,218,24,08,02,278,,10,61,083,48,12,13,108,30*78
,$GPGSV,3,2,11,23,30,066,36,24,08,138,14,25,18,073,34,27,00,306,*73
,$GPGSV,3,3,11,31,34,343,43,32,70,190,45,48,15,071,*4E
,$GLGSV,3,1,10,65,52,147,36,66,30,235,23,72,20,103,29,74,23,143,29*62
,$GLGSV,3,2,10,75,48,080,42,76,21,018,37,81,32,245,29,82,07,201,24*62
,$GLGSV,3,3,10,87,06,341,21,88,29,307,22*67
,$GNGLL,3653.49562,S,17454.61019,E,220821.00,A,A*62
,$GNRMC,220822.00,A,3653.49573,S,17454.61034,E,0.519,,150621,,,A*7B
,$GNVTG,,T,,M,0.519,N,0.962,K,A*3D
,$GNGGA,220822.00,3653.49573,S,17454.61034,E,1,12,0.58,25.0,M,28.1,M,,*69
,$GNGSA,A,3,31,10,24,25,23,32,12,,,,,,1.21,0.58,1.06*15
,$GNGSA,A,3,88,65,76,81,82,87,66,72,74,,,,1.21,0.58,1.06*1C
,$GPGSV,3,1,11,01,13,218,25,08,02,278,,10,61,083,46,12,13,108,29*7F
,$GPGSV,3,2,11,23,30,066,38,24,08,138,15,25,18,073,31,27,00,306,*79
,$GPGSV,3,3,11,31,34,343,44,32,70,190,44,48,15,071,*48
,$GLGSV,3,1,10,65,52,147,36,66,30,235,21,72,20,103,24,74,23,143,28*6C
,$GLGSV,3,2,10,75,48,080,44,76,21,018,33,81,32,245,25,82,07,201,25*6D
,$GLGSV,3,3,10,87,06,341,20,88,29,307,21*65
,$GNGLL,3653.49573,S,17454.61034,E,220822.00,A,A*6E
,$GNRMC,220823.00,A,3653.49580,S,17454.61054,E,0.674,131.20,150621,,,A*67
,$GNVTG,131.20,T,,M,0.674,N,1.249,K,A*29
,$GNGGA,220823.00,3653.49580,S,17454.61054,E,1,12,0.58,25.1,M,28.1,M,,*63
,$GNGSA,A,3,31,10,24,25,23,32,12,,,,,,1.21,0.58,1.06*15
,$GNGSA,A,3,88,65,76,81,82,87,66,72,74,,,,1.21,0.58,1.06*1C
,$GPGSV,3,1,11,01,13,218,24,08,02,278,,10,61,083,45,12,13,108,25*71
,$GPGSV,3,2,11,23,30,066,37,24,08,138,16,25,18,073,25,27,00,306,*70
,$GPGSV,3,3,11,31,34,343,45,32,70,190,43,48,15,071,33*4E
,$GLGSV,3,1,10,65,52,147,37,66,30,235,20,72,20,103,30,74,23,143,21*60
,$GLGSV,3,2,10,75,48,080,41,76,21,018,34,81,32,245,25,82,07,201,24*6E
,$GLGSV,3,3,10,87,06,341,28,88,29,307,22*6E
,$GNGLL,3653.49580,S,17454.61054,E,220823.00,A,A*65
,$GNRMC,220824.00,A,3653.49581,S,17454.61078,E,0.692,106.62,150621,,,A*65
,$GNVTG,106.62,T,,M,0.692,N,1.281,K,A*27
,$GNGGA,220824.00,3653.49581,S,17454.61078,E,1,12,0.58,25.3,M,28.1,M,,*69
,$GNGSA,A,3,31,10,24,25,23,32,12,,,,,,1.21,0.58,1.06*15
,$GNGSA,A,3,88,65,76,81,82,87,66,72,74,,,,1.21,0.58,1.06*1C
,$GPGSV,3,1,11,01,13,218,26,08,02,278,,10,61,083,43,12,13,108,24*74
,$GPGSV,3,2,11,23,30,066,34,24,08,138,15,25,18,073,32,27,00,306,*76
,$GPGSV,3,3,11,31,34,343,45,32,70,190,42,48,15,071,32*4E
,$GLGSV,3,1,10,65,52,147,35,66,30,235,33,72,20,103,29,74,23,143,20*69
,$GLGSV,3,2,10,75,48,080,41,76,21,018,33,81,32,245,26,82,07,201,22*6C
,$GLGSV,3,3,10,87,06,341,20,88,29,307,22*66
,$GNGLL,3653.49581,S,17454.61078,E,220824.00,A,A*6D
,$GNRMC,220825.00,A,3653.49579,S,17454.61104,E,0.635,93.58,150621,,,A*50
,$GNVTG,93.58,T,,M,0.635,N,1.177,K,A*14
,$GNGGA,220825.00,3653.49579,S,17454.61104,E,1,12,0.58,25.4,M,28.1,M,,*62
,$GNGSA,A,3,31,10,24,25,23,32,12,,,,,,1.21,0.58,1.06*15
,$GNGSA,A,3,88,65,76,81,82,87,66,72,74,,,,1.21,0.58,1.06*1C
,$GPGSV,3,1,11,01,13,218,24,08,02,278,,10,61,083,45,12,13,108,24*70
,$GPGSV,3,2,11,23,30,066,29,24,08,138,16,25,18,073,35,27,00,306,*7E
,$GPGSV,3,3,11,31,34,343,46,32,70,190,42,48,15,071,35*4A
,$GLGSV,3,1,10,65,52,147,36,66,30,235,33,72,20,103,28,74,23,143,20*6B
,$GLGSV,3,2,10,75,48,080,38,76,21,018,35,81,32,245,28,82,07,201,21*69
,$GLGSV,3,3,10,87,06,341,22,88,29,307,22*64
,$GNGLL,3653.49579,S,17454.61104,E,220825.00,A,A*61
,$GNRMC,220826.00,A,3653.49579,S,17454.61122,E,0.523,,150621,,,A*7A
,$GNVTG,,T,,M,0.523,N,0.968,K,A*3E
,$GNGGA,220826.00,3653.49579,S,17454.61122,E,1,12,0.58,25.3,M,28.1,M,,*62
,$GNGSA,A,3,31,10,24,25,23,32,12,,,,,,1.21,0.58,1.06*15
,$GNGSA,A,3,88,65,76,81,82,87,66,72,74,,,,1.21,0.58,1.06*1C
,$GPGSV,3,1,11,01,13,218,23,08,02,278,,10,61,083,43,12,13,108,24*71
,$GPGSV,3,2,11,23,29,065,24,24,08,138,18,25,18,073,34,27,00,306,*77
,$GPGSV,3,3,11,31,34,343,41,32,70,190,42,48,15,071,32*4A
,$GLGSV,3,1,10,65,52,147,36,66,30,235,36,72,20,103,17,74,23,143,20*62
,$GLGSV,3,2,10,75,48,080,40,76,21,018,35,81,32,245,33,82,07,201,29*64
,$GLGSV,3,3,10,87,06,341,22,88,29,307,29*6F
,$GNGLL,3653.49579,S,17454.61122,E,220826.00,A,A*66
,$GNRMC,220827.00,A,3653.49576,S,17454.61139,E,0.659,78.51,150621,,,A*55
,$GNVTG,78.51,T,,M,0.659,N,1.220,K,A*13
,$GNGGA,220827.00,3653.49576,S,17454.61139,E,1,12,0.58,25.1,M,28.1,M,,*64
,$GNGSA,A,3,31,10,24,25,23,32,12,,,,,,1.21,0.58,1.06*15
,$GNGSA,A,3,88,65,76,81,82,87,66,72,74,,,,1.21,0.58,1.06*1C
,$GPGSV,3,1,11,01,13,218,24,08,02,278,,10,61,083,43,12,13,108,25*77
,$GPGSV,3,2,11,23,29,065,31,24,08,138,19,25,18,073,26,27,00,306,*71
,$GPGSV,3,3,11,31,34,343,44,32,70,190,42,48,15,071,*4E
,$GLGSV,3,1,10,65,52,147,36,66,30,235,34,72,20,103,16,74,23,143,20*61
,$GLGSV,3,2,10,75,48,080,30,76,21,018,27,81,32,245,33,82,07,201,22*6B
,$GLGSV,3,3,10,87,06,341,29,88,29,307,33*6F
,$GNGLL,3653.49576,S,17454.61139,E,220827.00,A,A*62
,$GNRMC,220828.00,A,3653.49564,S,17454.61159,E,0.675,68.92,150621,,,A*5F
,$GNVTG,68.92,T,,M,0.675,N,1.251,K,A*15
,$GNGGA,220828.00,3653.49564,S,17454.61159,E,1,12,0.58,25.3,M,28.1,M,,*6C
,$GNGSA,A,3,31,10,24,25,23,32,12,,,,,,1.21,0.58,1.06*15
,$GNGSA,A,3,88,65,76,81,82,87,66,72,74,,,,1.21,0.58,1.06*1C
,$GPGSV,3,1,11,01,13,218,23,08,02,278,16,10,61,083,31,12,13,108,26*71
,$GPGSV,3,2,11,23,29,065,24,24,08,138,19,25,18,073,27,27,00,306,*74
,$GPGSV,3,3,11,31,34,343,41,32,70,190,44,48,15,071,*4D
,$GLGSV,3,1,10,65,52,147,36,66,30,235,35,72,20,103,28,74,23,143,20*6D
,$GLGSV,3,2,10,75,48,080,35,76,21,018,32,81,32,245,37,82,07,201,29*65
,$GLGSV,3,3,10,87,06,341,28,88,29,307,33*6E
,$GNGLL,3653.49564,S,17454.61159,E,220828.00,A,A*68
,$GNRMC,220829.00,A,3653.49552,S,17454.61179,E,0.661,58.93,150621,,,A*5E
,$GNVTG,58.93,T,,M,0.661,N,1.223,K,A*17
,$GNGGA,220829.00,3653.49552,S,17454.61179,E,1,12,0.58,25.1,M,28.1,M,,*68
,$GNGSA,A,3,31,10,24,25,23,32,12,,,,,,1.21,0.58,1.06*15
,$GNGSA,A,3,88,65,76,81,82,87,66,72,74,,,,1.21,0.58,1.06*1C
,$GPGSV,3,1,11,01,13,218,25,08,02,278,16,10,61,083,32,12,13,108,24*76
,$GPGSV,3,2,11,23,29,065,31,24,08,138,18,25,18,073,25,27,00,306,*73
,$GPGSV,3,3,11,31,34,343,43,32,70,190,43,48,15,071,*48
,$GLGSV,3,1,10,65,52,147,36,66,30,235,38,72,20,103,25,74,23,143,18*66
,$GLGSV,3,2,10,75,48,080,27,76,21,018,32,81,32,245,36,82,07,201,29*67
,$GLGSV,3,3,10,87,06,341,21,88,29,307,33*67
,$GNGLL,3653.49552,S,17454.61179,E,220829.00,A,A*6E
,$GNRMC,220830.00,A,3653.49535,S,17454.61195,E,0.543,50.49,150621,,,A*59
,$GNVTG,50.49,T,,M,0.543,N,1.006,K,A*1E
,$GNGGA,220830.00,3653.49535,S,17454.61195,E,1,12,0.58,25.1,M,28.1,M,,*63
,$GNGSA,A,3,31,10,24,25,23,32,12,,,,,,1.16,0.58,1.00*17
,$GNGSA,A,3,88,65,76,81,82,87,66,72,74,,,,1.16,0.58,1.00*1E
,$GPGSV,3,1,10,01,13,218,31,08,02,278,17,10,61,083,27,12,13,108,23*70
,$GPGSV,3,2,10,23,29,065,31,24,08,138,16,25,18,073,26,31,34,343,40*7A
,$GPGSV,3,3,10,32,70,190,39,48,15,071,*72
,$GLGSV,3,1,10,65,52,147,34,66,30,235,41,72,20,103,26,74,23,143,15*64
,$GLGSV,3,2,10,75,48,080,32,76,21,018,38,81,32,245,39,82,07,201,29*66
,$GLGSV,3,3,10,87,06,341,29,88,29,307,38*64
,$GNGLL,3653.49535,S,17454.61195,E,220830.00,A,A*65
,$GNRMC,220831.00,A,3653.49518,S,17454.61207,E,0.652,36.46,150621,,,A*53
,$GNVTG,36.46,T,,M,0.652,N,1.208,K,A*1E
,$GNGGA,220831.00,3653.49518,S,17454.61207,E,1,12,0.58,25.0,M,28.1,M,,*64
,$GNGSA,A,3,31,10,24,25,23,32,12,,,,,,1.16,0.58,1.00*17
,$GNGSA,A,3,88,65,76,81,82,87,66,72,74,,,,1.16,0.58,1.00*1E
,$GPGSV,3,1,10,01,13,218,26,08,02,278,16,10,61,083,32,12,13,108,22*72
,$GPGSV,3,2,10,23,29,065,30,24,08,138,16,25,18,073,26,31,34,343,42*79
,$GPGSV,3,3,10,32,70,190,39,48,15,071,*72
,$GLGSV,3,1,10,65,52,147,25,66,30,235,42,72,20,103,25,74,23,143,19*68
,$GLGSV,3,2,10,75,48,080,28,76,21,018,38,81,32,245,40,82,07,201,37*6C
,$GLGSV,3,3,10,87,06,341,23,88,29,307,38*6E
,$GNGLL,3653.49518,S,17454.61207,E,220831.00,A,A*63
,$GNRMC,220832.00,A,3653.49496,S,17454.61225,E,0.650,28.64,150621,,,A*5A
,$GNVTG,28.64,T,,M,0.650,N,1.203,K,A*18
,$GNGGA,220832.00,3653.49496,S,17454.61225,E,1,12,0.57,25.2,M,28.1,M,,*6D
,$GNGSA,A,3,31,10,24,25,23,32,12,,,,,,1.15,0.57,1.00*1B
,$GNGSA,A,3,88,65,76,81,82,87,66,72,74,,,,1.15,0.57,1.00*12
,$GPGSV,3,1,10,01,13,218,24,08,02,278,16,10,61,083,40,12,13,108,22*75
,$GPGSV,3,2,10,23,29,065,31,24,08,138,17,25,18,073,27,31,34,343,42*78
,$GPGSV,3,3,10,32,70,190,34,48,15,071,*7F
,$GLGSV,3,1,10,65,52,147,24,66,30,235,44,72,20,103,22,74,23,143,22*60
,$GLGSV,3,2,10,75,48,080,36,76,21,018,33,81,32,245,43,82,07,201,33*6F
,$GLGSV,3,3,10,87,06,341,29,88,29,307,36*6A
,$GNGLL,3653.49496,S,17454.61225,E,220832.00,A,A*67
,$GNRMC,220833.00,A,3653.49478,S,17454.61233,E,0.550,25.48,150621,,,A*5C
,$GNVTG,25.48,T,,M,0.550,N,1.019,K,A*11
,$GNGGA,220833.00,3653.49478,S,17454.61233,E,1,12,0.58,25.2,M,28.1,M,,*64
,$GNGSA,A,3,31,10,24,25,23,32,12,,,,,,1.16,0.58,1.00*17
,$GNGSA,A,3,88,65,76,81,82,87,66,72,74,,,,1.16,0.58,1.00*1E
,$GPGSV,3,1,10,01,13,218,22,08,02,278,17,10,61,083,40,12,13,108,22*72
,$GPGSV,3,2,10,23,29,065,30,24,08,138,17,25,18,073,28,31,34,343,41*75
,$GPGSV,3,3,10,32,70,190,42,48,15,071,*7E
,$GLGSV,3,1,10,65,52,147,32,66,30,235,39,72,20,103,22,74,23,143,25*6A
,$GLGSV,3,2,10,75,48,080,30,76,21,018,31,81,32,245,41,82,07,201,28*63
,$GLGSV,3,3,10,87,06,341,29,88,29,307,39*65
,$GNGLL,3653.49478,S,17454.61233,E,220833.00,A,A*61
,$GNRMC,220834.00,A,3653.49457,S,17454.61230,E,0.658,10.50,150621,,,A*51
,$GNVTG,10.50,T,,M,0.658,N,1.219,K,A*17
,$GNGGA,220834.00,3653.49457,S,17454.61230,E,1,12,0.58,25.2,M,28.1,M,,*6D
,$GNGSA,A,3,31,10,24,25,23,32,12,,,,,,1.16,0.58,1.00*17
,$GNGSA,A,3,88,65,76,81,82,87,66,72,74,,,,1.16,0.58,1.00*1E
,$GPGSV,3,1,10,01,13,218,24,08,02,278,17,10,61,083,37,12,13,108,23*75
,$GPGSV,3,2,10,23,29,065,32,24,08,138,16,25,18,073,28,31,34,343,41*76
,$GPGSV,3,3,10,32,70,190,41,48,15,071,*7D
,$GLGSV,3,1,10,65,52,147,34,66,30,235,42,72,20,103,20,74,23,143,25*62
,$GLGSV,3,2,10,75,48,080,22,76,21,018,26,81,32,245,39,82,07,201,16*64
,$GLGSV,3,3,10,87,06,341,24,88,29,307,42*64
,$GNGLL,3653.49457,S,17454.61230,E,220834.00,A,A*68
,$GNRMC,220835.00,A,3653.49438,S,17454.61225,E,0.620,0.78,150621,,,A*69
,$GNVTG,0.78,T,,M,0.620,N,1.148,K,A*24
,$GNGGA,220835.00,3653.49438,S,17454.61225,E,1,12,0.58,25.1,M,28.1,M,,*62
,$GNGSA,A,3,31,10,24,25,23,32,12,,,,,,1.16,0.58,1.00*17
,$GNGSA,A,3,88,65,76,81,82,87,66,72,74,,,,1.16,0.58,1.00*1E
,$GPGSV,3,1,11,01,13,218,31,08,02,278,17,10,61,083,40,12,13,108,23*70
,$GPGSV,3,2,11,21,,,42,23,29,065,31,24,08,138,15,25,18,073,28*46
,$GPGSV,3,3,11,31,34,343,43,32,69,189,37,48,15,071,*4B
,$GLGSV,3,1,10,65,52,147,32,66,30,235,42,72,20,103,28,74,23,143,31*69
,$GLGSV,3,2,10,75,48,080,23,76,21,018,31,81,32,245,42,82,07,201,28*62
,$GLGSV,3,3,10,87,06,341,29,88,29,307,37*6B
,$GNGLL,3653.49438,S,17454.61225,E,220835.00,A,A*64
,$GNRMC,220836.00,A,3653.49419,S,17454.61219,E,0.634,351.55,150621,,,A*6B
,$GNVTG,351.55,T,,M,0.634,N,1.174,K,A*26
,$GNGGA,220836.00,3653.49419,S,17454.61219,E,1,12,0.61,25.1,M,28.1,M,,*67
,$GNGSA,A,3,31,10,24,23,32,12,,,,,,,1.18,0.61,1.01*15
,$GNGSA,A,3,88,65,76,81,82,87,66,72,74,,,,1.18,0.61,1.01*1B
,$GPGSV,3,1,11,01,13,218,24,08,02,278,15,10,61,083,43,12,13,108,24*72
,$GPGSV,3,2,11,21,,,42,23,29,065,32,24,08,138,17,25,18,073,*4D
,$GPGSV,3,3,11,31,34,343,38,32,69,189,39,48,15,071,*49
,$GLGSV,3,1,10,65,52,147,31,66,30,235,40,72,20,103,29,74,23,143,30*68
,$GLGSV,3,2,10,75,48,080,30,76,21,018,35,81,32,245,41,82,07,201,32*6C
,$GLGSV,3,3,10,87,06,341,28,88,29,307,39*64
,$GNGLL,3653.49419,S,17454.61219,E,220836.00,A,A*6B
,$GNRMC,220837.00,A,3653.49397,S,17454.61212,E,0.712,340.33,150621,,,A*65
,$GNVTG,340.33,T,,M,0.712,N,1.319,K,A*2A
,$GNGGA,220837.00,3653.49397,S,17454.61212,E,1,12,0.59,25.4,M,28.1,M,,*62
,$GNGSA,A,3,31,10,24,23,32,12,,,,,,,1.16,0.59,1.01*10
,$GNGSA,A,3,88,65,76,81,82,87,66,72,74,,,,1.16,0.59,1.01*1E
,$GPGSV,3,1,11,01,13,218,30,08,02,278,15,10,61,083,40,12,13,108,34*75
,$GPGSV,3,2,11,21,,,41,23,29,065,26,24,08,138,16,25,18,073,22*4A
,$GPGSV,3,3,11,31,34,343,37,32,69,189,41,48,15,071,*49
,$GLGSV,3,1,10,65,52,147,31,66,30,235,42,72,20,103,29,74,23,143,20*6B
,$GLGSV,3,2,10,75,48,080,39,76,21,018,35,81,32,245,43,82,07,201,32*67
,$GLGSV,3,3,10,87,06,341,28,88,29,307,36*6B
,$GNGLL,3653.49397,S,17454.61212,E,220837.00,A,A*60
,$GNRMC,220838.00,A,3653.49378,S,17454.61203,E,0.641,334.18,150621,,,A*66
,$GNVTG,334.18,T,,M,0.641,N,1.187,K,A*22
,$GNGGA,220838.00,3653.49378,S,17454.61203,E,1,12,0.57,25.4,M,28.1,M,,*62
,$GNGSA,A,3,31,10,24,25,23,32,12,,,,,,1.15,0.57,1.00*1B
,$GNGSA,A,3,88,65,76,81,82,87,66,72,74,,,,1.15,0.57,1.00*12
,$GPGSV,3,1,11,01,13,218,29,08,02,278,16,10,61,083,43,12,13,108,32*7B
,$GPGSV,3,2,11,21,,,41,23,29,065,27,24,08,138,14,25,18,073,29*42
,$GPGSV,3,3,11,31,34,343,35,32,69,189,43,48,15,071,*49
,$GLGSV,3,1,10,65,52,147,35,66,30,235,40,72,20,103,29,74,23,143,21*6C
,$GLGSV,3,2,10,75,48,080,42,76,21,018,33,81,32,245,41,82,07,201,31*6C
,$GLGSV,3,3,10,87,06,341,29,88,29,307,36*6A
,$GNGLL,3653.49378,S,17454.61203,E,220838.00,A,A*6E
,$GNRMC,220839.00,A,3653.49365,S,17454.61188,E,0.589,323.42,150621,,,A*65
,$GNVTG,323.42,T,,M,0.589,N,1.090,K,A*2B
,$GNGGA,220839.00,3653.49365,S,17454.61188,E,1,12,0.57,25.5,M,28.1,M,,*6E
,$GNGSA,A,3,31,10,24,25,23,32,12,,,,,,1.15,0.57,1.00*1B
,$GNGSA,A,3,88,65,76,81,82,87,66,72,74,,,,1.15,0.57,1.00*12
,$GPGSV,3,1,11,01,13,218,27,08,02,278,15,10,61,083,41,12,13,108,36*70
,$GPGSV,3,2,11,21,,,39,23,29,065,35,24,08,138,13,25,18,073,31*40
,$GPGSV,3,3,11,31,34,343,38,32,69,189,42,48,15,071,*45
,$GLGSV,3,1,10,65,52,147,35,66,30,235,39,72,20,103,31,74,23,143,21*6B
,$GLGSV,3,2,10,75,48,080,38,76,21,018,26,81,32,245,36,82,07,201,37*63
,$GLGSV,3,3,10,87,06,341,16,88,29,307,38*68
,$GNGLL,3653.49365,S,17454.61188,E,220839.00,A,A*63
,$GNRMC,220840.00,A,3653.49354,S,17454.61168,E,0.683,312.84,150621,,,A*66
,$GNVTG,312.84,T,,M,0.683,N,1.264,K,A*23
,$GNGGA,220840.00,3653.49354,S,17454.61168,E,1,12,0.58,25.7,M,28.1,M,,*61
,$GNGSA,A,3,31,10,24,25,23,32,12,,,,,,1.21,0.58,1.06*15
,$GNGSA,A,3,88,65,76,81,82,87,66,72,74,,,,1.21,0.58,1.06*1C
,$GPGSV,3,1,11,01,13,218,25,08,02,278,19,10,61,083,37,12,13,108,33*7A
,$GPGSV,3,2,11,21,,,36,23,29,065,31,24,08,138,13,25,18,073,25*4E
,$GPGSV,3,3,11,31,34,343,21,32,69,189,42,48,15,071,*4D
,$GLGSV,3,1,10,65,52,147,36,66,30,235,37,72,20,103,32,74,23,143,30*65
,$GLGSV,3,2,10,75,48,080,40,76,21,018,27,81,32,245,36,82,07,201,25*6E
,$GLGSV,3,3,10,87,06,341,28,88,29,307,38*65
,$GNGLL,3653.49354,S,17454.61168,E,220840.00,A,A*61
,$GNRMC,220841.00,A,3653.49345,S,17454.61152,E,0.738,304.13,150621,,,A*66
,$GNVTG,304.13,T,,M,0.738,N,1.366,K,A*28
,$GNGGA,220841.00,3653.49345,S,17454.61152,E,1,12,0.58,25.6,M,28.1,M,,*68
,$GNGSA,A,3,31,10,24,25,23,32,12,,,,,,1.21,0.58,1.06*15
,$GNGSA,A,3,88,65,76,81,82,87,66,72,74,,,,1.21,0.58,1.06*1C
,$GPGSV,3,1,11,01,13,218,23,08,02,278,21,10,61,083,40,12,13,108,29*7C
,$GPGSV,3,2,11,21,,,33,23,29,065,39,24,08,138,14,25,18,073,36*46
,$GPGSV,3,3,11,31,34,343,29,32,69,189,44,48,15,071,*43
,$GLGSV,3,1,10,65,52,147,35,66,30,235,32,72,20,103,31,74,23,143,29*68
,$GLGSV,3,2,10,75,48,080,41,76,21,018,19,81,32,245,36,82,07,201,35*63
,$GLGSV,3,3,10,87,06,341,20,88,29,307,33*66
,$GNGLL,3653.49345,S,17454.61152,E,220841.00,A,A*69
,$GNRMC,220842.00,A,3653.49336,S,17454.61129,E,0.697,300.20,150621,,,A*6D
,$GNVTG,300.20,T,,M,0.697,N,1.292,K,A*22
,$GNGGA,220842.00,3653.49336,S,17454.61129,E,1,12,0.58,25.6,M,28.1,M,,*63
,$GNGSA,A,3,31,10,24,25,23,32,12,,,,,,1.21,0.58,1.06*15
,$GNGSA,A,3,88,65,76,81,82,87,66,72,74,,,,1.21,0.58,1.06*1C
,$GPGSV,3,1,11,01,13,218,22,08,02,278,22,10,61,083,38,12,13,108,37*7E
,$GPGSV,3,2,11,21,,,33,23,29,065,40,24,08,138,15,25,18,073,30*4F
,$GPGSV,3,3,11,31,34,343,33,32,69,189,47,48,15,071,*4B
,$GLGSV,3,1,10,65,52,147,32,66,30,235,31,72,20,103,31,74,23,143,19*6F
,$GLGSV,3,2,10,75,48,080,39,76,21,018,27,81,32,245,33,82,07,201,25*65
,$GLGSV,3,3,10,87,06,341,20,88,29,307,28*6C
,$GNGLL,3653.49336,S,17454.61129,E,220842.00,A,A*62
,$GNRMC,220843.00,A,3653.49331,S,17454.61112,E,0.609,290.39,150621,,,A*64
,$GNVTG,290.39,T,,M,0.609,N,1.129,K,A*26
,$GNGGA,220843.00,3653.49331,S,17454.61112,E,1,12,0.58,25.6,M,28.1,M,,*6D
,$GNGSA,A,3,31,10,24,25,23,32,12,,,,,,1.21,0.58,1.06*15
,$GNGSA,A,3,88,65,76,81,82,87,66,72,74,,,,1.21,0.58,1.06*1C
,$GPGSV,3,1,11,01,13,218,22,08,02,278,22,10,61,083,42,12,13,108,33*77
,$GPGSV,3,2,11,21,,,36,23,29,065,35,24,08,138,16,25,18,073,26*4C
,$GPGSV,3,3,11,31,34,343,27,32,69,189,47,48,15,071,*4E
,$GLGSV,3,1,10,65,52,147,36,66,30,235,32,72,20,103,30,74,23,143,29*6A
,$GLGSV,3,2,10,75,48,080,39,76,21,018,27,81,32,245,36,82,07,201,27*62
,$GLGSV,3,3,10,87,06,341,22,88,29,307,35*62
,$GNGLL,3653.49331,S,17454.61112,E,220843.00,A,A*6C
,$GNRMC,220844.00,A,3653.49329,S,17454.61094,E,0.609,,150621,,,A*7A
,$GNVTG,,T,,M,0.609,N,1.128,K,A*38
,$GNGGA,220844.00,3653.49329,S,17454.61094,E,1,12,0.57,25.6,M,28.1,M,,*63
,$GNGSA,A,3,31,10,24,25,23,32,12,,,,,,1.15,0.57,1.00*1B
,$GNGSA,A,3,88,65,76,81,82,87,66,72,74,,,,1.15,0.57,1.00*12
,$GPGSV,3,1,11,01,13,218,21,08,02,278,21,10,61,083,41,12,13,108,28*7E
,$GPGSV,3,2,11,21,,,27,23,29,065,35,24,08,138,16,25,18,073,35*4E
,$GPGSV,3,3,11,31,34,343,25,32,69,189,47,48,15,071,*4C
,$GLGSV,3,1,10,65,52,147,36,66,30,235,26,72,20,103,24,74,23,143,27*64
,$GLGSV,3,2,10,75,48,080,40,76,21,018,27,81,32,245,31,82,07,201,26*6A
,$GLGSV,3,3,10,87,06,341,24,88,29,307,35*64
,$GNGLL,3653.49329,S,17454.61094,E,220844.00,A,A*6D
,$GNRMC,220845.00,A,3653.49330,S,17454.61080,E,0.688,271.44,150621,,,A*65
,$GNVTG,271.44,T,,M,0.688,N,1.273,K,A*26
,$GNGGA,220845.00,3653.49330,S,17454.61080,E,1,12,0.57,25.4,M,28.1,M,,*6D
,$GNGSA,A,3,31,10,24,25,23,32,12,,,,,,1.15,0.57,1.00*1B
,$GNGSA,A,3,88,65,76,81,82,87,66,72,74,,,,1.15,0.57,1.00*12
,$GPGSV,3,1,11,01,13,218,21,08,02,278,21,10,61,083,43,12,13,108,34*71
,$GPGSV,3,2,11,21,,,26,23,29,065,40,24,08,138,16,25,18,073,35*4D
,$GPGSV,3,3,11,31,34,343,26,32,69,189,48,48,15,071,*40
,$GLGSV,3,1,10,65,52,147,38,66,30,235,26,72,20,103,31,74,23,143,31*69
,$GLGSV,3,2,10,75,48,080,41,76,21,018,26,81,32,245,31,82,07,201,22*6E
,$GLGSV,3,3,10,87,06,341,23,88,29,307,29*6E
,$GNGLL,3653.49330,S,17454.61080,E,220845.00,A,A*61
,$GNRMC,220846.00,A,3653.49338,S,17454.61068,E,0.625,261.00,150621,,,A*6E
,$GNVTG,261.00,T,,M,0.625,N,1.158,K,A*2A
,$GNGGA,220846.00,3653.49338,S,17454.61068,E,1,12,0.57,25.2,M,28.1,M,,*66
,$GNGSA,A,3,31,10,24,25,23,32,12,,,,,,1.15,0.57,1.00*1B
,$GNGSA,A,3,88,65,76,81,82,87,66,72,74,,,,1.15,0.57,1.00*12
,$GPGSV,3,1,11,01,13,218,19,08,02,278,22,10,61,083,43,12,13,108,33*7E
,$GPGSV,3,2,11,21,,,25,23,29,065,42,24,08,138,14,25,18,073,32*49
,$GPGSV,3,3,11,31,34,343,27,32,69,189,48,48,15,071,*41
,$GLGSV,3,1,10,65,52,147,41,66,30,235,26,72,20,103,30,74,23,143,31*66
,$GLGSV,3,2,10,75,48,080,43,76,21,018,25,81,32,245,26,82,07,201,20*6B
,$GLGSV,3,3,10,87,06,341,31,88,29,307,31*64
,$GNGLL,3653.49338,S,17454.61068,E,220846.00,A,A*6C
,$GNRMC,220847.00,A,3653.49350,S,17454.61052,E,0.686,,150621,,,A*7A
,$GNVTG,,T,,M,0.686,N,1.271,K,A*30
,$GNGGA,220847.00,3653.49350,S,17454.61052,E,1,12,0.59,25.1,M,28.1,M,,*6D
,$GNGSA,A,3,31,10,24,25,23,32,12,,,,,,1.16,0.59,1.00*16
,$GNGSA,A,3,88,65,76,81,82,87,66,72,74,,,,1.16,0.59,1.00*1F
,$GPGSV,3,1,11,01,13,218,18,08,02,278,22,10,61,083,43,12,13,108,33*7F
,$GPGSV,3,2,11,21,,,25,23,29,065,42,24,08,138,14,25,18,073,36*4D
,$GPGSV,3,3,11,31,34,343,26,32,69,189,47,48,15,071,*4F
,$GLGSV,3,1,10,65,52,147,41,66,30,235,26,72,20,103,30,74,23,143,32*65
,$GLGSV,3,2,10,75,48,080,45,76,21,018,33,81,32,245,24,82,07,201,19*62
,$GLGSV,3,3,10,87,06,341,22,88,29,307,24*62
,$GNGLL,3653.49350,S,17454.61052,E,220847.00,A,A*6A
,$GNRMC,220848.00,A,3653.49361,S,17454.61040,E,0.631,249.33,150621,,,A*69
,$GNVTG,249.33,T,,M,0.631,N,1.168,K,A*26
,$GNGGA,220848.00,3653.49361,S,17454.61040,E,1,12,0.59,25.1,M,28.1,M,,*63
,$GNGSA,A,3,31,10,24,25,23,32,12,,,,,,1.16,0.59,1.00*16
,$GNGSA,A,3,88,65,76,81,82,87,66,72,74,,,,1.16,0.59,1.00*1F
,$GPGSV,3,1,11,01,13,218,18,08,02,278,19,10,61,083,43,12,13,108,30*74
,$GPGSV,3,2,11,21,,,23,23,29,065,41,24,08,138,16,25,18,073,36*4A
,$GPGSV,3,3,11,31,34,343,33,32,69,189,48,48,15,071,*44
,$GLGSV,3,1,10,65,52,147,40,66,30,235,25,72,20,103,30,74,23,143,35*60
,$GLGSV,3,2,10,75,48,080,41,76,21,018,30,81,32,245,23,82,07,201,19*62
,$GLGSV,3,3,10,87,06,341,23,88,29,307,24*63
,$GNGLL,3653.49361,S,17454.61040,E,220848.00,A,A*64
,$GNRMC,220849.00,A,3653.49375,S,17454.61027,E,0.639,239.73,150621,,,A*67
,$GNVTG,239.73,T,,M,0.639,N,1.184,K,A*2F
,$GNGGA,220849.00,3653.49375,S,17454.61027,E,1,12,0.57,25.0,M,28.1,M,,*69
,$GNGSA,A,3,31,10,24,25,23,32,12,,,,,,1.15,0.57,1.00*1B
,$GNGSA,A,3,88,65,76,81,82,87,66,72,74,,,,1.15,0.57,1.00*12
,$GPGSV,3,1,11,01,13,218,18,08,02,278,18,10,61,083,43,12,13,108,25*71
,$GPGSV,3,2,11,21,,,22,23,29,065,43,24,08,138,14,25,18,073,36*4B
,$GPGSV,3,3,11,31,34,343,33,32,69,189,48,48,15,071,*44
,$GLGSV,3,1,10,65,52,147,40,66,30,235,25,72,20,103,28,74,23,143,35*69
,$GLGSV,3,2,10,75,48,080,42,76,21,018,30,81,32,245,23,82,07,201,21*6A
,$GLGSV,3,3,10,87,06,341,30,88,29,307,26*63
,$GNGLL,3653.49375,S,17454.61027,E,220849.00,A,A*61
,$GNRMC,220850.00,A,3653.49392,S,17454.61016,E,0.582,224.53,150621,,,A*69
,$GNVTG,224.53,T,,M,0.582,N,1.077,K,A*2F
,$GNGGA,220850.00,3653.49392,S,17454.61016,E,1,12,0.57,24.9,M,28.1,M,,*62
,$GNGSA,A,3,31,10,24,25,23,32,12,,,,,,1.15,0.57,1.00*1B
,$GNGSA,A,3,88,65,76,81,82,87,66,72,74,,,,1.15,0.57,1.00*12
,$GPGSV,3,1,11,01,13,218,16,08,02,278,15,10,61,083,46,12,13,108,25*77
,$GPGSV,3,2,11,21,,,22,23,29,065,42,24,08,138,13,25,18,073,39*42
,$GPGSV,3,3,11,31,34,343,39,32,69,189,44,48,15,071,*42
,$GLGSV,3,1,10,65,52,147,41,66,30,235,23,72,20,103,27,74,23,143,38*6C
,$GLGSV,3,2,10,75,48,080,37,76,21,018,29,81,32,245,23,82,07,201,24*65
,$GLGSV,3,3,10,87,06,341,23,88,29,307,28*6F
,$GNGLL,3653.49392,S,17454.61016,E,220850.00,A,A*62
,$GNRMC,220851.00,A,3653.49407,S,17454.61004,E,0.629,216.56,150621,,,A*66
,$GNVTG,216.56,T,,M,0.629,N,1.166,K,A*28
,$GNGGA,220851.00,3653.49407,S,17454.61004,E,1,12,0.57,24.7,M,28.1,M,,*65
,$GNGSA,A,3,31,10,24,25,23,32,12,,,,,,1.15,0.57,1.00*1B
,$GNGSA,A,3,88,65,76,81,82,87,66,72,74,,,,1.15,0.57,1.00*12
,$GPGSV,3,1,11,01,13,218,,08,02,278,14,10,61,083,47,12,13,108,28*7D
,$GPGSV,3,2,11,21,,,23,23,29,065,43,24,08,138,15,25,18,073,41*4B
,$GPGSV,3,3,11,31,34,343,39,32,69,189,45,48,15,071,*43
,$GLGSV,3,1,10,65,52,147,40,66,30,235,23,72,20,103,25,74,23,143,35*62
,$GLGSV,3,2,10,75,48,080,41,76,21,018,21,81,32,245,23,82,07,201,24*6C
,$GLGSV,3,3,10,87,06,341,30,88,29,307,28*6D
,$GNGLL,3653.49407,S,17454.61004,E,220851.00,A,A*6B
,$GNRMC,220852.00,A,3653.49430,S,17454.60999,E,0.693,201.07,150621,,,A*6E
,$GNVTG,201.07,T,,M,0.693,N,1.284,K,A*24
,$GNGGA,220852.00,3653.49430,S,17454.60999,E,1,12,0.57,24.5,M,28.1,M,,*6C
,$GNGSA,A,3,31,10,24,25,23,32,12,,,,,,1.15,0.57,1.00*1B
,$GNGSA,A,3,88,65,76,81,82,87,66,72,74,,,,1.15,0.57,1.00*12
,$GPGSV,3,1,11,01,13,218,22,08,02,278,13,10,61,083,48,12,13,108,18*76
,$GPGSV,3,2,11,21,,,23,23,29,065,44,24,08,138,14,25,18,073,41*4D
,$GPGSV,3,3,11,31,34,343,35,32,69,189,42,48,15,071,*48
,$GLGSV,3,1,10,65,52,147,42,66,30,235,25,72,20,103,26,74,23,143,39*69
,$GLGSV,3,2,10,75,48,080,43,76,21,018,31,81,32,245,22,82,07,201,22*68
,$GLGSV,3,3,10,87,06,341,30,88,29,307,32*66
,$GNGLL,3653.49430,S,17454.60999,E,220852.00,A,A*60
,$GNRMC,220853.00,A,3653.49448,S,17454.60992,E,0.622,198.43,150621,,,A*62
,$GNVTG,198.43,T,,M,0.622,N,1.151,K,A*26
,$GNGGA,220853.00,3653.49448,S,17454.60992,E,1,12,0.59,24.3,M,28.1,M,,*61
,$GNGSA,A,3,31,10,24,25,23,32,12,,,,,,1.16,0.59,1.00*16
,$GNGSA,A,3,88,65,76,81,82,87,66,72,74,,,,1.16,0.59,1.00*1F
,$GPGSV,3,1,11,01,13,218,19,08,02,278,12,10,61,083,48,12,13,108,23*77
,$GPGSV,3,2,11,21,,,25,23,29,065,45,24,08,138,17,25,18,073,32*4D
,$GPGSV,3,3,11,31,34,343,36,32,69,189,39,48,15,071,35*41
,$GLGSV,3,1,10,65,52,147,40,66,30,235,24,72,20,103,33,74,23,143,35*62
,$GLGSV,3,2,10,75,48,080,43,76,21,018,36,81,32,245,22,82,07,201,20*6D
,$GLGSV,3,3,10,87,06,341,28,88,29,307,22*6E
,$GNGLL,3653.49448,S,17454.60992,E,220853.00,A,A*65
,$GNRMC,220854.00,A,3653.49472,S,17454.60994,E,0.666,184.53,150621,,,A*66
,$GNVTG,184.53,T,,M,0.666,N,1.234,K,A*2A
,$GNGGA,220854.00,3653.49472,S,17454.60994,E,1,12,0.59,24.4,M,28.1,M,,*6E
,$GNGSA,A,3,31,10,24,25,23,32,12,,,,,,1.16,0.59,1.00*16
,$GNGSA,A,3,88,65,76,81,82,87,66,72,74,,,,1.16,0.59,1.00*1F
,$GPGSV,3,1,11,01,13,218,,08,02,278,12,10,61,083,49,12,13,108,25*78
,$GPGSV,3,2,11,21,,,22,23,29,065,42,24,08,138,18,25,18,073,40*47
,$GPGSV,3,3,11,31,34,343,43,32,69,189,43,48,15,071,38*43
,$GLGSV,3,1,10,65,52,147,40,66,30,235,23,72,20,103,17,74,23,143,35*63
,$GLGSV,3,2,10,75,48,080,47,76,21,018,35,81,32,245,21,82,07,201,20*69
,$GLGSV,3,3,10,87,06,341,28,88,29,307,21*6D
,$GNGLL,3653.49472,S,17454.60994,E,220854.00,A,A*6D
,$GNRMC,220855.00,A,3653.49493,S,17454.60997,E,0.626,176.07,150621,,,A*63
,$GNVTG,176.07,T,,M,0.626,N,1.160,K,A*20
,$GNGGA,220855.00,3653.49493,S,17454.60997,E,1,12,0.59,24.3,M,28.1,M,,*64
,$GNGSA,A,3,31,10,24,25,23,32,12,,,,,,1.16,0.59,1.00*16
,$GNGSA,A,3,88,65,76,81,82,87,66,72,74,,,,1.16,0.59,1.00*1F
,$GPGSV,3,1,11,01,13,218,,08,02,278,10,10,61,083,49,12,13,108,31*7F
,$GPGSV,3,2,11,21,,,20,23,29,065,41,24,08,138,17,25,18,073,38*46
,$GPGSV,3,3,11,31,34,343,43,32,69,189,42,48,15,071,33*49
,$GLGSV,3,1,10,65,52,146,40,66,30,235,23,72,20,103,33,74,23,143,35*64
,$GLGSV,3,2,10,75,48,080,44,76,21,018,30,81,32,245,22,82,07,201,20*6C
,$GLGSV,3,3,10,87,06,341,19,88,29,307,20*6E
,$GNGLL,3653.49493,S,17454.60997,E,220855.00,A,A*60
,$GNRMC,220856.00,A,3653.49511,S,17454.61003,E,0.588,164.03,150621,,,A*6E
,$GNVTG,164.03,T,,M,0.588,N,1.090,K,A*2E
,$GNGGA,220856.00,3653.49511,S,17454.61003,E,1,12,0.59,24.2,M,28.1,M,,*68
,$GNGSA,A,3,31,10,24,25,23,32,12,,,,,,1.17,0.59,1.00*17
,$GNGSA,A,3,88,65,76,81,82,87,66,72,74,,,,1.17,0.59,1.00*1E
,$GPGSV,3,1,10,01,13,218,,08,02,278,12,10,61,083,48,12,13,108,25*78
,$GPGSV,3,2,10,23,29,065,45,24,08,138,16,25,18,073,30,31,34,343,43*7D
,$GPGSV,3,3,10,32,69,189,43,48,15,071,34*78
,$GLGSV,3,1,10,65,52,146,39,66,31,234,23,72,20,103,30,74,23,143,37*6B
,$GLGSV,3,2,10,75,48,080,45,76,21,018,30,81,32,245,22,82,07,201,21*6C
,$GLGSV,3,3,10,87,06,341,23,88,29,307,20*67
,$GNGLL,3653.49511,S,17454.61003,E,220856.00,A,A*6D
,$GNRMC,220857.00,A,3653.49529,S,17454.61008,E,0.629,160.44,150621,,,A*60
,$GNVTG,160.44,T,,M,0.629,N,1.164,K,A*2B
,$GNGGA,220857.00,3653.49529,S,17454.61008,E,1,12,0.59,24.3,M,28.1,M,,*68
,$GNGSA,A,3,31,10,24,25,23,32,12,,,,,,1.16,0.59,1.00*16
,$GNGSA,A,3,88,65,76,81,82,87,66,72,74,,,,1.16,0.59,1.00*1F
,$GPGSV,3,1,10,01,13,218,,08,02,278,12,10,61,083,47,12,13,108,26*74
,$GPGSV,3,2,10,23,29,065,40,24,08,138,14,25,18,073,40,31,34,343,36*7F
,$GPGSV,3,3,10,32,69,189,43,48,15,071,*7F
,$GLGSV,3,1,10,65,52,146,37,66,31,234,24,72,20,103,30,74,23,143,35*60
,$GLGSV,3,2,10,75,48,080,42,76,21,018,31,81,32,245,21,82,07,201,20*68
,$GLGSV,3,3,10,87,06,341,21,88,29,307,20*65
,$GNGLL,3653.49529,S,17454.61008,E,220857.00,A,A*6C
,$GNRMC,220858.00,A,3653.49549,S,17454.61016,E,0.671,156.91,150621,,,A*66
,$GNVTG,156.91,T,,M,0.671,N,1.243,K,A*2D
,$GNGGA,220858.00,3653.49549,S,17454.61016,E,1,12,0.58,24.2,M,28.1,M,,*6E
,$GNGSA,A,3,31,10,24,25,23,32,12,,,,,,1.16,0.58,1.00*17
,$GNGSA,A,3,88,65,76,81,82,87,66,72,74,,,,1.16,0.58,1.00*1E
,$GPGSV,3,1,10,01,13,218,18,08,02,278,12,10,61,083,47,12,13,108,25*7E
,$GPGSV,3,2,10,23,29,065,40,24,08,138,14,25,18,073,30,31,34,343,38*76
,$GPGSV,3,3,10,32,69,189,42,48,15,071,*7E
,$GLGSV,3,1,10,65,52,146,37,66,31,234,24,72,20,103,32,74,23,143,31*66
,$GLGSV,3,2,10,75,48,080,44,76,21,018,30,81,32,245,29,82,07,201,23*64
,$GLGSV,3,3,10,87,06,341,20,88,29,307,20*64
,$GNGLL,3653.49549,S,17454.61016,E,220858.00,A,A*6A
,$GNRMC,220859.00,A,3653.49564,S,17454.61028,E,0.574,147.96,150621,,,A*64
,$GNVTG,147.96,T,,M,0.574,N,1.063,K,A*2C
,$GNGGA,220859.00,3653.49564,S,17454.61028,E,1,12,0.57,24.2,M,28.1,M,,*62
,$GNGSA,A,3,31,10,24,25,23,32,12,,,,,,1.15,0.57,1.00*1B
,$GNGSA,A,3,88,65,76,81,82,87,66,72,74,,,,1.15,0.57,1.00*12
,$GPGSV,3,1,10,01,13,218,29,08,02,278,12,10,61,083,47,12,13,108,25*7C
,$GPGSV,3,2,10,23,29,065,39,24,08,138,14,25,18,073,35,31,34,343,39*7C
,$GPGSV,3,3,10,32,69,189,44,48,15,071,*78
,$GLGSV,3,1,10,65,52,146,37,66,31,234,24,72,20,103,29,74,23,143,32*6F
,$GLGSV,3,2,10,75,48,080,45,76,21,018,35,81,32,245,23,82,07,201,25*6C
,$GLGSV,3,3,10,87,06,341,20,88,29,307,22*66
,$GNGLL,3653.49564,S,17454.61028,E,220859.00,A,A*69
,$GNRMC,220900.00,A,3653.49575,S,17454.61036,E,0.434,,150621,,,A*70
,$GNVTG,,T,,M,0.434,N,0.803,K,A*35
,$GNGGA,220900.00,3653.49575,S,17454.61036,E,1,12,0.57,24.3,M,28.1,M,,*61
,$GNGSA,A,3,31,10,24,25,23,32,12,,,,,,1.15,0.57,1.00*1B
,$GNGSA,A,3,88,65,76,81,82,87,66,72,74,,,,1.15,0.57,1.00*12
,$GPGSV,3,1,10,01,13,218,27,08,02,278,12,10,61,083,45,12,13,108,26*73
,$GPGSV,3,2,10,23,29,065,35,24,08,138,12,25,18,073,29,31,34,343,41*74
,$GPGSV,3,3,10,32,69,189,44,48,15,071,*78
,$GLGSV,3,1,10,65,52,146,37,66,31,234,22,72,20,103,29,74,23,143,32*69
,$GLGSV,3,2,10,75,48,080,44,76,21,018,34,81,32,245,23,82,07,201,23*6A
,$GLGSV,3,3,10,87,06,341,19,88,29,307,22*6C
,$GNGLL,3653.49575,S,17454.61036,E,220900.00,A,A*6B
,$GNRMC,220901.00,A,3653.49583,S,17454.61049,E,0.540,,150621,,,A*72
,$GNVTG,,T,,M,0.540,N,1.001,K,A*3C
,$GNGGA,220901.00,3653.49583,S,17454.61049,E,1,12,0.57,24.4,M,28.1,M,,*66
,$GNGSA,A,3,31,10,24,25,23,32,12,,,,,,1.15,0.57,1.00*1B
,$GNGSA,A,3,88,65,76,81,82,87,66,72,74,,,,1.15,0.57,1.00*12
,$GPGSV,3,1,10,01,13,218,25,08,02,278,12,10,61,083,46,12,13,108,30*75
,$GPGSV,3,2,10,23,29,065,35,24,08,138,11,25,18,073,29,31,34,343,46*70
,$GPGSV,3,3,10,32,69,189,43,48,15,071,*7F
,$GLGSV,3,1,10,65,52,146,38,66,31,234,20,72,20,103,30,74,23,143,24*6B
,$GLGSV,3,2,10,75,48,080,46,76,21,018,27,81,32,245,30,82,07,201,25*6E
,$GLGSV,3,3,10,87,06,341,20,88,29,307,21*65
,$GNGLL,3653.49583,S,17454.61049,E,220901.00,A,A*6B
,$GNRMC,220902.00,A,3653.49591,S,17454.61059,E,0.367,,150621,,,A*70
,$GNVTG,,T,,M,0.367,N,0.680,K,A*31
,$GNGGA,220902.00,3653.49591,S,17454.61059,E,1,12,0.57,24.6,M,28.1,M,,*65
,$GNGSA,A,3,31,10,24,25,23,32,12,,,,,,1.15,0.57,1.00*1B
,$GNGSA,A,3,88,65,76,81,82,87,66,72,74,,,,1.15,0.57,1.00*12
,$GPGSV,3,1,10,01,13,218,,08,02,278,14,10,61,083,47,12,13,108,25*71
,$GPGSV,3,2,10,23,29,065,36,24,08,138,10,25,18,073,30,31,34,343,45*79
,$GPGSV,3,3,10,32,69,189,43,48,15,071,*7F
,$GLGSV,3,1,10,65,52,146,36,66,31,234,22,72,19,103,30,74,23,143,24*6D
,$GLGSV,3,2,10,75,48,080,40,76,21,018,26,81,32,245,30,82,07,201,25*69
,$GLGSV,3,3,10,87,06,341,21,88,29,307,22*67
,$GNGLL,3653.49591,S,17454.61059,E,220902.00,A,A*6A
,$GNRMC,220903.00,A,3653.49594,S,17454.61074,E,0.498,,150621,,,A*7C
,$GNVTG,,T,,M,0.498,N,0.923,K,A*30
,$GNGGA,220903.00,3653.49594,S,17454.61074,E,1,12,0.57,24.7,M,28.1,M,,*6F
,$GNGSA,A,3,31,10,24,25,23,32,12,,,,,,1.15,0.57,1.00*1B
,$GNGSA,A,3,88,65,76,81,82,87,66,72,74,,,,1.15,0.57,1.00*12
,$GPGSV,3,1,10,01,13,218,,08,02,278,14,10,61,083,46,12,13,108,25*70
,$GPGSV,3,2,10,23,29,065,38,24,08,138,12,25,18,073,26,31,34,343,46*71
,$GPGSV,3,3,10,32,69,189,42,48,15,071,*7E
,$GLGSV,3,1,10,65,52,146,36,66,31,234,23,72,19,103,29,74,23,143,23*63
,$GLGSV,3,2,10,75,48,080,39,76,21,018,33,81,32,245,27,82,07,201,22*62
,$GLGSV,3,3,10,87,06,341,21,88,29,307,21*64
,$GNGLL,3653.49594,S,17454.61074,E,220903.00,A,A*61
,$GNRMC,220904.00,A,3653.49592,S,17454.61088,E,0.571,105.68,150621,,,A*6C
,$GNVTG,105.68,T,,M,0.571,N,1.057,K,A*29
,$GNGGA,220904.00,3653.49592,S,17454.61088,E,1,12,0.57,24.7,M,28.1,M,,*6D
,$GNGSA,A,3,31,10,24,25,23,32,12,,,,,,1.15,0.57,1.00*1B
,$GNGSA,A,3,88,65,76,81,82,87,66,72,74,,,,1.15,0.57,1.00*12
,$GPGSV,3,1,10,01,13,218,,08,02,278,12,10,61,083,44,12,13,108,25*74
,$GPGSV,3,2,10,23,29,065,28,24,08,138,11,25,18,073,27,31,34,343,45*71
,$GPGSV,3,3,10,32,69,189,44,48,15,071,*78
,$GLGSV,3,1,10,65,52,146,36,66,31,234,30,72,19,103,27,74,23,143,21*6D
,$GLGSV,3,2,10,75,48,080,42,76,21,018,36,81,32,245,27,82,07,201,21*68
,$GLGSV,3,3,10,87,06,341,21,88,29,307,22*67
,$GNGLL,3653.49592,S,17454.61088,E,220904.00,A,A*63
,$GNRMC,220905.00,A,3653.49591,S,17454.61105,E,0.639,89.79,150621,,,A*50
,$GNVTG,89.79,T,,M,0.639,N,1.184,K,A*1C
,$GNGGA,220905.00,3653.49591,S,17454.61105,E,1,12,0.57,24.8,M,28.1,M,,*64
,$GNGSA,A,3,31,10,24,25,23,32,12,,,,,,1.15,0.57,1.00*1B
,$GNGSA,A,3,88,65,76,81,82,87,66,72,74,,,,1.15,0.57,1.00*12
,$GPGSV,3,1,10,01,13,218,25,08,02,278,12,10,61,083,43,12,13,108,25*74
,$GPGSV,3,2,10,23,29,065,29,24,08,138,15,25,18,073,34,31,34,343,42*71
,$GPGSV,3,3,10,32,69,189,43,48,15,071,*7F
,$GLGSV,3,1,10,65,52,146,36,66,31,234,33,72,19,103,27,74,23,143,23*6C
,$GLGSV,3,2,10,75,48,081,38,76,21,018,38,81,32,245,28,82,07,201,23*67
,$GLGSV,3,3,10,87,06,341,24,88,29,307,24*64
,$GNGLL,3653.49591,S,17454.61105,E,220905.00,A,A*65
,$GNRMC,220906.00,A,3653.49583,S,17454.61130,E,0.656,74.50,150621,,,A*56
,$GNVTG,74.50,T,,M,0.656,N,1.214,K,A*16
,$GNGGA,220906.00,3653.49583,S,17454.61130,E,1,12,0.57,24.9,M,28.1,M,,*63
,$GNGSA,A,3,31,10,24,25,23,32,12,,,,,,1.15,0.57,1.00*1B
,$GNGSA,A,3,88,65,76,81,82,87,66,72,74,,,,1.15,0.57,1.00*12
,$GPGSV,3,1,10,01,13,218,20,08,02,278,12,10,61,083,45,12,13,108,30*73
,$GPGSV,3,2,10,23,29,065,20,24,08,138,17,25,18,073,31,31,34,343,46*7B
,$GPGSV,3,3,10,32,69,189,43,48,15,071,*7F
,$GLGSV,3,1,10,65,52,146,36,66,31,234,32,72,19,103,25,74,23,143,22*6E
,$GLGSV,3,2,10,75,48,081,30,76,22,018,31,81,32,245,32,82,07,201,25*68
,$GLGSV,3,3,10,87,06,341,25,88,29,307,29*68
,$GNGLL,3653.49583,S,17454.61130,E,220906.00,A,A*63
,$GNRMC,220907.00,A,3653.49574,S,17454.61148,E,0.679,67.59,150621,,,A*56
,$GNVTG,67.59,T,,M,0.679,N,1.258,K,A*18
,$GNGGA,220907.00,3653.49574,S,17454.61148,E,1,12,0.57,25.0,M,28.1,M,,*6D
,$GNGSA,A,3,31,10,24,25,23,32,12,,,,,,1.15,0.57,1.00*1B
,$GNGSA,A,3,88,65,76,81,82,87,66,72,74,,,,1.15,0.57,1.00*12
,$GPGSV,3,1,10,01,13,218,,08,02,278,14,10,61,083,41,12,13,108,31*72
,$GPGSV,3,2,10,23,29,065,29,24,08,138,17,25,18,073,30,31,34,343,43*76
,$GPGSV,3,3,10,32,69,189,42,48,15,071,*7E
,$GLGSV,3,1,10,65,52,146,38,66,31,234,37,72,19,103,25,74,23,143,21*66
,$GLGSV,3,2,10,75,48,081,38,76,22,018,33,81,32,245,32,82,07,201,26*61
,$GLGSV,3,3,10,87,06,341,25,88,29,307,25*64
,$GNGLL,3653.49574,S,17454.61148,E,220907.00,A,A*65
,$GNRMC,220908.00,A,3653.49553,S,17454.61176,E,0.647,60.36,150621,,,A*52
,$GNVTG,60.36,T,,M,0.647,N,1.198,K,A*14
,$GNGGA,220908.00,3653.49553,S,17454.61176,E,1,12,0.57,25.6,M,28.1,M,,*6C
,$GNGSA,A,3,31,10,24,25,23,32,12,,,,,,1.15,0.57,1.00*1B
,$GNGSA,A,3,88,65,76,81,82,87,66,72,74,,,,1.15,0.57,1.00*12
,$GPGSV,3,1,10,01,13,218,26,08,02,278,15,10,61,083,31,12,13,108,24*74
,$GPGSV,3,2,10,23,29,065,30,24,08,138,16,25,18,073,28,31,34,343,43*76
,$GPGSV,3,3,10,32,69,189,42,48,15,071,*7E
,$GLGSV,3,1,10,65,52,146,38,66,31,234,39,72,19,103,26,74,23,143,20*6A
,$GLGSV,3,2,10,75,48,081,33,76,22,018,32,81,32,245,38,82,07,201,25*62
,$GLGSV,3,3,10,87,06,341,25,88,29,307,31*61
,$GNGLL,3653.49553,S,17454.61176,E,220908.00,A,A*62
,$GNRMC,220909.00,A,3653.49538,S,17454.61197,E,0.746,55.06,150621,,,A*54
,$GNVTG,55.06,T,,M,0.746,N,1.381,K,A*1B
,$GNGGA,220909.00,3653.49538,S,17454.61197,E,1,12,0.57,25.6,M,28.1,M,,*6F
,$GNGSA,A,3,31,10,24,25,23,32,12,,,,,,1.15,0.57,1.00*1B
,$GNGSA,A,3,88,65,76,81,82,87,66,72,74,,,,1.15,0.57,1.00*12
,$GPGSV,3,1,10,01,13,218,27,08,02,278,15,10,61,083,35,12,13,108,25*70
,$GPGSV,3,2,10,23,29,065,29,24,08,138,16,25,18,073,28,31,34,343,42*7F
,$GPGSV,3,3,10,32,69,189,39,48,15,071,*72
,$GLGSV,3,1,10,65,52,146,34,66,31,234,41,72,19,103,30,74,23,143,18*65
,$GLGSV,3,2,10,75,48,081,29,76,22,018,30,81,32,245,37,82,07,201,25*64
,$GLGSV,3,3,10,87,06,341,25,88,29,307,35*65
,$GNGLL,3653.49538,S,17454.61197,E,220909.00,A,A*61
,$GNRMC,220910.00,A,3653.49517,S,17454.61217,E,0.628,42.88,150621,,,A*53
,$GNVTG,42.88,T,,M,0.628,N,1.162,K,A*1D
,$GNGGA,220910.00,3653.49517,S,17454.61217,E,1,12,0.57,25.6,M,28.1,M,,*61
,$GNGSA,A,3,31,10,24,25,23,32,12,,,,,,1.15,0.57,1.00*1B
,$GNGSA,A,3,88,65,76,81,82,87,66,72,74,,,,1.15,0.57,1.00*12
,$GPGSV,3,1,10,01,13,218,28,08,02,278,16,10,61,083,33,12,13,108,25*7A
,$GPGSV,3,2,10,23,29,065,33,24,08,138,14,25,18,073,32,31,34,343,43*7C
,$GPGSV,3,3,10,32,69,189,41,48,15,071,*7D
,$GLGSV,3,1,10,65,52,146,34,66,31,234,40,72,19,103,23,74,23,143,16*68
,$GLGSV,3,2,10,75,48,081,28,76,22,018,39,81,32,245,37,82,07,201,32*6A
,$GLGSV,3,3,10,87,06,341,26,88,29,307,37*64
,$GNGLL,3653.49517,S,17454.61217,E,220910.00,A,A*6F
,$GNRMC,220911.00,A,3653.49499,S,17454.61227,E,0.739,29.62,150621,,,A*5E
,$GNVTG,29.62,T,,M,0.739,N,1.369,K,A*1C
,$GNGGA,220911.00,3653.49499,S,17454.61227,E,1,12,0.57,25.4,M,28.1,M,,*66
,$GNGSA,A,3,31,10,24,25,23,32,12,,,,,,1.15,0.57,1.00*1B
,$GNGSA,A,3,88,65,76,81,82,87,66,72,74,,,,1.15,0.57,1.00*12
,$GPGSV,3,1,10,01,13,218,,08,02,278,15,10,61,083,41,12,13,108,26*75
,$GPGSV,3,2,10,23,29,065,33,24,08,138,16,25,18,073,31,31,34,343,43*7D
,$GPGSV,3,3,10,32,69,189,32,48,15,071,*79
,$GLGSV,3,1,10,65,52,146,29,66,31,234,41,72,19,103,22,74,23,143,21*60
,$GLGSV,3,2,10,75,48,081,32,76,22,018,37,81,32,246,39,82,07,201,33*63
,$GLGSV,3,3,10,87,06,341,27,88,29,307,42*67
,$GNGLL,3653.49499,S,17454.61227,E,220911.00,A,A*6A
,$GNRMC,220912.00,A,3653.49480,S,17454.61235,E,0.666,23.34,150621,,,A*54
,$GNVTG,23.34,T,,M,0.666,N,1.234,K,A*17
,$GNGGA,220912.00,3653.49480,S,17454.61235,E,1,12,0.57,25.2,M,28.1,M,,*68
,$GNGSA,A,3,31,10,24,25,23,32,12,,,,,,1.15,0.57,1.00*1B
,$GNGSA,A,3,88,65,76,81,82,87,66,72,74,,,,1.15,0.57,1.00*12
,$GPGSV,3,1,10,01,13,218,22,08,02,278,15,10,61,083,41,12,13,108,24*77
,$GPGSV,3,2,10,23,29,065,36,24,08,138,16,25,18,073,26,31,34,343,37*7D
,$GPGSV,3,3,10,32,69,189,38,48,15,071,*73
,$GLGSV,3,1,10,65,52,146,30,66,31,234,42,72,19,103,22,74,23,143,22*68
,$GLGSV,3,2,10,75,48,081,36,76,22,018,35,81,32,246,42,82,07,202,30*69
,$GLGSV,3,3,10,87,06,341,26,88,29,307,37*64
,$GNGLL,3653.49480,S,17454.61235,E,220912.00,A,A*62
,$GNRMC,220913.00,A,3653.49460,S,17454.61246,E,0.594,20.91,150621,,,A*5D
,$GNVTG,20.91,T,,M,0.594,N,1.100,K,A*11
,$GNGGA,220913.00,3653.49460,S,17454.61246,E,1,12,0.57,25.3,M,28.1,M,,*62
,$GNGSA,A,3,31,10,24,25,23,32,12,,,,,,1.15,0.57,1.00*1B
,$GNGSA,A,3,88,65,76,81,82,87,66,72,74,,,,1.15,0.57,1.00*12
,$GPGSV,3,1,10,01,13,218,,08,02,278,13,10,61,083,38,12,13,108,23*78
,$GPGSV,3,2,10,23,29,065,32,24,08,138,15,25,18,073,26,31,34,343,43*79
,$GPGSV,3,3,10,32,69,189,39,48,15,071,*72
,$GLGSV,3,1,10,65,52,146,26,66,31,234,41,72,19,103,21,74,23,143,24*69
,$GLGSV,3,2,10,75,48,081,29,76,22,018,23,81,32,246,39,82,07,202,24*69
,$GLGSV,3,3,10,87,06,341,32,88,29,307,41*60
,$GNGLL,3653.49460,S,17454.61246,E,220913.00,A,A*69
,$GNRMC,220914.00,A,3653.49440,S,17454.61250,E,0.575,12.15,150621,,,A*5D
,$GNVTG,12.15,T,,M,0.575,N,1.066,K,A*12
,$GNGGA,220914.00,3653.49440,S,17454.61250,E,1,12,0.57,25.5,M,28.1,M,,*66
,$GNGSA,A,3,31,10,24,25,23,32,12,,,,,,1.15,0.57,1.00*1B
,$GNGSA,A,3,88,65,76,81,82,87,66,72,74,,,,1.15,0.57,1.00*12
,$GPGSV,3,1,10,01,13,218,26,08,02,278,15,10,61,083,38,12,13,108,23*7A
,$GPGSV,3,2,10,23,29,065,19,24,08,138,15,25,18,073,26,31,34,343,41*72
,$GPGSV,3,3,10,32,69,189,31,48,15,071,*7A
,$GLGSV,3,1,10,65,52,146,35,66,31,234,38,72,19,103,22,74,23,143,30*63
,$GLGSV,3,2,10,75,48,081,32,76,22,018,31,81,32,246,43,82,07,202,24*6D
,$GLGSV,3,3,10,87,06,341,28,88,29,307,41*6B
,$GNGLL,3653.49440,S,17454.61250,E,220914.00,A,A*6B
,$GNRMC,220915.00,A,3653.49419,S,17454.61248,E,0.618,359.95,150621,,,A*65
,$GNVTG,359.95,T,,M,0.618,N,1.145,K,A*2E
,$GNGGA,220915.00,3653.49419,S,17454.61248,E,1,12,0.57,25.6,M,28.1,M,,*61
,$GNGSA,A,3,31,10,24,25,23,32,12,,,,,,1.15,0.57,1.00*1B
,$GNGSA,A,3,88,65,76,81,82,87,66,72,74,,,,1.15,0.57,1.00*12
,$GPGSV,3,1,11,01,13,218,27,08,02,278,17,10,61,083,43,12,13,108,25*72
,$GPGSV,3,2,11,21,,,42,23,29,065,20,24,08,138,15,25,18,073,27*49
,$GPGSV,3,3,11,31,34,343,41,32,69,189,39,48,15,071,*47
,$GLGSV,3,1,10,65,52,146,37,66,31,234,41,72,19,103,20,74,23,143,24*68
,$GLGSV,3,2,10,75,48,081,32,76,22,018,34,81,32,246,42,82,07,202,26*6B
,$GLGSV,3,3,10,87,06,341,21,88,29,307,38*6C
,$GNGLL,3653.49419,S,17454.61248,E,220915.00,A,A*6F
,$GNRMC,220916.00,A,3653.49403,S,17454.61243,E,0.522,353.61,150621,,,A*6D
,$GNVTG,353.61,T,,M,0.522,N,0.967,K,A*2C
,$GNGGA,220916.00,3653.49403,S,17454.61243,E,1,12,0.57,25.7,M,28.1,M,,*63
,$GNGSA,A,3,31,10,24,25,23,32,12,,,,,,1.15,0.57,1.00*1B
,$GNGSA,A,3,88,65,76,81,82,87,66,72,74,,,,1.15,0.57,1.00*12
,$GPGSV,3,1,11,01,13,218,25,08,02,278,17,10,61,083,42,12,13,108,31*74
,$GPGSV,3,2,11,21,,,43,23,29,065,32,24,08,138,14,25,18,073,25*48
,$GPGSV,3,3,11,31,34,343,40,32,69,189,36,48,15,071,*49
,$GLGSV,3,1,10,65,52,146,32,66,31,234,43,72,19,103,29,74,23,143,23*61
,$GLGSV,3,2,10,75,48,081,35,76,22,018,35,81,32,246,37,82,07,202,34*6C
,$GLGSV,3,3,10,87,06,341,23,88,29,307,38*6E
,$GNGLL,3653.49403,S,17454.61243,E,220916.00,A,A*6C
,$GNRMC,220917.00,A,3653.49387,S,17454.61237,E,0.647,338.41,150621,,,A*6B
,$GNVTG,338.41,T,,M,0.647,N,1.198,K,A*2A
,$GNGGA,220917.00,3653.49387,S,17454.61237,E,1,12,0.59,25.9,M,28.1,M,,*6A
,$GNGSA,A,3,31,10,24,23,32,12,,,,,,,1.16,0.59,1.00*11
,$GNGSA,A,3,88,65,76,81,82,87,66,72,74,,,,1.16,0.59,1.00*1F
,$GPGSV,3,1,11,01,13,218,30,08,02,278,16,10,61,083,42,12,13,108,30*70
,$GPGSV,3,2,11,21,,,41,23,29,065,27,24,08,138,14,25,18,073,26*4D
,$GPGSV,3,3,11,31,34,343,40,32,69,189,41,48,15,071,*49
,$GLGSV,3,1,10,65,52,146,32,66,31,234,43,72,19,103,21,74,23,143,22*68
,$GLGSV,3,2,10,75,48,081,41,76,22,018,32,81,32,246,41,82,07,202,33*6E
,$GLGSV,3,3,10,87,06,341,25,88,29,307,38*68
,$GNGLL,3653.49387,S,17454.61237,E,220917.00,A,A*65
,$GNRMC,220918.00,A,3653.49373,S,17454.61224,E,0.594,327.74,150621,,,A*68
,$GNVTG,327.74,T,,M,0.594,N,1.101,K,A*2F
,$GNGGA,220918.00,3653.49373,S,17454.61224,E,1,12,0.59,26.0,M,28.1,M,,*66
,$GNGSA,A,3,31,10,24,23,32,12,,,,,,,1.16,0.59,1.00*11
,$GNGSA,A,3,88,65,76,81,82,87,66,72,74,,,,1.16,0.59,1.00*1F
,$GPGSV,3,1,11,01,13,218,24,08,02,278,15,10,61,083,42,12,13,108,34*72
,$GPGSV,3,2,11,21,,,41,23,29,065,27,24,08,138,12,25,18,073,26*4B
,$GPGSV,3,3,11,31,34,343,36,32,69,189,42,48,15,071,*4B
,$GLGSV,3,1,10,65,52,146,35,66,31,234,41,72,19,103,31,74,23,143,23*6D
,$GLGSV,3,2,10,75,48,081,39,76,22,018,33,81,32,246,39,82,07,202,33*6F
,$GLGSV,3,3,10,87,06,341,24,88,29,308,38*66
,$GNGLL,3653.49373,S,17454.61224,E,220918.00,A,A*63
,$GNRMC,220919.00,A,3653.49362,S,17454.61208,E,0.605,321.21,150621,,,A*6A
,$GNVTG,321.21,T,,M,0.605,N,1.121,K,A*20
,$GNGGA,220919.00,3653.49362,S,17454.61208,E,1,12,0.58,25.9,M,28.1,M,,*62
,$GNGSA,A,3,31,10,25,23,32,12,,,,,,,1.21,0.58,1.06*13
,$GNGSA,A,3,88,65,76,81,82,87,66,72,74,,,,1.21,0.58,1.06*1C
,$GPGSV,3,1,11,01,14,218,25,08,02,278,18,10,61,083,42,12,13,108,37*7A
,$GPGSV,3,2,11,21,,,38,23,29,065,32,24,08,138,,25,18,073,31*44
,$GPGSV,3,3,11,31,34,343,33,32,69,189,45,48,15,071,*49
,$GLGSV,3,1,10,65,52,146,32,66,31,234,38,72,19,103,32,74,23,143,25*61
,$GLGSV,3,2,10,75,48,081,37,76,22,018,29,81,32,246,35,82,07,202,31*64
,$GLGSV,3,3,10,87,06,341,25,88,29,308,35*6A
,$GNGLL,3653.49362,S,17454.61208,E,220919.00,A,A*6C
,$GNRMC,220920.00,A,3653.49351,S,17454.61190,E,0.643,312.79,150621,,,A*6D
,$GNVTG,312.79,T,,M,0.643,N,1.190,K,A*25
,$GNGGA,220920.00,3653.49351,S,17454.61190,E,1,12,0.58,25.9,M,28.1,M,,*6A
,$GNGSA,A,3,31,10,25,23,32,12,,,,,,,1.21,0.58,1.06*13
,$GNGSA,A,3,88,65,76,81,82,87,66,72,74,,,,1.21,0.58,1.06*1C
,$GPGSV,3,1,11,01,14,218,25,08,02,278,20,10,61,083,39,12,13,108,34*7E
,$GPGSV,3,2,11,21,,,39,23,29,065,39,24,08,138,,25,18,073,31*4E
,$GPGSV,3,3,11,31,34,343,27,32,69,189,46,48,15,071,*4F
,$GLGSV,3,1,10,65,52,146,38,66,31,234,37,72,19,103,31,74,23,143,26*64
,$GLGSV,3,2,10,75,48,081,40,76,22,018,34,81,32,246,38,82,07,202,32*66
,$GLGSV,3,3,10,87,06,341,24,88,29,308,38*66
,$GNGLL,3653.49351,S,17454.61190,E,220920.00,A,A*64
