,$GNRMC,220800.00,A,3653.49356,S,17454.61178,E,0.681,320.61,150621,,,A*69
,$GNVTG,320.61,T,,M,0.681,N,1.261,K,A*2E
,$GNGGA,220800.00,3653.49356,S,17454.61178,E,1,12,0.55,24.6,M,28.1,M,,*6B
,$GNGSA,A,3,12,23,10,25,24,32,31,21,,,,,1.14,0.55,1.00*1B
,$GNGSA,A,3,82,72,88,65,87,81,76,74,66,,,,1.14,0.55,1.00*11
,$GPGSV,4,1,13,01,13,218,22,08,02,277,18,10,61,084,36,12,13,107,32*7E
,$GPGSV,4,2,13,21,29,234,31,23,30,066,40,24,08,138,19,25,18,073,34*75
,$GPGSV,4,3,13,27,00,306,,31,34,343,28,32,70,190,45,48,15,071,*76
,$GPGSV,4,4,13,50,25,298,*4A
,$GLGSV,3,1,10,65,52,148,38,66,30,235,38,72,20,104,32,74,23,143,26*6B
,$GLGSV,3,2,10,75,48,079,44,76,21,018,31,81,32,245,40,82,07,201,33*6D
,$GLGSV,3,3,10,87,07,340,25,88,30,307,30*68
,$GNGLL,3653.49356,S,17454.61178,E,220800.00,A,A*66
,$GNRMC,220801.00,A,3653.49345,S,17454.61172,E,0.522,316.30,150621,,,A*6B
,$GNVTG,316.30,T,,M,0.522,N,0.967,K,A*29
,$GNGGA,220801.00,3653.49345,S,17454.61172,E,1,12,0.55,24.8,M,28.1,M,,*6C
,$GNGSA,A,3,12,23,10,25,24,32,31,21,,,,,1.14,0.55,1.00*1B
,$GNGSA,A,3,82,72,88,65,87,81,76,74,66,,,,1.14,0.55,1.00*11
,$GPGSV,4,1,13,01,13,218,21,08,02,277,18,10,61,084,42,12,13,107,29*74
,$GPGSV,4,2,13,21,29,234,35,23,30,066,40,24,08,138,19,25,18,073,29*7D
,$GPGSV,4,3,13,27,00,306,,31,34,343,27,32,70,190,43,48,15,071,*7F
,$GPGSV,4,4,13,50,25,298,*4A
,$GLGSV,3,1,10,65,52,148,40,66,30,235,35,72,20,104,35,74,23,143,28*60
,$GLGSV,3,2,10,75,48,079,43,76,21,018,35,81,32,245,37,82,07,201,27*6B
,$GLGSV,3,3,10,87,07,340,31,88,30,307,34*69
,$GNGLL,3653.49345,S,17454.61172,E,220801.00,A,A*6F
,$GNRMC,220802.00,A,3653.49329,S,17454.61155,E,0.579,301.22,150621,,,A*6C
,$GNVTG,301.22,T,,M,0.579,N,1.072,K,A*2E
,$GNGGA,220802.00,3653.49329,S,17454.61155,E,1,12,0.55,24.8,M,28.1,M,,*60
,$GNGSA,A,3,12,23,10,25,24,32,31,21,,,,,1.14,0.55,1.00*1B
,$GNGSA,A,3,82,72,88,65,87,81,76,74,66,,,,1.14,0.55,1.00*11
,$GPGSV,4,1,13,01,13,218,21,08,02,277,19,10,61,084,43,12,13,107,22*7F
,$GPGSV,4,2,13,21,29,234,25,23,30,066,40,24,08,138,16,25,18,073,37*7C
,$GPGSV,4,3,13,27,00,306,,31,34,343,27,32,70,190,43,48,15,071,*7F
,$GPGSV,4,4,13,50,25,298,*4A
,$GLGSV,3,1,10,65,52,148,40,66,30,235,35,72,20,104,37,74,23,143,26*6C
,$GLGSV,3,2,10,75,48,079,45,76,21,018,39,81,32,245,30,82,07,201,34*64
,$GLGSV,3,3,10,87,07,340,25,88,30,307,34*6C
,$GNGLL,3653.49329,S,17454.61155,E,220802.00,A,A*63
,$GNRMC,220803.00,A,3653.49325,S,17454.61137,E,0.520,,150621,,,A*75
,$GNVTG,,T,,M,0.520,N,0.963,K,A*36
,$GNGGA,220803.00,3653.49325,S,17454.61137,E,1,12,0.55,24.9,M,28.1,M,,*68
,$GNGSA,A,3,12,23,10,25,24,32,31,21,,,,,1.14,0.55,1.00*1B
,$GNGSA,A,3,82,72,88,65,87,81,76,74,66,,,,1.14,0.55,1.00*11
,$GPGSV,4,1,13,01,13,218,24,08,02,277,22,10,61,084,45,12,13,107,33*74
,$GPGSV,4,2,13,21,29,234,31,23,30,066,45,24,08,138,19,25,18,073,36*72
,$GPGSV,4,3,13,27,00,306,,31,34,343,33,32,70,190,45,48,15,071,*7C
,$GPGSV,4,4,13,50,25,298,*4A
,$GLGSV,3,1,10,65,52,148,37,66,30,235,28,72,20,104,35,74,23,143,26*62
,$GLGSV,3,2,10,75,48,079,45,76,21,018,34,81,32,245,33,82,07,201,25*6A
,$GLGSV,3,3,10,87,07,340,26,88,30,307,28*62
,$GNGLL,3653.49325,S,17454.61137,E,220803.00,A,A*6A
,$GNRMC,220804.00,A,3653.49322,S,17454.61120,E,0.611,295.06,150621,,,A*64
,$GNVTG,295.06,T,,M,0.611,N,1.131,K,A*2F
,$GNGGA,220804.00,3653.49322,S,17454.61120,E,1,12,0.55,24.8,M,28.1,M,,*6F
,$GNGSA,A,3,12,23,10,25,24,32,31,21,,,,,1.14,0.55,1.00*1B
,$GNGSA,A,3,82,72,88,65,87,81,76,74,66,,,,1.14,0.55,1.00*11
,$GPGSV,4,1,13,01,13,218,24,08,02,277,22,10,61,084,48,12,13,107,40*7D
,$GPGSV,4,2,13,21,29,234,31,23,30,066,45,24,08,138,18,25,18,073,36*73
,$GPGSV,4,3,13,27,00,306,,31,34,343,28,32,70,190,49,48,15,071,*7A
,$GPGSV,4,4,13,50,25,298,*4A
,$GLGSV,3,1,10,65,52,148,38,66,30,235,32,72,20,104,33,74,23,143,26*60
,$GLGSV,3,2,10,75,48,079,45,76,21,018,27,81,32,245,32,82,07,201,24*68
,$GLGSV,3,3,10,87,07,340,26,88,30,307,33*68
,$GNGLL,3653.49322,S,17454.61120,E,220804.00,A,A*6C
,$GNRMC,220805.00,A,3653.49324,S,17454.61102,E,0.556,,150621,,,A*75
,$GNVTG,,T,,M,0.556,N,1.030,K,A*39
,$GNGGA,220805.00,3653.49324,S,17454.61102,E,1,12,0.56,24.8,M,28.1,M,,*6B
,$GNGSA,A,3,12,23,10,25,32,31,21,,,,,,1.20,0.56,1.06*1F
,$GNGSA,A,3,82,72,88,65,87,81,76,74,66,,,,1.20,0.56,1.06*13
,$GPGSV,4,1,13,01,13,218,26,08,02,277,21,10,61,084,47,12,13,107,39*7D
,$GPGSV,4,2,13,21,29,234,28,23,30,066,46,24,08,138,19,25,18,073,41*79
,$GPGSV,4,3,13,27,00,306,,31,34,343,34,32,70,190,46,48,15,071,*78
,$GPGSV,4,4,13,50,25,298,*4A
,$GLGSV,3,1,10,65,52,148,38,66,30,235,24,72,20,104,33,74,23,143,33*63
,$GLGSV,3,2,10,75,48,079,44,76,21,018,28,81,32,245,32,82,07,201,22*60
,$GLGSV,3,3,10,87,07,340,29,88,30,307,32*66
,$GNGLL,3653.49324,S,17454.61102,E,220805.00,A,A*6B
,$GNRMC,220806.00,A,3653.49327,S,17454.61085,E,0.592,,150621,,,A*73
,$GNVTG,,T,,M,0.592,N,1.097,K,A*3C
,$GNGGA,220806.00,3653.49327,S,17454.61085,E,1,12,0.57,24.8,M,28.1,M,,*64
,$GNGSA,A,3,12,23,10,25,24,32,31,,,,,,1.15,0.57,1.00*1B
,$GNGSA,A,3,82,72,88,65,87,81,76,74,66,,,,1.15,0.57,1.00*12
,$GPGSV,4,1,13,01,13,218,26,08,02,277,20,10,61,084,47,12,13,107,38*7D
,$GPGSV,4,2,13,21,29,234,,23,30,066,48,24,08,138,19,25,18,073,39*72
,$GPGSV,4,3,13,27,00,306,,31,34,343,27,32,70,190,47,48,15,071,*7B
,$GPGSV,4,4,13,50,25,298,*4A
,$GLGSV,3,1,10,65,52,148,31,66,30,235,22,72,20,104,32,74,23,143,31*6F
,$GLGSV,3,2,10,75,48,079,43,76,21,018,26,81,32,245,21,82,07,201,21*68
,$GLGSV,3,3,10,87,07,340,29,88,30,307,24*61
,$GNGLL,3653.49327,S,17454.61085,E,220806.00,A,A*65
,$GNRMC,220807.00,A,3653.49337,S,17454.61070,E,0.643,259.07,150621,,,A*61
,$GNVTG,259.07,T,,M,0.643,N,1.190,K,A*22
,$GNGGA,220807.00,3653.49337,S,17454.61070,E,1,12,0.57,24.9,M,28.1,M,,*6F
,$GNGSA,A,3,12,23,10,25,24,32,31,,,,,,1.15,0.57,1.00*1B
,$GNGSA,A,3,82,72,88,65,87,81,76,74,66,,,,1.15,0.57,1.00*12
,$GPGSV,4,1,13,01,13,218,24,08,02,277,20,10,61,084,47,12,13,107,32*75
,$GPGSV,4,2,13,21,29,234,23,23,30,066,49,24,08,138,18,25,18,073,39*73
,$GPGSV,4,3,13,27,00,306,,31,34,343,34,32,70,190,48,48,15,071,*76
,$GPGSV,4,4,13,50,25,298,*4A
,$GLGSV,3,1,10,65,52,148,33,66,30,235,25,72,20,104,32,74,23,143,31*6A
,$GLGSV,3,2,10,75,48,079,42,76,21,018,27,81,32,245,31,82,07,201,21*69
,$GLGSV,3,3,10,87,07,340,34,88,30,307,26*6F
,$GNGLL,3653.49337,S,17454.61070,E,220807.00,A,A*6F
,$GNRMC,220808.00,A,3653.49347,S,17454.61054,E,0.623,250.30,150621,,,A*64
,$GNVTG,250.30,T,,M,0.623,N,1.155,K,A*20
,$GNGGA,220808.00,3653.49347,S,17454.61054,E,1,12,0.57,24.7,M,28.1,M,,*6F
,$GNGSA,A,3,12,23,10,25,24,32,31,,,,,,1.15,0.57,1.00*1B
,$GNGSA,A,3,82,72,88,65,87,81,76,74,66,,,,1.15,0.57,1.00*12
,$GPGSV,4,1,13,01,13,218,22,08,02,277,20,10,61,084,45,12,13,107,36*75
,$GPGSV,4,2,13,21,29,234,26,23,30,066,49,24,08,138,19,25,18,073,42*7B
,$GPGSV,4,3,13,27,00,306,,31,34,343,38,32,70,190,46,48,15,071,*74
,$GPGSV,4,4,13,50,25,298,*4A
,$GLGSV,3,1,10,65,52,148,37,66,30,235,25,72,20,104,31,74,23,143,35*69
,$GLGSV,3,2,10,75,48,079,45,76,21,018,34,81,32,245,25,82,07,201,21*69
,$GLGSV,3,3,10,87,07,340,29,88,30,307,25*60
,$GNGLL,3653.49347,S,17454.61054,E,220808.00,A,A*61
,$GNRMC,220809.00,A,3653.49355,S,17454.61036,E,0.626,239.19,150621,,,A*63
,$GNVTG,239.19,T,,M,0.626,N,1.159,K,A*2D
,$GNGGA,220809.00,3653.49355,S,17454.61036,E,1,12,0.55,24.7,M,28.1,M,,*6B
,$GNGSA,A,3,12,23,10,25,24,32,31,21,,,,,1.14,0.55,1.00*1B
,$GNGSA,A,3,82,72,88,65,87,81,76,74,66,,,,1.14,0.55,1.00*11
,$GPGSV,4,1,13,01,13,218,21,08,02,277,18,10,61,084,44,12,13,107,32*78
,$GPGSV,4,2,13,21,29,234,25,23,30,066,48,24,08,138,18,25,18,073,40*7A
,$GPGSV,4,3,13,27,00,306,,31,34,343,40,32,70,190,48,48,15,071,*75
,$GPGSV,4,4,13,50,25,298,*4A
,$GLGSV,3,1,10,65,52,148,39,66,30,235,25,72,20,104,32,74,23,143,35*64
,$GLGSV,3,2,10,75,48,079,43,76,21,018,34,81,32,245,25,82,07,201,21*6F
,$GLGSV,3,3,10,87,07,340,29,88,30,307,25*60
,$GNGLL,3653.49355,S,17454.61036,E,220809.00,A,A*67
,$GNRMC,220810.00,A,3653.49369,S,17454.61028,E,0.544,232.43,150621,,,A*68
,$GNVTG,232.43,T,,M,0.544,N,1.007,K,A*24
,$GNGGA,220810.00,3653.49369,S,17454.61028,E,1,12,0.55,24.7,M,28.1,M,,*63
,$GNGSA,A,3,12,23,10,25,24,32,31,21,,,,,1.14,0.55,1.00*1B
,$GNGSA,A,3,82,72,88,65,87,81,76,74,66,,,,1.14,0.55,1.00*11
,$GPGSV,4,1,13,01,13,218,20,08,02,277,19,10,61,084,46,12,13,107,32*7A
,$GPGSV,4,2,13,21,29,234,26,23,30,066,44,24,08,138,18,25,18,073,41*74
,$GPGSV,4,3,13,27,00,306,,31,34,343,41,32,70,190,48,48,15,071,*74
,$GPGSV,4,4,13,50,25,298,*4A
,$GLGSV,3,1,10,65,52,148,35,66,30,235,27,72,20,104,31,74,23,143,34*68
,$GLGSV,3,2,10,75,48,079,43,76,21,018,27,81,32,245,26,82,07,201,20*6F
,$GLGSV,3,3,10,87,07,340,29,88,30,307,26*63
,$GNGLL,3653.49369,S,17454.61028,E,220810.00,A,A*6F
,$GNRMC,220811.00,A,3653.49378,S,17454.61016,E,0.534,224.06,150621,,,A*65
,$GNVTG,224.06,T,,M,0.534,N,0.988,K,A*2A
,$GNGGA,220811.00,3653.49378,S,17454.61016,E,1,12,0.56,24.7,M,28.1,M,,*6C
,$GNGSA,A,3,12,23,10,25,32,31,21,,,,,,1.20,0.56,1.06*1F
,$GNGSA,A,3,82,72,88,65,87,81,76,74,66,,,,1.20,0.56,1.06*13
,$GPGSV,4,1,13,01,13,218,21,08,02,277,22,10,61,084,44,12,13,107,20*72
,$GPGSV,4,2,13,21,29,234,26,23,30,066,41,24,08,138,,25,18,073,40*79
,$GPGSV,4,3,13,27,00,306,,31,34,343,44,32,70,190,46,48,15,071,41*7A
,$GPGSV,4,4,13,50,25,298,*4A
,$GLGSV,3,1,10,65,52,148,38,66,30,235,26,72,20,104,23,74,23,143,34*67
,$GLGSV,3,2,10,75,48,079,38,76,21,018,28,81,32,245,26,82,07,201,18*67
,$GLGSV,3,3,10,87,07,340,28,88,30,307,37*62
,$GNGLL,3653.49378,S,17454.61016,E,220811.00,A,A*63
,$GNRMC,220812.00,A,3653.49391,S,17454.61007,E,0.527,214.69,150621,,,A*69
,$GNVTG,214.69,T,,M,0.527,N,0.975,K,A*20
,$GNGGA,220812.00,3653.49391,S,17454.61007,E,1,12,0.56,24.7,M,28.1,M,,*68
,$GNGSA,A,3,12,23,10,25,32,31,21,,,,,,1.20,0.56,1.06*1F
,$GNGSA,A,3,82,72,88,65,87,81,76,74,66,,,,1.20,0.56,1.06*13
,$GPGSV,4,1,13,01,13,218,23,08,02,277,21,10,61,084,44,12,13,107,24*77
,$GPGSV,4,2,13,21,29,234,25,23,30,066,41,24,08,138,,25,18,073,38*75
,$GPGSV,4,3,13,27,00,306,,31,34,343,46,32,70,190,46,48,15,071,39*77
,$GPGSV,4,4,13,50,25,298,*4A
,$GLGSV,3,1,10,65,52,147,38,66,30,235,24,72,20,104,26,74,23,143,33*68
,$GLGSV,3,2,10,75,48,079,40,76,21,018,28,81,32,245,25,82,07,201,18*6B
,$GLGSV,3,3,10,87,07,340,26,88,30,307,26*6C
,$GNGLL,3653.49391,S,17454.61007,E,220812.00,A,A*67
,$GNRMC,220813.00,A,3653.49410,S,17454.61001,E,0.673,198.54,150621,,,A*6B
,$GNVTG,198.54,T,,M,0.673,N,1.247,K,A*20
,$GNGGA,220813.00,3653.49410,S,17454.61001,E,1,12,0.56,24.5,M,28.1,M,,*63
,$GNGSA,A,3,12,23,10,25,32,31,21,,,,,,1.20,0.56,1.06*1F
,$GNGSA,A,3,82,72,88,65,87,81,76,74,66,,,,1.20,0.56,1.06*13
,$GPGSV,4,1,13,01,13,218,,08,02,277,19,10,61,084,43,12,13,107,25*7B
,$GPGSV,4,2,13,21,29,234,28,23,30,066,45,24,08,138,,25,18,073,40*73
,$GPGSV,4,3,13,27,00,306,,31,34,343,47,32,70,190,46,48,15,071,36*79
,$GPGSV,4,4,13,50,25,298,33*4A
,$GLGSV,3,1,10,65,52,147,39,66,31,234,24,72,20,104,30,74,23,143,32*6F
,$GLGSV,3,2,10,75,48,079,40,76,21,018,40,81,32,245,23,82,07,201,20*68
,$GLGSV,3,3,10,87,07,340,24,88,30,307,32*6B
,$GNGLL,3653.49410,S,17454.61001,E,220813.00,A,A*6E
,$GNRMC,220814.00,A,3653.49427,S,17454.60995,E,0.650,192.32,150621,,,A*66
,$GNVTG,192.32,T,,M,0.650,N,1.205,K,A*2D
,$GNGGA,220814.00,3653.49427,S,17454.60995,E,1,12,0.56,24.3,M,28.1,M,,*63
,$GNGSA,A,3,12,23,10,25,32,31,21,,,,,,1.20,0.56,1.06*1F
,$GNGSA,A,3,82,72,88,65,87,81,76,74,66,,,,1.20,0.56,1.06*13
,$GPGSV,4,1,13,01,13,218,,08,02,277,19,10,61,084,47,12,13,107,26*7C
,$GPGSV,4,2,13,21,29,234,28,23,30,066,42,24,08,138,,25,18,073,35*76
,$GPGSV,4,3,13,27,00,306,,31,34,343,48,32,70,190,46,48,15,071,39*79
,$GPGSV,4,4,13,50,25,298,31*48
,$GLGSV,3,1,10,65,52,147,40,66,31,234,26,72,20,104,29,74,23,143,27*6F
,$GLGSV,3,2,10,75,48,079,42,76,21,018,39,81,32,245,26,82,07,201,22*63
,$GLGSV,3,3,10,87,07,340,31,88,30,307,30*6D
,$GNGLL,3653.49427,S,17454.60995,E,220814.00,A,A*68
,$GNRMC,220815.00,A,3653.49443,S,17454.60996,E,0.595,,150621,,,A*79
,$GNVTG,,T,,M,0.595,N,1.102,K,A*36
,$GNGGA,220815.00,3653.49443,S,17454.60996,E,1,12,0.56,24.3,M,28.1,M,,*63
,$GNGSA,A,3,12,23,10,25,32,31,21,,,,,,1.20,0.56,1.06*1F
,$GNGSA,A,3,82,72,88,65,87,81,76,74,66,,,,1.20,0.56,1.06*13
,$GPGSV,4,1,13,01,13,218,,08,02,277,19,10,61,084,42,12,13,107,28*77
,$GPGSV,4,2,13,21,29,234,26,23,30,066,42,24,08,138,,25,18,073,33*7E
,$GPGSV,4,3,13,27,00,306,,31,34,343,50,32,70,190,45,48,15,071,34*7E
,$GPGSV,4,4,13,50,25,298,29*41
,$GLGSV,3,1,10,65,52,147,40,66,31,234,25,72,20,104,29,74,23,143,29*62
,$GLGSV,3,2,10,75,48,079,36,76,21,018,35,81,32,245,25,82,07,201,21*6C
,$GLGSV,3,3,10,87,07,340,28,88,30,307,27*63
,$GNGLL,3653.49443,S,17454.60996,E,220815.00,A,A*68
,$GNRMC,220816.00,A,3653.49462,S,17454.60999,E,0.661,,150621,,,A*7E
,$GNVTG,,T,,M,0.661,N,1.225,K,A*38
,$GNGGA,220816.00,3653.49462,S,17454.60999,E,1,12,0.56,24.1,M,28.1,M,,*6E
,$GNGSA,A,3,12,23,10,25,32,31,21,,,,,,1.20,0.56,1.06*1F
,$GNGSA,A,3,82,72,88,65,87,81,76,74,66,,,,1.20,0.56,1.06*13
,$GPGSV,4,1,13,01,13,218,,08,02,277,14,10,61,084,38,12,13,107,23*7C
,$GPGSV,4,2,13,21,29,234,21,23,30,066,35,24,08,138,,25,18,073,27*7C
,$GPGSV,4,3,13,27,00,306,,31,34,343,47,32,70,190,41,48,15,071,28*71
,$GPGSV,4,4,13,50,25,298,*4A
,$GLGSV,3,1,10,65,52,147,42,66,31,234,22,72,20,104,30,74,23,143,34*63
,$GLGSV,3,2,10,75,48,079,41,76,21,018,32,81,32,245,24,82,07,201,19*61
,$GLGSV,3,3,10,87,07,340,26,88,30,307,23*69
,$GNGLL,3653.49462,S,17454.60999,E,220816.00,A,A*67
,$GNRMC,220817.00,A,3653.49481,S,17454.61013,E,0.769,172.14,150621,,,A*6E
,$GNVTG,172.14,T,,M,0.769,N,1.424,K,A*29
,$GNGGA,220817.00,3653.49481,S,17454.61013,E,1,12,0.56,23.9,M,28.1,M,,*67
,$GNGSA,A,3,12,23,10,25,32,31,21,,,,,,1.20,0.56,1.06*1F
,$GNGSA,A,3,82,72,88,65,87,81,76,74,66,,,,1.20,0.56,1.06*13
,$GPGSV,4,1,13,01,13,218,,08,02,277,13,10,61,084,40,12,13,107,21*76
,$GPGSV,4,2,13,21,29,234,23,23,30,066,39,24,08,138,05,25,18,073,27*77
,$GPGSV,4,3,13,27,00,306,,31,34,343,45,32,70,190,39,48,15,071,28*7C
,$GPGSV,4,4,13,50,25,298,*4A
,$GLGSV,3,1,10,65,52,147,40,66,31,234,23,72,20,104,22,74,23,143,32*65
,$GLGSV,3,2,10,75,48,079,42,76,21,018,27,81,32,245,24,82,07,201,20*6C
,$GLGSV,3,3,10,87,07,340,25,88,30,307,20*69
,$GNGLL,3653.49481,S,17454.61013,E,220817.00,A,A*61
,$GNRMC,220818.00,A,3653.49499,S,17454.61013,E,0.799,183.86,150621,,,A*62
,$GNVTG,183.86,T,,M,0.799,N,1.480,K,A*2D
,$GNGGA,220818.00,3653.49499,S,17454.61013,E,1,12,0.56,24.0,M,28.1,M,,*6F
,$GNGSA,A,3,12,23,10,25,32,31,21,,,,,,1.20,0.56,1.06*1F
,$GNGSA,A,3,82,72,88,65,87,81,76,74,66,,,,1.20,0.56,1.06*13
,$GPGSV,4,1,13,01,13,218,,08,02,277,12,10,61,084,40,12,13,107,20*76
,$GPGSV,4,2,13,21,29,234,21,23,30,066,25,24,08,138,06,25,18,073,35*78
,$GPGSV,4,3,13,27,00,306,,31,34,343,42,32,70,190,34,48,15,071,36*79
,$GPGSV,4,4,13,50,25,298,*4A
,$GLGSV,3,1,10,65,52,147,37,66,31,234,22,72,20,104,30,74,23,143,31*64
,$GLGSV,3,2,10,75,48,079,40,76,21,018,31,81,32,245,24,82,07,201,21*68
,$GLGSV,3,3,10,87,07,340,23,88,30,307,20*6F
,$GNGLL,3653.49499,S,17454.61013,E,220818.00,A,A*67
,$GNRMC,220819.00,A,3653.49515,S,17454.61021,E,0.572,,150621,,,A*7A
,$GNVTG,,T,,M,0.572,N,1.060,K,A*3A
,$GNGGA,220819.00,3653.49515,S,17454.61021,E,1,12,0.56,23.9,M,28.1,M,,*64
,$GNGSA,A,3,12,23,10,25,32,31,21,,,,,,1.20,0.56,1.06*1F
,$GNGSA,A,3,82,72,88,65,87,81,76,74,66,,,,1.20,0.56,1.06*13
,$GPGSV,4,1,13,01,13,218,,08,02,277,14,10,61,084,43,12,13,107,19*79
,$GPGSV,4,2,13,21,29,234,21,23,30,066,31,24,08,138,12,25,18,073,26*7A
,$GPGSV,4,3,13,27,00,306,,31,34,343,42,32,70,190,37,48,15,071,28*75
,$GPGSV,4,4,13,50,25,298,*4A
,$GLGSV,3,1,10,65,52,147,39,66,31,234,22,72,20,103,29,74,23,143,26*63
,$GLGSV,3,2,10,75,48,079,41,76,21,018,25,81,32,245,24,82,07,201,21*6C
,$GLGSV,3,3,10,87,07,340,24,88,30,307,28*60
,$GNGLL,3653.49515,S,17454.61021,E,220819.00,A,A*62
,$GNRMC,220820.00,A,3653.49525,S,17454.61034,E,0.506,,150621,,,A*74
,$GNVTG,,T,,M,0.506,N,0.937,K,A*33
,$GNGGA,220820.00,3653.49525,S,17454.61034,E,1,12,0.56,23.9,M,28.1,M,,*69
,$GNGSA,A,3,12,23,10,25,32,31,21,,,,,,1.20,0.56,1.06*1F
,$GNGSA,A,3,82,72,88,65,87,81,76,74,66,,,,1.20,0.56,1.06*13
,$GPGSV,4,1,13,01,13,218,,08,02,277,12,10,61,084,42,12,13,107,20*74
,$GPGSV,4,2,13,21,29,234,22,23,30,066,37,24,08,138,10,25,18,073,28*73
,$GPGSV,4,3,13,27,00,306,,31,34,343,40,32,70,190,37,48,15,071,*7D
,$GPGSV,4,4,13,50,25,298,*4A
,$GLGSV,3,1,10,65,52,147,39,66,31,234,21,72,20,103,20,74,23,143,30*6E
,$GLGSV,3,2,10,75,48,079,42,76,21,018,31,81,32,245,23,82,07,201,23*6F
,$GLGSV,3,3,10,87,07,340,24,88,30,307,20*68
,$GNGLL,3653.49525,S,17454.61034,E,220820.00,A,A*6F
,$GNRMC,220821.00,A,3653.49535,S,17454.61036,E,0.388,,150621,,,A*76
,$GNVTG,,T,,M,0.388,N,0.718,K,A*30
,$GNGGA,220821.00,3653.49535,S,17454.61036,E,1,12,0.56,24.1,M,28.1,M,,*64
,$GNGSA,A,3,12,23,10,25,32,31,21,,,,,,1.20,0.56,1.06*1F
,$GNGSA,A,3,82,72,88,65,87,81,76,74,66,,,,1.20,0.56,1.06*13
,$GPGSV,4,1,13,01,13,218,,08,02,277,13,10,61,084,44,12,13,107,22*71
,$GPGSV,4,2,13,21,29,234,24,23,30,066,39,24,08,138,11,25,18,073,28*7A
,$GPGSV,4,3,13,27,00,306,,31,34,343,39,32,70,190,35,48,15,071,*71
,$GPGSV,4,4,13,50,25,298,*4A
,$GLGSV,3,1,10,65,52,147,37,66,31,234,23,72,20,103,20,74,23,143,27*64
,$GLGSV,3,2,10,75,48,079,43,76,21,018,37,81,32,245,21,82,07,201,29*60
,$GLGSV,3,3,10,87,07,340,26,88,30,307,24*6E
,$GNGLL,3653.49535,S,17454.61036,E,220821.00,A,A*6D
,$GNRMC,220822.00,A,3653.49542,S,17454.61047,E,0.441,,150621,,,A*71
,$GNVTG,,T,,M,0.441,N,0.817,K,A*32
,$GNGGA,220822.00,3653.49542,S,17454.61047,E,1,12,0.56,24.3,M,28.1,M,,*63
,$GNGSA,A,3,12,23,10,25,24,32,31,21,,,,,1.20,0.56,1.06*19
,$GNGSA,A,3,82,72,88,65,87,81,76,74,66,,,,1.20,0.56,1.06*13
,$GPGSV,4,1,13,01,13,218,19,08,02,277,14,10,61,084,44,12,13,107,24*78
,$GPGSV,4,2,13,21,29,234,23,23,30,066,30,24,08,138,14,25,18,073,30*78
,$GPGSV,4,3,13,27,00,306,,31,34,343,35,32,70,190,39,48,15,071,*71
,$GPGSV,4,4,13,50,25,298,*4A
,$GLGSV,3,1,10,65,52,147,35,66,31,234,23,72,20,103,21,74,23,143,28*68
,$GLGSV,3,2,10,75,48,080,41,76,21,018,35,81,32,245,21,82,07,201,28*67
,$GLGSV,3,3,10,87,07,340,25,88,30,307,22*6B
,$GNGLL,3653.49542,S,17454.61047,E,220822.00,A,A*68
,$GNRMC,220823.00,A,3653.49545,S,17454.61054,E,0.230,,150621,,,A*75
,$GNVTG,,T,,M,0.230,N,0.425,K,A*3F
,$GNGGA,220823.00,3653.49545,S,17454.61054,E,1,12,0.56,24.6,M,28.1,M,,*62
,$GNGSA,A,3,12,23,10,25,32,31,21,,,,,,1.20,0.56,1.06*1F
,$GNGSA,A,3,82,72,88,65,87,81,76,74,66,,,,1.20,0.56,1.06*13
,$GPGSV,4,1,13,01,13,218,18,08,02,277,16,10,61,084,42,12,13,107,30*78
,$GPGSV,4,2,13,21,29,234,29,23,30,066,31,24,08,138,,25,18,073,35*73
,$GPGSV,4,3,13,27,00,306,,31,34,343,37,32,70,190,36,48,15,071,*7C
,$GPGSV,4,4,13,50,25,298,*4A
,$GLGSV,3,1,10,65,52,147,34,66,31,234,23,72,20,103,21,74,23,143,27*66
,$GLGSV,3,2,10,75,48,080,42,76,22,018,33,81,32,245,28,82,07,201,28*68
,$GLGSV,3,3,10,87,07,340,24,88,30,307,24*6C
,$GNGLL,3653.49545,S,17454.61054,E,220823.00,A,A*6C
,$GNRMC,220824.00,A,3653.49546,S,17454.61065,E,0.331,,150621,,,A*73
,$GNVTG,,T,,M,0.331,N,0.613,K,A*38
,$GNGGA,220824.00,3653.49546,S,17454.61065,E,1,12,0.56,24.8,M,28.1,M,,*6A
,$GNGSA,A,3,12,23,10,25,32,31,21,,,,,,1.20,0.56,1.06*1F
,$GNGSA,A,3,82,72,88,65,87,81,76,74,66,,,,1.20,0.56,1.06*13
,$GPGSV,4,1,13,01,13,218,27,08,02,277,17,10,61,084,39,12,13,107,25*7D
,$GPGSV,4,2,13,21,29,234,29,23,30,066,34,24,08,138,17,25,18,073,25*71
,$GPGSV,4,3,13,27,00,306,,31,34,343,39,32,70,190,35,48,15,071,*71
,$GPGSV,4,4,13,50,25,298,*4A
,$GLGSV,3,1,10,65,52,147,29,66,31,234,33,72,20,103,23,74,23,143,26*68
,$GLGSV,3,2,10,75,48,080,42,76,22,018,35,81,32,245,29,82,07,201,27*60
,$GLGSV,3,3,10,87,07,340,24,88,30,307,24*6C
,$GNGLL,3653.49546,S,17454.61065,E,220824.00,A,A*6A
,$GNRMC,220825.00,A,3653.49543,S,17454.61083,E,0.526,136.22,150621,,,A*65
,$GNVTG,136.22,T,,M,0.526,N,0.974,K,A*2C
,$GNGGA,220825.00,3653.49543,S,17454.61083,E,1,12,0.56,24.9,M,28.1,M,,*67
,$GNGSA,A,3,12,23,10,25,32,31,21,,,,,,1.20,0.56,1.06*1F
,$GNGSA,A,3,82,72,88,65,87,81,76,74,66,,,,1.20,0.56,1.06*13
,$GPGSV,4,1,13,01,13,218,25,08,02,277,16,10,61,084,39,12,13,107,26*7D
,$GPGSV,4,2,13,21,29,234,33,23,30,066,28,24,08,138,17,25,18,073,26*74
,$GPGSV,4,3,13,27,00,306,,31,34,343,36,32,70,190,35,48,15,071,*7E
,$GPGSV,4,4,13,50,25,298,*4A
,$GLGSV,3,1,10,65,52,147,32,66,31,234,30,72,20,103,23,74,23,143,25*62
,$GLGSV,3,2,10,75,48,080,43,76,22,018,36,81,32,245,34,82,07,201,28*61
,$GLGSV,3,3,10,87,07,340,31,88,30,307,24*68
,$GNGLL,3653.49543,S,17454.61083,E,220825.00,A,A*66
,$GNRMC,220826.00,A,3653.49534,S,17454.61098,E,0.444,,150621,,,A*73
,$GNVTG,,T,,M,0.444,N,0.821,K,A*32
,$GNGGA,220826.00,3653.49534,S,17454.61098,E,1,12,0.56,25.0,M,28.1,M,,*66
,$GNGSA,A,3,12,23,10,25,32,31,21,,,,,,1.20,0.56,1.06*1F
,$GNGSA,A,3,82,72,88,65,87,81,76,74,66,,,,1.20,0.56,1.06*13
,$GPGSV,4,1,13,01,13,218,25,08,02,277,14,10,61,084,37,12,13,107,27*70
,$GPGSV,4,2,13,21,29,234,33,23,30,066,28,24,08,138,17,25,18,073,25*77
,$GPGSV,4,3,13,27,00,306,,31,34,343,37,32,70,190,38,48,15,071,*72
,$GPGSV,4,4,13,50,25,298,*4A
,$GLGSV,3,1,10,65,52,147,33,66,31,234,36,72,20,103,26,74,23,143,25*60
,$GLGSV,3,2,10,75,48,080,41,76,22,018,39,81,32,245,36,82,07,201,32*65
,$GLGSV,3,3,10,87,07,340,26,88,30,307,24*6E
,$GNGLL,3653.49534,S,17454.61098,E,220826.00,A,A*6F
,$GNRMC,220827.00,A,3653.49529,S,17454.61104,E,0.534,,150621,,,A*7C
,$GNVTG,,T,,M,0.534,N,0.988,K,A*36
,$GNGGA,220827.00,3653.49529,S,17454.61104,E,1,12,0.56,25.1,M,28.1,M,,*6E
,$GNGSA,A,3,12,23,10,25,32,31,21,,,,,,1.20,0.56,1.06*1F
,$GNGSA,A,3,82,72,88,65,87,81,76,74,66,,,,1.20,0.56,1.06*13
,$GPGSV,4,1,13,01,13,218,26,08,02,277,,10,61,084,39,12,13,107,25*7A
,$GPGSV,4,2,13,21,29,234,32,23,30,066,27,24,08,138,15,25,18,073,31*7E
,$GPGSV,4,3,13,27,00,306,,31,34,343,39,32,70,190,34,48,15,071,*70
,$GPGSV,4,4,13,50,25,298,*4A
,$GLGSV,3,1,10,65,52,147,36,66,31,234,37,72,20,103,27,74,23,143,27*67
,$GLGSV,3,2,10,75,48,080,37,76,22,018,29,81,32,245,38,82,07,201,32*6B
,$GLGSV,3,3,10,87,07,340,26,88,30,307,34*6F
,$GNGLL,3653.49529,S,17454.61104,E,220827.00,A,A*66
,$GNRMC,220828.00,A,3653.49520,S,17454.61119,E,0.457,94.30,150621,,,A*52
,$GNVTG,94.30,T,,M,0.457,N,0.847,K,A*10
,$GNGGA,220828.00,3653.49520,S,17454.61119,E,1,12,0.56,25.1,M,28.1,M,,*64
,$GNGSA,A,3,12,23,10,25,32,31,21,,,,,,1.20,0.56,1.06*1F
,$GNGSA,A,3,82,72,88,65,87,81,76,74,66,,,,1.20,0.56,1.06*13
,$GPGSV,4,1,13,01,13,218,26,08,02,277,,10,61,084,36,12,13,107,26*76
,$GPGSV,4,2,13,21,29,234,37,23,30,066,31,24,08,138,14,25,18,073,26*7B
,$GPGSV,4,3,13,27,00,306,,31,34,343,37,32,70,190,37,48,15,071,*7D
,$GPGSV,4,4,13,50,25,298,*4A
,$GLGSV,3,1,10,65,52,147,36,66,31,234,40,72,20,103,26,74,23,143,28*69
,$GLGSV,3,2,10,75,48,080,39,76,22,018,35,81,32,245,40,82,07,201,38*6D
,$GLGSV,3,3,10,87,07,340,26,88,30,307,37*6C
,$GNGLL,3653.49520,S,17454.61119,E,220828.00,A,A*6C
,$GNRMC,220829.00,A,3653.49513,S,17454.61138,E,0.550,62.27,150621,,,A*59
,$GNVTG,62.27,T,,M,0.550,N,1.019,K,A*1B
,$GNGGA,220829.00,3653.49513,S,17454.61138,E,1,12,0.55,25.3,M,28.1,M,,*67
,$GNGSA,A,3,12,23,10,25,24,32,31,21,,,,,1.14,0.55,1.00*1B
,$GNGSA,A,3,82,72,88,65,87,81,76,74,66,,,,1.14,0.55,1.00*11
,$GPGSV,4,1,13,01,13,218,25,08,02,277,,10,61,084,30,12,13,107,26*73
,$GPGSV,4,2,13,21,29,234,32,23,30,066,23,24,08,138,15,25,18,073,25*7F
,$GPGSV,4,3,13,27,00,306,,31,34,343,37,32,70,190,35,48,15,071,*7F
,$GPGSV,4,4,13,50,25,298,*4A
,$GLGSV,3,1,10,65,52,147,39,66,31,234,40,72,20,103,28,74,23,143,28*68
,$GLGSV,3,2,10,75,48,080,26,76,22,018,32,81,32,245,43,82,07,201,35*6A
,$GLGSV,3,3,10,87,07,340,25,88,30,307,39*61
,$GNGLL,3653.49513,S,17454.61138,E,220829.00,A,A*6E
,$GNRMC,220830.00,A,3653.49501,S,17454.61148,E,0.672,43.07,150621,,,A*57
,$GNVTG,43.07,T,,M,0.672,N,1.245,K,A*12
,$GNGGA,220830.00,3653.49501,S,17454.61148,E,1,12,0.55,25.7,M,28.1,M,,*6F
,$GNGSA,A,3,12,23,10,25,24,32,31,21,,,,,1.14,0.55,1.00*1B
,$GNGSA,A,3,82,72,88,65,87,81,76,74,66,,,,1.14,0.55,1.00*11
,$GPGSV,4,1,13,01,13,218,26,08,02,277,,10,61,084,34,12,13,107,25*77
,$GPGSV,4,2,13,21,29,234,38,23,30,066,23,24,08,138,19,25,18,073,31*7C
,$GPGSV,4,3,13,27,00,306,,31,34,343,28,32,70,190,42,48,15,071,*71
,$GPGSV,4,4,13,50,25,298,*4A
,$GLGSV,3,1,10,65,52,147,40,66,31,234,42,72,20,103,32,74,23,143,27*60
,$GLGSV,3,2,10,75,48,080,28,76,22,018,36,81,32,245,44,82,07,201,24*67
,$GLGSV,3,3,10,87,07,340,30,88,30,307,40*6B
,$GNGLL,3653.49501,S,17454.61148,E,220830.00,A,A*62
,$GNRMC,220831.00,A,3653.49489,S,17454.61158,E,0.640,34.11,150621,,,A*50
,$GNVTG,34.11,T,,M,0.640,N,1.186,K,A*18
,$GNGGA,220831.00,3653.49489,S,17454.61158,E,1,12,0.55,25.6,M,28.1,M,,*6F
,$GNGSA,A,3,12,23,10,25,24,32,31,21,,,,,1.14,0.55,1.00*1B
,$GNGSA,A,3,82,72,88,65,87,81,76,74,66,,,,1.14,0.55,1.00*11
,$GPGSV,4,1,13,01,13,218,32,08,02,277,,10,61,084,34,12,13,107,24*73
,$GPGSV,4,2,13,21,29,234,39,23,30,066,28,24,08,138,18,25,18,073,31*77
,$GPGSV,4,3,13,27,00,306,,31,34,343,41,32,70,190,35,48,15,071,*7E
,$GPGSV,4,4,13,50,25,298,*4A
,$GLGSV,3,1,10,65,52,147,26,66,31,234,43,72,20,103,32,74,23,143,27*61
,$GLGSV,3,2,10,75,48,080,27,76,22,018,36,81,32,245,41,82,07,201,34*6C
,$GLGSV,3,3,10,87,07,340,21,88,30,307,42*69
,$GNGLL,3653.49489,S,17454.61158,E,220831.00,A,A*63
,$GNRMC,220832.00,A,3653.49473,S,17454.61171,E,0.659,27.92,150621,,,A*5C
,$GNVTG,27.92,T,,M,0.659,N,1.221,K,A*17
,$GNGGA,220832.00,3653.49473,S,17454.61171,E,1,12,0.56,25.5,M,28.1,M,,*62
,$GNGSA,A,3,12,23,10,25,24,32,31,21,,,,,1.20,0.56,1.06*19
,$GNGSA,A,3,82,72,88,65,87,81,76,74,66,,,,1.20,0.56,1.06*13
,$GPGSV,4,1,13,01,13,218,31,08,02,277,,10,61,084,31,12,13,107,25*74
,$GPGSV,4,2,13,21,29,234,40,23,30,066,32,24,08,138,18,25,18,073,25*77
,$GPGSV,4,3,13,27,00,306,,31,34,343,40,32,70,190,32,48,15,071,*78
,$GPGSV,4,4,13,50,25,298,*4A
,$GLGSV,3,1,10,65,52,147,25,66,31,234,43,72,20,103,27,74,23,143,27*66
,$GLGSV,3,2,10,75,48,080,26,76,22,018,30,81,32,245,41,82,07,201,35*6A
,$GLGSV,3,3,10,87,07,340,22,88,30,307,38*67
,$GNGLL,3653.49473,S,17454.61171,E,220832.00,A,A*6E
,$GNRMC,220833.00,A,3653.49461,S,17454.61180,E,0.614,21.61,150621,,,A*53
,$GNVTG,21.61,T,,M,0.614,N,1.137,K,A*10
,$GNGGA,220833.00,3653.49461,S,17454.61180,E,1,12,0.56,25.6,M,28.1,M,,*6D
,$GNGSA,A,3,12,23,10,25,24,32,31,21,,,,,1.20,0.56,1.06*19
,$GNGSA,A,3,82,72,88,65,87,81,76,74,66,,,,1.20,0.56,1.06*13
,$GPGSV,4,1,13,01,13,218,23,08,02,277,,10,61,084,34,12,13,107,24*73
,$GPGSV,4,2,13,21,29,234,41,23,30,066,27,24,08,138,19,25,18,073,34*73
,$GPGSV,4,3,13,27,00,306,,31,34,343,36,32,70,190,39,48,15,071,*72
,$GPGSV,4,4,13,50,25,298,*4A
,$GLGSV,3,1,10,65,52,147,37,66,31,234,42,72,20,103,34,74,23,143,26*67
,$GLGSV,3,2,10,75,48,080,32,76,22,018,30,81,32,245,39,82,07,201,38*6D
,$GLGSV,3,3,10,87,07,340,24,88,30,307,41*6F
,$GNGLL,3653.49461,S,17454.61180,E,220833.00,A,A*62
,$GNRMC,220834.00,A,3653.49451,S,17454.61184,E,0.649,6.55,150621,,,A*69
,$GNVTG,6.55,T,,M,0.649,N,1.201,K,A*2C
,$GNGGA,220834.00,3653.49451,S,17454.61184,E,1,12,0.56,25.3,M,28.1,M,,*68
,$GNGSA,A,3,12,23,10,25,24,32,31,21,,,,,1.20,0.56,1.06*19
,$GNGSA,A,3,82,72,88,65,87,81,76,74,66,,,,1.20,0.56,1.06*13
,$GPGSV,4,1,13,01,13,218,23,08,02,277,18,10,61,084,36,12,13,107,25*79
,$GPGSV,4,2,13,21,29,234,38,23,30,066,25,24,08,138,17,25,18,073,34*71
,$GPGSV,4,3,13,27,00,306,,31,34,343,30,32,70,190,38,48,15,071,*75
,$GPGSV,4,4,13,50,25,298,*4A
,$GLGSV,3,1,10,65,52,147,37,66,31,234,41,72,20,103,28,74,23,143,31*6F
,$GLGSV,3,2,10,75,48,080,25,76,22,018,33,81,32,245,39,82,07,201,38*68
,$GLGSV,3,3,10,87,06,341,34,88,30,307,32*6A
,$GNGLL,3653.49451,S,17454.61184,E,220834.00,A,A*62
,$GNRMC,220835.00,A,3653.49434,S,17454.61186,E,0.586,0.52,150621,,,A*68
,$GNVTG,0.52,T,,M,0.586,N,1.086,K,A*20
,$GNGGA,220835.00,3653.49434,S,17454.61186,E,1,12,0.56,25.4,M,28.1,M,,*6F
,$GNGSA,A,3,12,23,10,25,24,32,31,21,,,,,1.20,0.56,1.06*19
,$GNGSA,A,3,82,72,88,65,87,81,76,74,66,,,,1.20,0.56,1.06*13
,$GPGSV,4,1,13,01,13,218,24,08,02,277,18,10,61,084,36,12,13,107,25*7E
,$GPGSV,4,2,13,21,29,234,39,23,30,066,32,24,08,138,19,25,18,073,35*79
,$GPGSV,4,3,13,27,00,306,,31,34,343,29,32,70,190,42,48,15,071,*70
,$GPGSV,4,4,13,50,25,298,*4A
,$GLGSV,3,1,10,65,52,147,36,66,31,234,39,72,20,103,28,74,23,143,32*62
,$GLGSV,3,2,10,75,48,080,26,76,22,018,29,81,32,245,40,82,07,201,31*67
,$GLGSV,3,3,10,87,06,341,30,88,29,308,41*6D
,$GNGLL,3653.49434,S,17454.61186,E,220835.00,A,A*62
,$GNRMC,220836.00,A,3653.49421,S,17454.61189,E,0.498,353.12,150621,,,A*6F
,$GNVTG,353.12,T,,M,0.498,N,0.923,K,A*28
,$GNGGA,220836.00,3653.49421,S,17454.61189,E,1,12,0.56,25.5,M,28.1,M,,*66
,$GNGSA,A,3,12,23,10,25,24,32,31,21,,,,,1.20,0.56,1.06*19
,$GNGSA,A,3,82,72,88,65,87,81,76,74,66,,,,1.20,0.56,1.06*13
,$GPGSV,4,1,13,01,13,218,30,08,02,277,17,10,61,084,40,12,13,107,25*75
,$GPGSV,4,2,13,21,29,234,39,23,30,066,37,24,08,138,20,25,18,073,26*74
,$GPGSV,4,3,13,27,00,306,,31,34,343,23,32,70,190,45,48,15,071,*7D
,$GPGSV,4,4,13,50,25,298,*4A
,$GLGSV,3,1,10,65,52,147,40,66,31,234,40,72,20,103,26,74,23,143,32*63
,$GLGSV,3,2,10,75,48,080,37,76,22,018,38,81,32,245,42,82,07,201,30*64
,$GLGSV,3,3,10,87,06,341,25,88,29,308,29*67
,$GNGLL,3653.49421,S,17454.61189,E,220836.00,A,A*6A
,$GNRMC,220837.00,A,3653.49406,S,17454.61188,E,0.479,342.97,150621,,,A*68
,$GNVTG,342.97,T,,M,0.479,N,0.888,K,A*2A
,$GNGGA,220837.00,3653.49406,S,17454.61188,E,1,12,0.56,25.4,M,28.1,M,,*62
,$GNGSA,A,3,12,23,10,25,24,32,31,21,,,,,1.20,0.56,1.06*19
,$GNGSA,A,3,82,72,88,65,87,81,76,74,66,,,,1.20,0.56,1.06*13
,$GPGSV,4,1,13,01,13,218,24,08,02,277,14,10,61,084,33,12,13,107,31*72
,$GPGSV,4,2,13,21,29,234,35,23,30,066,34,24,08,138,19,25,18,073,31*77
,$GPGSV,4,3,13,27,00,306,,31,34,343,25,32,70,190,43,48,15,071,*7D
,$GPGSV,4,4,13,50,25,298,*4A
,$GLGSV,3,1,10,65,52,147,35,66,31,234,39,72,20,103,34,74,23,143,28*67
,$GLGSV,3,2,10,75,48,080,41,76,22,018,36,81,32,245,42,82,07,201,30*6B
,$GLGSV,3,3,10,87,06,341,25,88,29,308,36*69
,$GNGLL,3653.49406,S,17454.61188,E,220837.00,A,A*6F
,$GNRMC,220838.00,A,3653.49388,S,17454.61186,E,0.794,333.19,150621,,,A*68
,$GNVTG,333.19,T,,M,0.794,N,1.471,K,A*21
,$GNGGA,220838.00,3653.49388,S,17454.61186,E,1,12,0.56,25.4,M,28.1,M,,*62
,$GNGSA,A,3,12,23,10,25,24,32,31,21,,,,,1.20,0.56,1.06*19
,$GNGSA,A,3,82,72,88,65,87,81,76,74,66,,,,1.20,0.56,1.06*13
,$GPGSV,4,1,13,01,13,218,25,08,02,277,12,10,61,084,41,12,13,107,35*74
,$GPGSV,4,2,13,21,29,234,37,23,30,066,37,24,08,138,19,25,18,073,30*77
,$GPGSV,4,3,13,27,00,306,,31,34,343,35,32,70,190,46,48,15,071,*79
,$GPGSV,4,4,13,50,25,298,*4A
,$GLGSV,3,1,10,65,52,147,34,66,31,234,38,72,20,103,24,74,23,143,26*68
,$GLGSV,3,2,10,75,48,080,45,76,22,018,30,81,32,245,40,82,07,201,29*63
,$GLGSV,3,3,10,87,06,341,23,88,29,308,34*6D
,$GNGLL,3653.49388,S,17454.61186,E,220838.00,A,A*6F
,$GNRMC,220839.00,A,3653.49375,S,17454.61181,E,0.642,326.93,150621,,,A*60
,$GNVTG,326.93,T,,M,0.642,N,1.189,K,A*2F
,$GNGGA,220839.00,3653.49375,S,17454.61181,E,1,12,0.56,25.1,M,28.1,M,,*63
,$GNGSA,A,3,12,23,10,25,24,32,31,21,,,,,1.20,0.56,1.06*19
,$GNGSA,A,3,82,72,88,65,87,81,76,74,66,,,,1.20,0.56,1.06*13
,$GPGSV,4,1,13,01,13,218,25,08,02,277,12,10,61,084,41,12,13,107,35*74
,$GPGSV,4,2,13,21,29,234,36,23,30,066,39,24,08,138,18,25,18,073,23*7B
,$GPGSV,4,3,13,27,00,306,,31,34,343,29,32,70,190,45,48,15,071,*77
,$GPGSV,4,4,13,50,25,298,*4A
,$GLGSV,3,1,10,65,52,147,39,66,31,234,39,72,20,103,34,74,23,143,25*66
,$GLGSV,3,2,10,75,48,080,43,76,22,018,34,81,32,245,40,82,07,201,31*68
,$GLGSV,3,3,10,87,06,341,24,88,29,308,30*6E
,$GNGLL,3653.49375,S,17454.61181,E,220839.00,A,A*6B
,$GNRMC,220840.00,A,3653.49364,S,17454.61170,E,0.590,318.97,150621,,,A*65
,$GNVTG,318.97,T,,M,0.590,N,1.093,K,A*20
,$GNGGA,220840.00,3653.49364,S,17454.61170,E,1,12,0.56,25.2,M,28.1,M,,*60
,$GNGSA,A,3,12,23,10,25,24,32,31,21,,,,,1.20,0.56,1.06*19
,$GNGSA,A,3,82,72,88,65,87,81,76,74,66,,,,1.20,0.56,1.06*13
,$GPGSV,4,1,13,01,13,218,22,08,02,277,11,10,61,084,44,12,13,107,32*72
,$GPGSV,4,2,13,21,29,234,29,23,30,066,35,24,08,138,16,25,18,073,31*74
,$GPGSV,4,3,13,27,00,306,,31,34,343,31,32,70,190,45,48,15,071,*7E
,$GPGSV,4,4,13,50,25,298,*4A
,$GLGSV,3,1,10,65,52,147,39,66,31,234,37,72,20,103,35,74,23,143,27*6B
,$GLGSV,3,2,10,75,48,080,44,76,22,018,30,81,32,245,37,82,07,201,30*6A
,$GLGSV,3,3,10,87,06,341,24,88,29,308,30*6E
,$GNGLL,3653.49364,S,17454.61170,E,220840.00,A,A*6B
,$GNRMC,220841.00,A,3653.49355,S,17454.61157,E,0.599,306.98,150621,,,A*6A
,$GNVTG,306.98,T,,M,0.599,N,1.109,K,A*2B
,$GNGGA,220841.00,3653.49355,S,17454.61157,E,1,12,0.56,25.3,M,28.1,M,,*67
,$GNGSA,A,3,12,23,10,25,24,32,31,21,,,,,1.20,0.56,1.06*19
,$GNGSA,A,3,82,72,88,65,87,81,76,74,66,,,,1.20,0.56,1.06*13
,$GPGSV,4,1,13,01,13,218,22,08,02,277,12,10,61,084,41,12,13,107,31*77
,$GPGSV,4,2,13,21,29,234,33,23,30,066,41,24,08,138,14,25,18,073,35*7A
,$GPGSV,4,3,13,27,00,306,,31,34,343,25,32,70,190,42,48,15,071,*7C
,$GPGSV,4,4,13,50,25,298,*4A
,$GLGSV,3,1,10,65,52,147,39,66,31,234,35,72,20,103,35,74,23,143,26*68
,$GLGSV,3,2,10,75,48,080,45,76,22,018,36,81,32,245,32,82,07,201,34*6C
,$GLGSV,3,3,10,87,06,341,24,88,29,308,33*6D
,$GNGLL,3653.49355,S,17454.61157,E,220841.00,A,A*6D
,$GNRMC,220842.00,A,3653.49345,S,17454.61141,E,0.632,300.74,150621,,,A*69
,$GNVTG,300.74,T,,M,0.632,N,1.170,K,A*23
,$GNGGA,220842.00,3653.49345,S,17454.61141,E,1,12,0.56,25.4,M,28.1,M,,*65
,$GNGSA,A,3,12,23,10,25,24,32,31,21,,,,,1.20,0.56,1.06*19
,$GNGSA,A,3,82,72,88,65,87,81,76,74,66,,,,1.20,0.56,1.06*13
,$GPGSV,4,1,13,01,13,218,22,08,02,277,12,10,61,084,41,12,13,107,25*72
,$GPGSV,4,2,13,21,29,234,30,23,30,066,41,24,08,138,14,25,18,073,38*74
,$GPGSV,4,3,13,27,00,306,,31,34,343,34,32,70,190,41,48,15,071,*7F
,$GPGSV,4,4,13,50,25,298,*4A
,$GLGSV,3,1,10,65,52,147,41,66,31,234,35,72,20,103,33,74,23,143,25*62
,$GLGSV,3,2,10,75,48,080,45,76,22,018,33,81,32,245,33,82,07,201,25*68
,$GLGSV,3,3,10,87,06,341,26,88,29,308,29*64
,$GNGLL,3653.49345,S,17454.61141,E,220842.00,A,A*68
,$GNRMC,220843.00,A,3653.49342,S,17454.61125,E,0.658,288.39,150621,,,A*69
,$GNVTG,288.39,T,,M,0.658,N,1.219,K,A*2B
,$GNGGA,220843.00,3653.49342,S,17454.61125,E,1,12,0.56,25.2,M,28.1,M,,*67
,$GNGSA,A,3,12,23,10,25,24,32,31,21,,,,,1.20,0.56,1.06*19
,$GNGSA,A,3,82,72,88,65,87,81,76,74,66,,,,1.20,0.56,1.06*13
,$GPGSV,4,1,13,01,13,218,24,08,02,278,14,10,61,084,45,12,13,107,34*79
,$GPGSV,4,2,13,21,29,234,24,23,30,066,40,24,08,138,14,25,18,073,28*71
,$GPGSV,4,3,13,27,00,306,,31,34,343,29,32,70,190,43,48,15,071,*71
,$GPGSV,4,4,13,50,25,298,*4A
,$GLGSV,3,1,10,65,52,147,39,66,31,234,28,72,20,103,33,74,23,143,32*67
,$GLGSV,3,2,10,75,48,080,47,76,22,018,29,81,32,245,33,82,07,201,26*62
,$GLGSV,3,3,10,87,06,341,26,88,29,308,33*6F
,$GNGLL,3653.49342,S,17454.61125,E,220843.00,A,A*6C
,$GNRMC,220844.00,A,3653.49340,S,17454.61110,E,0.591,275.51,150621,,,A*60
,$GNVTG,275.51,T,,M,0.591,N,1.094,K,A*26
,$GNGGA,220844.00,3653.49340,S,17454.61110,E,1,12,0.55,25.3,M,28.1,M,,*66
,$GNGSA,A,3,12,23,10,25,24,32,31,21,,,,,1.14,0.55,1.00*1B
,$GNGSA,A,3,82,72,88,65,87,81,76,74,66,,,,1.14,0.55,1.00*11
,$GPGSV,4,1,13,01,13,218,23,08,02,278,14,10,61,084,43,12,13,107,35*79
,$GPGSV,4,2,13,21,29,234,24,23,30,066,41,24,08,138,16,25,18,073,30*7B
,$GPGSV,4,3,13,27,00,306,,31,34,343,29,32,70,190,42,48,15,071,*70
,$GPGSV,4,4,13,50,25,298,*4A
,$GLGSV,3,1,10,65,52,147,35,66,31,234,15,72,20,103,33,74,23,143,31*66
,$GLGSV,3,2,10,75,48,080,45,76,22,018,29,81,32,245,32,82,07,201,25*62
,$GLGSV,3,3,10,87,06,341,32,88,29,308,36*6F
,$GNGLL,3653.49340,S,17454.61110,E,220844.00,A,A*6F
,$GNRMC,220845.00,A,3653.49339,S,17454.61096,E,0.489,,150621,,,A*72
,$GNVTG,,T,,M,0.489,N,0.905,K,A*34
,$GNGGA,220845.00,3653.49339,S,17454.61096,E,1,12,0.57,25.3,M,28.1,M,,*64
,$GNGSA,A,3,12,23,10,25,24,32,31,21,,,,,1.15,0.57,1.00*18
,$GNGSA,A,3,82,72,88,65,87,81,76,74,66,,,,1.15,0.57,1.00*12
,$GPGSV,4,1,13,01,13,218,22,08,02,278,15,10,61,083,43,12,13,107,35*7E
,$GPGSV,4,2,13,21,29,234,23,23,30,066,45,24,08,138,16,25,18,073,33*7B
,$GPGSV,4,3,13,27,00,306,,31,34,343,29,32,70,190,44,48,15,071,*76
,$GPGSV,4,4,13,50,25,298,*4A
,$GLGSV,3,1,10,65,52,147,35,66,31,234,18,72,20,103,34,74,23,143,34*69
,$GLGSV,3,2,10,75,48,080,43,76,22,018,24,81,32,245,25,82,07,201,22*68
,$GLGSV,3,3,10,87,06,341,26,88,29,308,35*69
,$GNGLL,3653.49339,S,17454.61096,E,220845.00,A,A*6F
,$GNRMC,220846.00,A,3653.49343,S,17454.61088,E,0.402,,150621,,,A*70
,$GNVTG,,T,,M,0.402,N,0.744,K,A*3C
,$GNGGA,220846.00,3653.49343,S,17454.61088,E,1,12,0.55,25.2,M,28.1,M,,*66
,$GNGSA,A,3,12,23,10,25,24,32,31,21,,,,,1.14,0.55,1.00*1B
,$GNGSA,A,3,82,72,88,65,87,81,76,74,66,,,,1.14,0.55,1.00*11
,$GPGSV,4,1,13,01,13,218,20,08,02,278,15,10,61,083,45,12,13,108,35*75
,$GPGSV,4,2,13,21,29,234,20,23,30,066,44,24,08,138,15,25,18,073,37*7E
,$GPGSV,4,3,13,27,00,306,,31,34,343,23,32,70,190,44,48,15,071,*7C
,$GPGSV,4,4,13,50,25,298,*4A
,$GLGSV,3,1,10,65,52,147,32,66,31,234,30,72,20,103,33,74,23,143,39*6E
,$GLGSV,3,2,10,75,48,080,43,76,22,018,31,81,32,245,25,82,07,201,22*6C
,$GLGSV,3,3,10,87,06,341,28,88,29,308,32*60
,$GNGLL,3653.49343,S,17454.61088,E,220846.00,A,A*6E
,$GNRMC,220847.00,A,3653.49349,S,17454.61078,E,0.477,255.76,150621,,,A*6B
,$GNVTG,255.76,T,,M,0.477,N,0.884,K,A*20
,$GNGGA,220847.00,3653.49349,S,17454.61078,E,1,12,0.55,25.3,M,28.1,M,,*63
,$GNGSA,A,3,12,23,10,25,24,32,31,21,,,,,1.14,0.55,1.00*1B
,$GNGSA,A,3,82,72,88,65,87,81,76,74,66,,,,1.14,0.55,1.00*11
,$GPGSV,4,1,13,01,13,218,19,08,02,278,13,10,61,083,44,12,13,108,31*7C
,$GPGSV,4,2,13,21,29,234,21,23,30,066,46,24,08,138,13,25,18,073,38*74
,$GPGSV,4,3,13,27,00,306,,31,34,343,35,32,70,190,44,48,15,071,*7B
,$GPGSV,4,4,13,50,25,298,*4A
,$GLGSV,3,1,10,65,52,147,38,66,31,234,22,72,20,103,31,74,23,143,36*6A
,$GLGSV,3,2,10,75,48,080,45,76,22,018,35,81,32,245,26,82,07,201,22*6D
,$GLGSV,3,3,10,87,06,341,32,88,29,308,28*60
,$GNGLL,3653.49349,S,17454.61078,E,220847.00,A,A*6A
,$GNRMC,220848.00,A,3653.49358,S,17454.61066,E,0.450,245.85,150621,,,A*63
,$GNVTG,245.85,T,,M,0.450,N,0.834,K,A*23
,$GNGGA,220848.00,3653.49358,S,17454.61066,E,1,12,0.55,25.2,M,28.1,M,,*62
,$GNGSA,A,3,12,23,10,25,24,32,31,21,,,,,1.14,0.55,1.00*1B
,$GNGSA,A,3,82,72,88,65,87,81,76,74,66,,,,1.14,0.55,1.00*11
,$GPGSV,4,1,13,01,13,218,15,08,02,278,12,10,61,083,42,12,13,108,26*71
,$GPGSV,4,2,13,21,29,234,21,23,30,066,45,24,08,138,12,25,18,073,40*79
,$GPGSV,4,3,13,27,00,306,,31,34,343,37,32,70,190,44,48,15,071,*79
,$GPGSV,4,4,13,50,25,298,*4A
,$GLGSV,3,1,10,65,52,147,36,66,31,234,23,72,20,103,32,74,23,143,38*68
,$GLGSV,3,2,10,75,48,080,44,76,22,018,36,81,32,245,31,82,07,201,23*68
,$GLGSV,3,3,10,87,06,341,29,88,29,308,28*6A
,$GNGLL,3653.49358,S,17454.61066,E,220848.00,A,A*6A
,$GNRMC,220849.00,A,3653.49364,S,17454.61054,E,0.408,,150621,,,A*71
,$GNVTG,,T,,M,0.408,N,0.756,K,A*35
,$GNGGA,220849.00,3653.49364,S,17454.61054,E,1,12,0.55,25.4,M,28.1,M,,*6B
,$GNGSA,A,3,12,23,10,25,24,32,31,21,,,,,1.14,0.55,1.00*1B
,$GNGSA,A,3,82,72,88,65,87,81,76,74,66,,,,1.14,0.55,1.00*11
,$GPGSV,4,1,14,01,13,218,,08,02,278,13,10,61,083,42,12,13,108,26*73
,$GPGSV,4,2,14,21,29,234,23,23,30,066,45,24,08,138,13,25,18,073,39*73
,$GPGSV,4,3,14,27,00,306,,31,34,343,38,32,70,190,45,46,,,40*48
,$GPGSV,4,4,14,48,15,071,,50,25,298,*73
,$GLGSV,3,1,10,65,52,147,37,66,31,234,23,72,20,103,33,74,23,143,36*66
,$GLGSV,3,2,10,75,48,080,45,76,22,018,33,81,32,245,25,82,07,201,21*6B
,$GLGSV,3,3,10,87,06,341,28,88,29,308,28*6B
,$GNGLL,3653.49364,S,17454.61054,E,220849.00,A,A*65
,$GNRMC,220850.00,A,3653.49365,S,17454.61033,E,0.540,227.39,150621,,,A*67
,$GNVTG,227.39,T,,M,0.540,N,0.999,K,A*26
,$GNGGA,220850.00,3653.49365,S,17454.61033,E,1,12,0.55,25.4,M,28.1,M,,*63
,$GNGSA,A,3,12,23,10,25,24,32,31,21,,,,,1.14,0.55,1.00*1B
,$GNGSA,A,3,82,72,88,65,87,81,76,74,66,,,,1.14,0.55,1.00*11
,$GPGSV,4,1,14,01,13,218,,08,02,278,17,10,61,083,42,12,13,108,27*76
,$GPGSV,4,2,14,21,29,234,22,23,30,066,40,24,08,138,12,25,18,073,38*77
,$GPGSV,4,3,14,27,00,306,,31,34,343,40,32,70,190,45,46,,,42*45
,$GPGSV,4,4,14,48,15,071,,50,25,298,31*71
,$GLGSV,3,1,10,65,52,147,37,66,31,234,25,72,20,103,32,74,23,143,36*61
,$GLGSV,3,2,10,75,48,080,39,76,22,018,29,81,32,245,25,82,07,201,20*6A
,$GLGSV,3,3,10,87,06,341,29,88,29,308,35*66
,$GNGLL,3653.49365,S,17454.61033,E,220850.00,A,A*6D
,$GNRMC,220851.00,A,3653.49375,S,17454.61023,E,0.425,219.61,150621,,,A*64
,$GNVTG,219.61,T,,M,0.425,N,0.788,K,A*2A
,$GNGGA,220851.00,3653.49375,S,17454.61023,E,1,12,0.55,25.3,M,28.1,M,,*65
,$GNGSA,A,3,12,23,10,25,24,32,31,21,,,,,1.14,0.55,1.00*1B
,$GNGSA,A,3,82,72,88,65,87,81,76,74,66,,,,1.14,0.55,1.00*11
,$GPGSV,4,1,14,01,13,218,,08,02,278,19,10,61,083,44,12,13,108,25*7C
,$GPGSV,4,2,14,21,29,234,23,23,30,066,40,24,08,138,10,25,18,073,38*74
,$GPGSV,4,3,14,27,00,306,,31,34,343,45,32,70,190,45,46,,,40*42
,$GPGSV,4,4,14,48,15,071,,50,25,298,31*71
,$GLGSV,3,1,10,65,52,147,37,66,31,234,25,72,20,103,28,74,23,143,33*6F
,$GLGSV,3,2,10,75,48,080,42,76,22,018,28,81,32,245,23,82,07,201,21*60
,$GLGSV,3,3,10,87,06,341,28,88,29,308,33*61
,$GNGLL,3653.49375,S,17454.61023,E,220851.00,A,A*6C
,$GNRMC,220852.00,A,3653.49384,S,17454.61011,E,0.592,201.46,150621,,,A*69
,$GNVTG,201.46,T,,M,0.592,N,1.097,K,A*23
,$GNGGA,220852.00,3653.49384,S,17454.61011,E,1,12,0.57,25.2,M,28.1,M,,*6A
,$GNGSA,A,3,12,23,10,25,24,32,31,21,,,,,1.15,0.57,1.00*18
,$GNGSA,A,3,82,72,88,65,87,81,76,74,66,,,,1.15,0.57,1.00*12
,$GPGSV,4,1,14,01,13,218,,08,02,278,17,10,61,083,41,12,13,108,24*76
,$GPGSV,4,2,14,21,29,234,22,23,30,066,42,24,08,138,11,25,18,073,39*77
,$GPGSV,4,3,14,27,00,306,,31,34,343,45,32,70,190,46,46,,,39*4F
,$GPGSV,4,4,14,48,15,071,,50,25,298,33*73
,$GLGSV,3,1,10,65,52,147,37,66,31,234,24,72,20,103,34,74,23,143,34*64
,$GLGSV,3,2,10,75,48,080,42,76,22,018,39,81,32,245,31,82,07,201,20*62
,$GLGSV,3,3,10,87,06,341,24,88,29,308,34*6A
,$GNGLL,3653.49384,S,17454.61011,E,220852.00,A,A*60
,$GNRMC,220853.00,A,3653.49401,S,17454.61005,E,0.719,196.05,150621,,,A*6C
,$GNVTG,196.05,T,,M,0.719,N,1.331,K,A*27
,$GNGGA,220853.00,3653.49401,S,17454.61005,E,1,12,0.55,25.1,M,28.1,M,,*65
,$GNGSA,A,3,12,23,10,25,24,32,31,21,,,,,1.14,0.55,1.00*1B
,$GNGSA,A,3,82,72,88,65,87,81,76,74,66,,,,1.14,0.55,1.00*11
,$GPGSV,4,1,14,01,13,218,,08,02,278,15,10,61,083,44,12,13,108,23*76
,$GPGSV,4,2,14,21,29,234,25,23,30,066,42,24,08,138,12,25,18,073,34*7E
,$GPGSV,4,3,14,27,00,306,,31,34,343,46,32,70,190,43,46,,,34*44
,$GPGSV,4,4,14,48,15,071,,50,25,298,28*79
,$GLGSV,3,1,10,65,52,147,42,66,31,234,26,72,20,103,29,74,23,143,31*6D
,$GLGSV,3,2,10,75,48,080,41,76,22,018,39,81,32,245,23,82,07,201,22*60
,$GLGSV,3,3,10,87,06,341,30,88,29,308,34*6F
,$GNGLL,3653.49401,S,17454.61005,E,220853.00,A,A*6E
,$GNRMC,220854.00,A,3653.49419,S,17454.61005,E,0.690,190.38,150621,,,A*6A
,$GNVTG,190.38,T,,M,0.690,N,1.278,K,A*23
,$GNGGA,220854.00,3653.49419,S,17454.61005,E,1,12,0.55,25.0,M,28.1,M,,*6A
,$GNGSA,A,3,12,23,10,25,24,32,31,21,,,,,1.14,0.55,1.00*1B
,$GNGSA,A,3,82,72,88,65,87,81,76,74,66,,,,1.14,0.55,1.00*11
,$GPGSV,4,1,14,01,13,218,,08,02,278,13,10,61,083,42,12,13,108,24*71
,$GPGSV,4,2,14,21,29,234,25,23,29,065,42,24,08,138,13,25,18,073,35*75
,$GPGSV,4,3,14,27,00,306,,31,34,343,47,32,70,190,45,46,,,35*42
,$GPGSV,4,4,14,48,15,071,,50,25,298,*73
,$GLGSV,3,1,10,65,52,147,42,66,31,234,24,72,20,103,25,74,23,143,31*63
,$GLGSV,3,2,10,75,48,080,41,76,22,018,33,81,32,245,25,82,07,201,21*6F
,$GLGSV,3,3,10,87,06,341,30,88,29,308,29*63
,$GNGLL,3653.49419,S,17454.61005,E,220854.00,A,A*60
,$GNRMC,220855.00,A,3653.49434,S,17454.61010,E,0.610,181.99,150621,,,A*63
,$GNVTG,181.99,T,,M,0.610,N,1.130,K,A*2F
,$GNGGA,220855.00,3653.49434,S,17454.61010,E,1,12,0.55,25.0,M,28.1,M,,*60
,$GNGSA,A,3,12,23,10,25,24,32,31,21,,,,,1.14,0.55,1.00*1B
,$GNGSA,A,3,82,72,88,65,87,81,76,74,66,,,,1.14,0.55,1.00*11
,$GPGSV,4,1,13,01,13,218,,08,02,278,13,10,61,083,39,12,13,108,23*7D
,$GPGSV,4,2,13,21,29,234,25,23,29,065,40,24,08,138,13,25,18,073,34*71
,$GPGSV,4,3,13,27,00,306,,31,34,343,48,32,70,190,42,48,15,071,*77
,$GPGSV,4,4,13,50,25,298,*4A
,$GLGSV,3,1,10,65,52,147,40,66,31,234,24,72,20,103,32,74,23,143,32*64
,$GLGSV,3,2,10,75,48,080,42,76,22,018,28,81,32,245,24,82,07,201,22*64
,$GLGSV,3,3,10,87,06,341,24,88,29,308,23*6C
,$GNGLL,3653.49434,S,17454.61010,E,220855.00,A,A*6A
,$GNRMC,220856.00,A,3653.49452,S,17454.61012,E,0.693,182.18,150621,,,A*63
,$GNVTG,182.18,T,,M,0.693,N,1.284,K,A*22
,$GNGGA,220856.00,3653.49452,S,17454.61012,E,1,12,0.55,24.8,M,28.1,M,,*68
,$GNGSA,A,3,12,23,10,25,24,32,31,21,,,,,1.14,0.55,1.00*1B
,$GNGSA,A,3,82,72,88,65,87,81,76,74,66,,,,1.14,0.55,1.00*11
,$GPGSV,4,1,13,01,13,218,,08,02,278,13,10,61,083,42,12,13,108,22*70
,$GPGSV,4,2,13,21,29,234,24,23,29,065,41,24,08,138,11,25,18,073,24*72
,$GPGSV,4,3,13,27,00,306,,31,34,343,45,32,70,190,41,48,15,071,*79
,$GPGSV,4,4,13,50,25,298,*4A
,$GLGSV,3,1,10,65,52,147,40,66,31,234,23,72,20,103,17,74,23,143,31*67
,$GLGSV,3,2,10,75,48,080,35,76,22,018,33,81,32,245,23,82,07,201,20*6B
,$GLGSV,3,3,10,87,06,341,25,88,29,308,22*6C
,$GNGLL,3653.49452,S,17454.61012,E,220856.00,A,A*6B
,$GNRMC,220857.00,A,3653.49470,S,17454.61013,E,0.618,,150621,,,A*7C
,$GNVTG,,T,,M,0.618,N,1.145,K,A*33
,$GNGGA,220857.00,3653.49470,S,17454.61013,E,1,12,0.56,24.8,M,28.1,M,,*6B
,$GNGSA,A,3,12,23,10,25,32,31,21,,,,,,1.20,0.56,1.06*1F
,$GNGSA,A,3,82,72,88,65,87,81,76,74,66,,,,1.20,0.56,1.06*13
,$GPGSV,4,1,13,01,13,218,,08,02,278,12,10,61,083,41,12,13,108,21*71
,$GPGSV,4,2,13,21,29,234,24,23,29,065,31,24,08,138,05,25,18,073,31*74
,$GPGSV,4,3,13,27,00,306,,31,34,343,44,32,70,190,37,48,15,071,*79
,$GPGSV,4,4,13,50,25,298,*4A
,$GLGSV,3,1,10,65,52,147,41,66,31,234,22,72,20,103,27,74,23,143,27*63
,$GLGSV,3,2,10,75,48,080,39,76,22,018,26,81,32,245,24,82,07,201,19*6E
,$GLGSV,3,3,10,87,06,341,23,88,29,308,21*69
,$GNGLL,3653.49470,S,17454.61013,E,220857.00,A,A*6B
,$GNRMC,220858.00,A,3653.49483,S,17454.61017,E,0.597,,150621,,,A*7F
,$GNVTG,,T,,M,0.597,N,1.107,K,A*31
,$GNGGA,220858.00,3653.49483,S,17454.61017,E,1,12,0.56,25.0,M,28.1,M,,*65
,$GNGSA,A,3,12,23,10,25,32,31,21,,,,,,1.20,0.56,1.06*1F
,$GNGSA,A,3,82,72,88,65,87,81,76,74,66,,,,1.20,0.56,1.06*13
,$GPGSV,3,1,12,01,13,218,,08,02,278,14,10,61,083,42,12,13,108,21*72
,$GPGSV,3,2,12,21,29,234,22,23,29,065,25,24,08,138,05,25,18,073,31*71
,$GPGSV,3,3,12,31,34,343,43,32,70,190,39,48,15,071,,50,25,298,*77
,$GLGSV,3,1,10,65,52,147,39,66,31,234,21,72,20,103,27,74,23,143,26*6E
,$GLGSV,3,2,10,75,48,080,39,76,22,018,24,81,32,245,23,82,07,201,18*6A
,$GLGSV,3,3,10,87,06,341,23,88,29,308,19*62
,$GNGLL,3653.49483,S,17454.61017,E,220858.00,A,A*6C
,$GNRMC,220859.00,A,3653.49496,S,17454.61027,E,0.504,,150621,,,A*73
,$GNVTG,,T,,M,0.504,N,0.933,K,A*35
,$GNGGA,220859.00,3653.49496,S,17454.61027,E,1,12,0.56,25.0,M,28.1,M,,*63
,$GNGSA,A,3,12,23,10,25,24,32,31,21,,,,,1.20,0.56,1.06*19
,$GNGSA,A,3,82,72,88,65,87,81,76,74,66,,,,1.20,0.56,1.06*13
,$GPGSV,3,1,12,01,13,218,,08,02,278,13,10,61,083,43,12,13,108,21*74
,$GPGSV,3,2,12,21,29,234,20,23,29,065,38,24,08,138,12,25,18,073,30*78
,$GPGSV,3,3,12,31,34,343,41,32,70,190,39,48,15,071,,50,25,298,*75
,$GLGSV,3,1,10,65,52,147,41,66,31,234,21,72,20,103,27,74,23,143,27*60
,$GLGSV,3,2,10,75,48,080,40,76,22,018,31,81,32,245,23,82,07,201,20*6B
,$GLGSV,3,3,10,87,06,341,22,88,29,308,22*6B
,$GNGLL,3653.49496,S,17454.61027,E,220859.00,A,A*6A
,$GNRMC,220900.00,A,3653.49506,S,17454.61038,E,0.463,,150621,,,A*78
,$GNVTG,,T,,M,0.463,N,0.858,K,A*39
,$GNGGA,220900.00,3653.49506,S,17454.61038,E,1,12,0.56,25.0,M,28.1,M,,*68
,$GNGSA,A,3,12,23,10,25,24,32,31,21,,,,,1.20,0.56,1.06*19
,$GNGSA,A,3,82,72,88,65,87,81,76,74,66,,,,1.20,0.56,1.06*13
,$GPGSV,4,1,13,01,13,218,24,08,02,278,13,10,61,083,43,12,13,108,21*74
,$GPGSV,4,2,13,21,29,234,22,23,29,065,40,24,08,138,10,25,18,073,25*75
,$GPGSV,4,3,13,31,34,343,38,32,70,190,40,46,,,37,48,15,071,*44
,$GPGSV,4,4,13,50,25,298,*4A
,$GLGSV,3,1,10,65,52,147,39,66,31,234,21,72,20,103,26,74,23,143,27*6E
,$GLGSV,3,2,10,75,48,080,44,76,22,018,34,81,32,245,24,82,07,201,20*6D
,$GLGSV,3,3,10,87,06,341,22,88,29,308,28*61
,$GNGLL,3653.49506,S,17454.61038,E,220900.00,A,A*61
,$GNRMC,220901.00,A,3653.49514,S,17454.61048,E,0.377,,150621,,,A*7F
,$GNVTG,,T,,M,0.377,N,0.698,K,A*39
,$GNGGA,220901.00,3653.49514,S,17454.61048,E,1,12,0.56,25.0,M,28.1,M,,*6D
,$GNGSA,A,3,12,23,10,25,24,32,31,21,,,,,1.20,0.56,1.06*19
,$GNGSA,A,3,82,72,88,65,87,81,76,74,66,,,,1.20,0.56,1.06*13
,$GPGSV,4,1,13,01,13,218,23,08,02,278,12,10,61,083,44,12,13,108,23*77
,$GPGSV,4,2,13,21,29,234,23,23,29,065,28,24,08,138,11,25,18,073,31*7E
,$GPGSV,4,3,13,31,34,343,39,32,70,190,37,46,,,38,48,15,071,*4A
,$GPGSV,4,4,13,50,25,298,*4A
,$GLGSV,3,1,10,65,52,147,37,66,31,234,21,72,20,103,25,74,23,143,28*6C
,$GLGSV,3,2,10,75,48,080,43,76,22,018,31,81,32,245,31,82,07,201,25*6E
,$GLGSV,3,3,10,87,06,341,24,88,29,308,21*6E
,$GNGLL,3653.49514,S,17454.61048,E,220901.00,A,A*64
,$GNRMC,220902.00,A,3653.49523,S,17454.61047,E,0.444,,150621,,,A*70
,$GNVTG,,T,,M,0.444,N,0.823,K,A*30
,$GNGGA,220902.00,3653.49523,S,17454.61047,E,1,12,0.55,25.3,M,28.1,M,,*65
,$GNGSA,A,3,12,23,10,25,24,32,31,21,,,,,1.14,0.55,1.00*1B
,$GNGSA,A,3,82,72,88,65,87,81,76,74,66,,,,1.14,0.55,1.00*11
,$GPGSV,4,1,13,01,13,218,20,08,02,278,11,10,61,083,43,12,13,108,31*73
,$GPGSV,4,2,13,21,29,234,22,23,29,065,30,24,08,138,12,25,18,073,34*70
,$GPGSV,4,3,13,31,35,343,32,32,70,190,30,46,,,35,48,15,071,*4A
,$GPGSV,4,4,13,50,25,298,*4A
,$GLGSV,3,1,10,65,52,147,34,66,31,234,23,72,20,103,24,74,23,143,27*63
,$GLGSV,3,2,10,75,48,080,43,76,22,018,32,81,32,245,23,82,07,201,31*6B
,$GLGSV,3,3,10,87,06,341,23,88,29,308,24*6C
,$GNGLL,3653.49523,S,17454.61047,E,220902.00,A,A*6C
,$GNRMC,220903.00,A,3653.49520,S,17454.61054,E,0.264,,150621,,,A*74
,$GNVTG,,T,,M,0.264,N,0.489,K,A*38
,$GNGGA,220903.00,3653.49520,S,17454.61054,E,1,12,0.56,25.6,M,28.1,M,,*63
,$GNGSA,A,3,12,23,10,25,24,32,31,21,,,,,1.20,0.56,1.06*19
,$GNGSA,A,3,82,72,88,65,87,81,76,74,66,,,,1.20,0.56,1.06*13
,$GPGSV,3,1,12,01,13,218,22,08,02,278,15,10,61,083,40,12,13,108,29*79
,$GPGSV,3,2,12,21,29,234,25,23,29,065,21,24,08,138,12,25,18,073,27*73
,$GPGSV,3,3,12,31,35,343,36,32,69,188,34,48,15,071,,50,25,298,*78
,$GLGSV,3,1,10,65,52,147,34,66,31,234,24,72,20,103,24,74,23,143,27*64
,$GLGSV,3,2,10,75,48,080,44,76,22,018,36,81,32,245,31,82,07,201,25*6E
,$GLGSV,3,3,10,87,06,341,23,88,29,308,26*6E
,$GNGLL,3653.49520,S,17454.61054,E,220903.00,A,A*6C
,$GNRMC,220904.00,A,3653.49518,S,17454.61066,E,0.353,,150621,,,A*7C
,$GNVTG,,T,,M,0.353,N,0.653,K,A*38
,$GNGGA,220904.00,3653.49518,S,17454.61066,E,1,12,0.56,25.7,M,28.1,M,,*6F
,$GNGSA,A,3,12,23,10,25,24,32,31,21,,,,,1.20,0.56,1.06*19
,$GNGSA,A,3,82,72,88,65,87,81,76,74,66,,,,1.20,0.56,1.06*13
,$GPGSV,3,1,12,01,13,218,22,08,02,278,15,10,61,083,38,12,13,108,26*79
,$GPGSV,3,2,12,21,29,234,31,23,29,065,22,24,08,138,12,25,18,073,27*75
,$GPGSV,3,3,12,31,35,343,38,32,69,188,34,48,15,071,,50,25,298,*76
,$GLGSV,3,1,10,65,52,147,34,66,31,234,34,72,20,103,24,74,23,143,25*67
,$GLGSV,3,2,10,75,48,080,44,76,22,018,36,81,32,245,30,82,07,201,31*6A
,$GLGSV,3,3,10,87,06,341,22,88,29,308,25*6C
,$GNGLL,3653.49518,S,17454.61066,E,220904.00,A,A*61
,$GNRMC,220905.00,A,3653.49513,S,17454.61069,E,0.424,,150621,,,A*7E
,$GNVTG,,T,,M,0.424,N,0.786,K,A*36
,$GNGGA,220905.00,3653.49513,S,17454.61069,E,1,12,0.55,25.9,M,28.1,M,,*67
,$GNGSA,A,3,12,23,10,25,24,32,31,21,,,,,1.14,0.55,1.00*1B
,$GNGSA,A,3,82,72,88,65,87,81,76,74,66,,,,1.14,0.55,1.00*11
,$GPGSV,3,1,12,01,13,218,23,08,02,278,12,10,61,083,34,12,13,108,26*73
,$GPGSV,3,2,12,21,29,234,30,23,29,065,22,24,08,138,12,25,18,073,27*74
,$GPGSV,3,3,12,31,35,343,41,32,69,188,39,48,15,071,,50,25,298,*75
,$GLGSV,3,1,10,65,52,147,31,66,31,234,36,72,20,103,31,74,23,143,26*67
,$GLGSV,3,2,10,75,48,080,41,76,22,018,38,81,32,245,34,82,07,201,25*60
,$GLGSV,3,3,10,87,06,341,30,88,29,308,25*6F
,$GNGLL,3653.49513,S,17454.61069,E,220905.00,A,A*64
,$GNRMC,220906.00,A,3653.49519,S,17454.61071,E,0.528,131.43,150621,,,A*69
,$GNVTG,131.43,T,,M,0.528,N,0.977,K,A*21
,$GNGGA,220906.00,3653.49519,S,17454.61071,E,1,12,0.56,25.5,M,28.1,M,,*68
,$GNGSA,A,3,12,23,10,25,24,32,31,21,,,,,1.20,0.56,1.06*19
,$GNGSA,A,3,82,72,88,65,87,81,76,74,66,,,,1.20,0.56,1.06*13
,$GPGSV,3,1,12,01,13,218,30,08,02,278,10,10,61,083,31,12,13,108,26*76
,$GPGSV,3,2,12,21,29,234,37,23,29,065,25,24,08,138,12,25,18,073,25*76
,$GPGSV,3,3,12,31,35,343,40,32,69,188,34,48,15,071,,50,25,298,*79
,$GLGSV,3,1,10,65,52,147,36,66,31,234,40,72,20,103,27,74,23,143,26*66
,$GLGSV,3,2,10,75,48,080,36,76,22,018,38,81,32,245,37,82,07,201,35*62
,$GLGSV,3,3,10,87,06,341,33,88,29,308,31*69
,$GNGLL,3653.49519,S,17454.61071,E,220906.00,A,A*64
,$GNRMC,220907.00,A,3653.49511,S,17454.61079,E,0.585,79.22,150621,,,A*55
,$GNVTG,79.22,T,,M,0.585,N,1.084,K,A*18
,$GNGGA,220907.00,3653.49511,S,17454.61079,E,1,12,0.56,25.6,M,28.1,M,,*6A
,$GNGSA,A,3,12,23,10,25,24,32,31,21,,,,,1.20,0.56,1.06*19
,$GNGSA,A,3,82,72,88,65,87,81,76,74,66,,,,1.20,0.56,1.06*13
,$GPGSV,3,1,12,01,13,218,26,08,02,278,11,10,61,083,40,12,13,108,24*74
,$GPGSV,3,2,12,21,29,234,39,23,29,065,25,24,08,138,14,25,18,073,26*7D
,$GPGSV,3,3,12,31,35,343,38,32,69,188,39,48,15,071,,50,25,298,*7B
,$GLGSV,3,1,10,65,52,147,34,66,31,234,39,72,20,103,26,74,23,143,27*6A
,$GLGSV,3,2,10,75,48,080,38,76,22,018,32,81,32,245,34,82,07,201,28*69
,$GLGSV,3,3,10,87,06,341,16,88,29,308,37*68
,$GNGLL,3653.49511,S,17454.61079,E,220907.00,A,A*65
,$GNRMC,220908.00,A,3653.49509,S,17454.61102,E,0.612,63.42,150621,,,A*5E
,$GNVTG,63.42,T,,M,0.612,N,1.133,K,A*15
,$GNGGA,220908.00,3653.49509,S,17454.61102,E,1,12,0.55,25.4,M,28.1,M,,*60
,$GNGSA,A,3,12,23,10,25,24,32,31,21,,,,,1.14,0.55,1.00*1B
,$GNGSA,A,3,82,72,88,65,87,81,76,74,66,,,,1.14,0.55,1.00*11
,$GPGSV,3,1,12,01,13,218,26,08,02,278,14,10,61,083,26,12,13,108,25*70
,$GPGSV,3,2,12,21,29,234,35,23,29,065,24,24,08,138,13,25,18,073,26*77
,$GPGSV,3,3,12,31,35,343,35,32,69,188,40,48,15,071,,50,25,298,*78
,$GLGSV,3,1,10,65,52,147,33,66,31,234,39,72,20,103,27,74,23,143,32*68
,$GLGSV,3,2,10,75,48,080,33,76,22,018,36,81,32,245,43,82,07,201,38*67
,$GLGSV,3,3,10,87,06,341,23,88,29,308,41*6F
,$GNGLL,3653.49509,S,17454.61102,E,220908.00,A,A*6E
,$GNRMC,220909.00,A,3653.49498,S,17454.61123,E,0.586,51.67,150621,,,A*5D
,$GNVTG,51.67,T,,M,0.586,N,1.086,K,A*12
,$GNGGA,220909.00,3653.49498,S,17454.61123,E,1,12,0.56,25.5,M,28.1,M,,*69
,$GNGSA,A,3,12,23,10,25,24,32,31,21,,,,,1.20,0.56,1.06*19
,$GNGSA,A,3,82,72,88,65,87,81,76,74,66,,,,1.20,0.56,1.06*13
,$GPGSV,3,1,12,01,13,218,31,08,02,278,14,10,61,083,38,12,13,108,25*79
,$GPGSV,3,2,12,21,29,234,39,23,29,065,30,24,08,138,13,25,18,073,31*78
,$GPGSV,3,3,12,31,35,343,38,32,69,188,34,48,15,071,,50,25,298,27*73
,$GLGSV,3,1,10,65,52,147,41,66,31,234,41,72,20,103,27,74,23,143,26*67
,$GLGSV,3,2,10,75,48,080,28,76,22,018,36,81,32,245,42,82,07,201,27*62
,$GLGSV,3,3,10,87,06,341,22,88,29,308,38*60
,$GNGLL,3653.49498,S,17454.61123,E,220909.00,A,A*65
,$GNRMC,220910.00,A,3653.49482,S,17454.61134,E,0.674,30.11,150621,,,A*50
,$GNVTG,30.11,T,,M,0.674,N,1.248,K,A*1A
,$GNGGA,220910.00,3653.49482,S,17454.61134,E,1,12,0.56,25.6,M,28.1,M,,*6F
,$GNGSA,A,3,12,23,10,25,24,32,31,21,,,,,1.20,0.56,1.06*19
,$GNGSA,A,3,82,72,88,65,87,81,76,74,66,,,,1.20,0.56,1.06*13
,$GPGSV,3,1,12,01,13,218,25,08,02,278,14,10,61,083,36,12,13,108,24*73
,$GPGSV,3,2,12,21,29,234,39,23,29,065,34,24,08,138,13,25,18,073,25*79
,$GPGSV,3,3,12,31,35,343,38,32,69,188,35,48,15,071,,50,25,298,28*7D
,$GLGSV,3,1,10,65,52,147,38,66,31,234,42,72,20,103,26,74,23,143,27*6A
,$GLGSV,3,2,10,75,48,080,27,76,22,018,41,81,32,245,44,82,07,201,28*64
,$GLGSV,3,3,10,87,06,341,23,88,29,308,41*6F
,$GNGLL,3653.49482,S,17454.61134,E,220910.00,A,A*60
,$GNRMC,220911.00,A,3653.49461,S,17454.61149,E,0.706,25.40,150621,,,A*52
,$GNVTG,25.40,T,,M,0.706,N,1.308,K,A*1B
,$GNGGA,220911.00,3653.49461,S,17454.61149,E,1,12,0.55,25.7,M,28.1,M,,*6B
,$GNGSA,A,3,12,23,10,25,24,32,31,21,,,,,1.14,0.55,1.00*1B
,$GNGSA,A,3,82,72,88,65,87,81,76,74,66,,,,1.14,0.55,1.00*11
,$GPGSV,3,1,12,01,13,218,35,08,02,278,15,10,61,083,38,12,13,108,27*7E
,$GPGSV,3,2,12,21,29,234,42,23,29,065,30,24,08,138,13,25,18,073,27*73
,$GPGSV,3,3,12,31,35,343,42,32,69,188,37,48,15,071,,50,25,298,27*7D
,$GLGSV,3,1,10,65,52,147,20,66,31,234,44,72,20,103,26,74,23,143,28*6A
,$GLGSV,3,2,10,75,48,080,34,76,22,018,35,81,32,245,41,82,07,201,34*6D
,$GLGSV,3,3,10,87,06,341,23,88,29,308,35*6C
,$GNGLL,3653.49461,S,17454.61149,E,220911.00,A,A*66
,$GNRMC,220912.00,A,3653.49443,S,17454.61159,E,0.665,14.29,150621,,,A*59
,$GNVTG,14.29,T,,M,0.665,N,1.231,K,A*19
,$GNGGA,220912.00,3653.49443,S,17454.61159,E,1,12,0.56,25.8,M,28.1,M,,*65
,$GNGSA,A,3,12,23,10,25,24,32,31,21,,,,,1.20,0.56,1.06*19
,$GNGSA,A,3,82,72,88,65,87,81,76,74,66,,,,1.20,0.56,1.06*13
,$GPGSV,3,1,12,01,13,218,29,08,02,278,16,10,61,083,37,12,13,108,26*7E
,$GPGSV,3,2,12,21,29,234,38,23,29,065,24,24,08,138,13,25,18,073,27*7B
,$GPGSV,3,3,12,31,35,343,41,32,69,188,35,48,15,071,,50,25,298,*79
,$GLGSV,3,1,10,65,52,147,23,66,31,234,44,72,20,103,31,74,23,143,28*6F
,$GLGSV,3,2,10,75,48,080,31,76,22,018,33,81,32,245,42,82,07,201,35*6C
,$GLGSV,3,3,10,87,06,341,24,88,29,308,41*68
,$GNGLL,3653.49443,S,17454.61159,E,220912.00,A,A*64
,$GNRMC,220913.00,A,3653.49426,S,17454.61167,E,0.594,11.72,150621,,,A*50
,$GNVTG,11.72,T,,M,0.594,N,1.099,K,A*1F
,$GNGGA,220913.00,3653.49426,S,17454.61167,E,1,12,0.56,25.4,M,28.1,M,,*66
,$GNGSA,A,3,12,23,10,25,24,32,31,21,,,,,1.20,0.56,1.06*19
,$GNGSA,A,3,82,72,88,65,87,81,76,74,66,,,,1.20,0.56,1.06*13
,$GPGSV,3,1,12,01,13,218,23,08,02,278,17,10,61,083,30,12,13,108,24*70
,$GPGSV,3,2,12,21,29,234,40,23,29,065,32,24,08,138,08,25,18,073,31*7E
,$GPGSV,3,3,12,31,35,343,38,32,69,188,41,48,15,071,,50,25,298,*74
,$GLGSV,3,1,10,65,52,147,33,66,31,234,43,72,20,103,29,74,23,143,27*6F
,$GLGSV,3,2,10,75,48,080,26,76,22,018,32,81,32,245,40,82,07,201,36*6A
,$GLGSV,3,3,10,87,06,341,32,88,29,308,41*6F
,$GNGLL,3653.49426,S,17454.61167,E,220913.00,A,A*6B
,$GNRMC,220914.00,A,3653.49410,S,17454.61170,E,0.511,9.02,150621,,,A*67
,$GNVTG,9.02,T,,M,0.511,N,0.947,K,A*27
,$GNGGA,220914.00,3653.49410,S,17454.61170,E,1,12,0.55,25.3,M,28.1,M,,*66
,$GNGSA,A,3,12,23,10,25,24,32,31,21,,,,,1.14,0.55,1.00*1B
,$GNGSA,A,3,82,72,88,65,87,81,76,74,66,,,,1.14,0.55,1.00*11
,$GPGSV,3,1,12,01,13,218,24,08,02,278,16,10,61,083,37,12,13,108,22*77
,$GPGSV,3,2,12,21,29,234,38,23,29,065,28,24,08,138,15,25,18,073,38*7F
,$GPGSV,3,3,12,31,35,343,27,32,69,188,40,48,15,071,,50,25,298,*7B
,$GLGSV,3,1,10,65,52,147,34,66,31,234,40,72,20,103,23,74,23,143,28*6E
,$GLGSV,3,2,10,75,48,080,31,76,22,018,34,81,32,245,42,82,07,201,27*68
,$GLGSV,3,3,10,87,06,341,32,88,29,308,43*6D
,$GNGLL,3653.49410,S,17454.61170,E,220914.00,A,A*6F
,$GNRMC,220915.00,A,3653.49396,S,17454.61166,E,0.471,0.39,150621,,,A*6E
,$GNVTG,0.39,T,,M,0.471,N,0.872,K,A*26
,$GNGGA,220915.00,3653.49396,S,17454.61166,E,1,12,0.56,25.5,M,28.1,M,,*6C
,$GNGSA,A,3,12,23,10,25,24,32,31,21,,,,,1.20,0.56,1.06*19
,$GNGSA,A,3,82,72,88,65,87,81,76,74,66,,,,1.20,0.56,1.06*13
,$GPGSV,3,1,12,01,13,218,25,08,02,278,17,10,61,083,41,12,13,108,24*70
,$GPGSV,3,2,12,21,29,234,38,23,29,065,35,24,08,138,16,25,18,073,32*7A
,$GPGSV,3,3,12,31,35,343,19,32,69,188,41,48,15,071,,50,25,298,*77
,$GLGSV,3,1,10,65,52,147,43,66,31,234,38,72,20,103,25,74,23,143,28*67
,$GLGSV,3,2,10,75,48,080,26,76,22,018,34,81,32,245,41,82,07,201,29*63
,$GLGSV,3,3,10,87,06,341,26,88,29,308,40*6B
,$GNGLL,3653.49396,S,17454.61166,E,220915.00,A,A*60
,$GNRMC,220916.00,A,3653.49380,S,17454.61171,E,0.584,350.47,150621,,,A*68
,$GNVTG,350.47,T,,M,0.584,N,1.082,K,A*24
,$GNGGA,220916.00,3653.49380,S,17454.61171,E,1,12,0.56,25.4,M,28.1,M,,*6F
,$GNGSA,A,3,12,23,10,25,24,32,31,21,,,,,1.20,0.56,1.06*19
,$GNGSA,A,3,82,72,88,65,87,81,76,74,66,,,,1.20,0.56,1.06*13
,$GPGSV,3,1,12,01,13,218,27,08,02,278,15,10,61,083,40,12,13,108,24*71
,$GPGSV,3,2,12,21,29,234,39,23,29,065,29,24,08,138,15,25,18,073,27*71
,$GPGSV,3,3,12,31,35,343,29,32,69,188,45,48,15,071,,50,25,298,*70
,$GLGSV,3,1,10,65,52,147,39,66,31,234,41,72,20,103,34,74,23,143,27*6B
,$GLGSV,3,2,10,75,48,080,39,76,22,018,36,81,32,245,40,82,07,201,32*64
,$GLGSV,3,3,10,87,06,341,25,88,29,308,31*6E
